timestamp,baro_alt_meter,baro_temp_celcius,baro_pressure_pa,rho
51033877,-9.3221035,23.39,101437.0,1.2052394
51057025,-9.3221035,23.4,101437.0,1.2052394
51067774,-9.3221035,23.4,101437.0,1.2052394
51079395,-9.485928,23.4,101438.99,1.205263
51101322,-9.734305,23.4,101442.0,1.2052988
51111776,-9.237549,23.4,101436.0,1.2052275
51123375,-9.401373,23.4,101438.0,1.2052512
51145780,-9.237549,23.4,101436.0,1.2052275
51156808,-9.570481,23.4,101440.0,1.205275
51169275,-9.401373,23.4,101438.0,1.2052512
51189323,-9.06844,23.4,101434.0,1.2052038
51198775,-9.3221035,23.4,101437.0,1.2052394
51209855,-9.3221035,23.4,101437.0,1.2052394
51233138,-9.401373,23.4,101438.0,1.2052512
51242790,-9.570481,23.4,101440.0,1.205275
51253354,-9.237549,23.4,101436.0,1.2052275
51273707,-9.3221035,23.4,101437.0,1.2052394
51284789,-9.401373,23.4,101438.0,1.2052512
51296966,-9.401373,23.4,101438.0,1.2052512
51317318,-9.3221035,23.4,101437.0,1.2052394
51327762,-9.06844,23.4,101434.0,1.2052038
51339356,-9.237549,23.4,101436.0,1.2052275
51361850,-9.237549,23.4,101436.0,1.2052275
51371764,-8.989171,23.4,101432.99,1.2051917
51382406,-9.485928,23.4,101438.99,1.205263
51404519,-9.237549,23.41,101436.0,1.2052275
51415763,-9.237549,23.41,101436.0,1.2052275
51426388,-9.3221035,23.41,101437.0,1.2052394
51447372,-9.401373,23.41,101438.0,1.2052512
51458012,-9.655036,23.41,101441.0,1.2052869
51469320,-9.401373,23.41,101438.0,1.2052512
51491371,-9.3221035,23.41,101437.0,1.2052394
51501219,-9.3221035,23.41,101437.0,1.2052394
51511371,-9.3221035,23.41,101437.0,1.2052394
51533364,-9.06844,23.41,101434.0,1.2052038
51543764,-9.152995,23.41,101435.0,1.2052156
51555395,-8.904617,23.41,101432.0,1.2051799
51576318,-9.152995,23.42,101435.0,1.2052156
51585998,-9.3221035,23.42,101437.0,1.2052394
51596325,-9.3221035,23.42,101437.0,1.2052394
51618742,-9.401373,23.42,101438.0,1.2052512
51629236,-9.485928,23.42,101438.99,1.205263
51639374,-8.904617,23.42,101432.0,1.2051799
51661317,-9.485928,23.42,101438.99,1.205263
51671802,-9.485928,23.42,101438.99,1.205263
51683372,-8.989171,23.42,101432.99,1.2051917
51704321,-9.401373,23.42,101438.0,1.2052512
51714218,-9.570481,23.42,101440.0,1.205275
51724316,-9.401373,23.42,101438.0,1.2052512
51744318,-9.485928,23.42,101438.99,1.205263
51753909,-9.3221035,23.42,101437.0,1.2052394
51765312,-9.401373,23.42,101438.0,1.2052512
51786728,-9.3221035,23.42,101437.0,1.2052394
51797230,-9.570481,23.42,101440.0,1.205275
51808315,-9.152995,23.42,101435.0,1.2052156
51829314,-9.734305,23.43,101442.0,1.2052988
51838776,-9.3221035,23.43,101437.0,1.2052394
51849589,-9.3221035,23.43,101437.0,1.2052394
51871322,-9.570481,23.43,101440.0,1.205275
51882011,-9.3221035,23.43,101437.0,1.2052394
51892312,-9.237549,23.43,101436.0,1.2052275
51914395,-9.237549,23.43,101436.0,1.2052275
51925217,-9.3221035,23.43,101437.0,1.2052394
51936317,-9.06844,23.43,101434.0,1.2052038
51958381,-9.06844,23.43,101434.0,1.2052038
51969760,-8.740793,23.43,101430.0,1.2051562
51981323,-8.48713,23.43,101426.99,1.2051204
52001822,-9.485928,23.43,101438.99,1.205263
52011771,-9.152995,23.43,101435.0,1.2052156
52023312,-8.656239,23.43,101429.0,1.2051443
52045348,-9.401373,23.43,101438.0,1.2052512
52055761,-8.740793,23.43,101430.0,1.2051562
52066663,-8.989171,23.43,101432.99,1.2051917
52087428,-8.740793,23.43,101430.0,1.2051562
52097878,-9.06844,23.43,101434.0,1.2052038
52108355,-8.989171,23.43,101432.99,1.2051917
52129773,-9.152995,23.439999,101435.0,1.2052156
52139771,-9.570481,23.439999,101440.0,1.205275
52150407,-8.989171,23.439999,101432.99,1.2051917
52172325,-9.152995,23.439999,101435.0,1.2052156
52182778,-9.06844,23.439999,101434.0,1.2052038
52194417,-9.3221035,23.439999,101437.0,1.2052394
52216477,-9.655036,23.439999,101441.0,1.2052869
52227470,-9.237549,23.439999,101436.0,1.2052275
52238477,-9.485928,23.439999,101438.99,1.205263
52260469,-9.152995,23.439999,101435.0,1.2052156
52271515,-9.3221035,23.439999,101437.0,1.2052394
52282571,-9.237549,23.439999,101436.0,1.2052275
52302877,-9.485928,23.439999,101438.99,1.205263
52314500,-9.152995,23.439999,101435.0,1.2052156
52325312,-9.3221035,23.439999,101437.0,1.2052394
52346616,-9.401373,23.439999,101438.0,1.2052512
52356788,-9.06844,23.439999,101434.0,1.2052038
52368313,-8.740793,23.439999,101430.0,1.2051562
52389322,-9.3221035,23.439999,101437.0,1.2052394
52398788,-9.3221035,23.439999,101437.0,1.2052394
52409311,-8.904617,23.439999,101432.0,1.2051799
52430420,-9.485928,23.439999,101438.99,1.205263
52440786,-9.485928,23.439999,101438.99,1.205263
52452316,-9.237549,23.439999,101436.0,1.2052275
52473352,-9.570481,23.439999,101440.0,1.205275
52483763,-9.06844,23.439999,101434.0,1.2052038
52494415,-9.237549,23.439999,101436.0,1.2052275
52514428,-9.570481,23.439999,101440.0,1.205275
52524803,-9.401373,23.439999,101438.0,1.2052512
52536313,-9.485928,23.439999,101438.99,1.205263
52558407,-9.655036,23.439999,101441.0,1.2052869
52567764,-9.152995,23.439999,101435.0,1.2052156
52578428,-8.989171,23.439999,101432.99,1.2051917
52600476,-9.3221035,23.449999,101437.0,1.2052394
52611476,-9.06844,23.449999,101434.0,1.2052038
52622494,-9.237549,23.449999,101436.0,1.2052275
52644507,-9.06844,23.449999,101434.0,1.2052038
52655470,-9.237549,23.449999,101436.0,1.2052275
52666604,-8.904617,23.449999,101432.0,1.2051799
52687469,-9.06844,23.449999,101434.0,1.2052038
52698655,-9.401373,23.449999,101438.0,1.2052512
52709469,-9.237549,23.449999,101436.0,1.2052275
52731472,-9.401373,23.449999,101438.0,1.2052512
52742491,-9.3221035,23.449999,101437.0,1.2052394
52752477,-9.734305,23.449999,101442.0,1.2052988
52773479,-9.485928,23.449999,101438.99,1.205263
52784470,-9.401373,23.449999,101438.0,1.2052512
52795471,-9.655036,23.449999,101441.0,1.2052869
52816469,-9.401373,23.449999,101438.0,1.2052512
52827470,-9.903414,23.449999,101444.0,1.2053225
52838485,-9.401373,23.449999,101438.0,1.2052512
52858491,-9.237549,23.449999,101436.0,1.2052275
52869476,-9.3221035,23.449999,101437.0,1.2052394
52880476,-8.571685,23.449999,101428.0,1.2051325
52901327,-9.3221035,23.449999,101437.0,1.2052394
52910778,-9.152995,23.449999,101435.0,1.2052156
52921314,-9.3221035,23.449999,101437.0,1.2052394
52942398,-8.904617,23.46,101432.0,1.2051799
52952810,-9.237549,23.46,101436.0,1.2052275
52964316,-8.48713,23.46,101426.99,1.2051204
52984313,-8.48713,23.46,101426.99,1.2051204
52994959,-9.06844,23.46,101434.0,1.2052038
53006392,-8.820063,23.46,101431.0,1.2051681
53028319,-7.657442,23.46,101417.0,1.2050017
53038114,-8.402576,23.46,101425.99,1.2051085
53049313,-8.074928,23.46,101422.0,1.2050611
53070322,-6.9915776,23.46,101409.0,1.2049067
53081470,-6.9915776,23.46,101409.0,1.2049067
53092470,-7.7419963,23.46,101418.0,1.2050136
53113479,-7.155401,23.46,101411.0,1.2049304
53123616,-7.4037795,23.46,101413.99,1.204966
53134636,-7.4883337,23.46,101415.0,1.204978
53156319,-7.7419963,23.46,101418.0,1.2050136
53167118,-8.238752,23.46,101424.0,1.2050849
53178319,-8.48713,23.46,101426.99,1.2051204
53198314,-8.238752,23.46,101424.0,1.2050849
53208803,-7.7419963,23.46,101418.0,1.2050136
53220322,-7.7419963,23.46,101418.0,1.2050136
53241321,-7.572888,23.46,101416.0,1.2049898
53251764,-8.074928,23.46,101422.0,1.2050611
53262320,-7.8212657,23.46,101419.0,1.2050254
53284330,-8.904617,23.46,101432.0,1.2051799
53295209,-9.485928,23.46,101438.99,1.205263
53306609,-9.152995,23.46,101435.0,1.2052156
53327667,-9.237549,23.47,101436.0,1.2052275
53337787,-9.570481,23.47,101440.0,1.205275
53348314,-9.818859,23.47,101443.0,1.2053107
53368317,-8.656239,23.46,101429.0,1.2051443
53377783,-9.237549,23.46,101436.0,1.2052275
53389325,-9.06844,23.46,101434.0,1.2052038
53410628,-8.904617,23.46,101432.0,1.2051799
53420786,-9.655036,23.46,101441.0,1.2052869
53432315,-8.820063,23.46,101431.0,1.2051681
53455843,-9.237549,23.47,101436.0,1.2052275
53465783,-9.401373,23.47,101438.0,1.2052512
53476362,-8.989171,23.47,101432.99,1.2051917
53497352,-9.152995,23.47,101435.0,1.2052156
53507773,-9.06844,23.47,101434.0,1.2052038
53518828,-8.820063,23.47,101431.0,1.2051681
53541319,-9.06844,23.46,101434.0,1.2052038
53551770,-8.740793,23.46,101430.0,1.2051562
53562684,-8.904617,23.46,101432.0,1.2051799
53585317,-8.571685,23.46,101428.0,1.2051325
53595764,-8.740793,23.46,101430.0,1.2051562
53607645,-8.571685,23.46,101428.0,1.2051325
53630626,-8.989171,23.46,101432.99,1.2051917
53640808,-9.152995,23.46,101435.0,1.2052156
53652336,-8.48713,23.46,101426.99,1.2051204
53674641,-8.238752,23.46,101424.0,1.2050849
53685802,-8.238752,23.46,101424.0,1.2050849
53698097,-8.323306,23.46,101425.0,1.2050968
53720325,-8.904617,23.47,101432.0,1.2051799
53729786,-8.402576,23.47,101425.99,1.2051085
53740308,-8.154198,23.47,101423.0,1.205073
53762668,-7.990374,23.46,101421.0,1.2050493
53772804,-8.238752,23.46,101424.0,1.2050849
53784322,-7.990374,23.46,101421.0,1.2050493
53806629,-8.323306,23.47,101425.0,1.2050968
53816801,-8.571685,23.47,101428.0,1.2051325
53828317,-7.90582,23.47,101419.99,1.2050372
53850327,-8.074928,23.47,101422.0,1.2050611
53861468,-7.990374,23.47,101421.0,1.2050493
53872470,-8.238752,23.47,101424.0,1.2050849
53892470,-7.8212657,23.47,101419.0,1.2050254
53903478,-7.90582,23.47,101419.99,1.2050372
53914469,-7.8212657,23.47,101419.0,1.2050254
53935471,-7.990374,23.47,101421.0,1.2050493
53946471,-7.7419963,23.47,101418.0,1.2050136
53957093,-7.990374,23.47,101421.0,1.2050493
53979312,-8.074928,23.47,101422.0,1.2050611
53989265,-7.8212657,23.47,101419.0,1.2050254
54000667,-7.657442,23.47,101417.0,1.2050017
54023359,-7.657442,23.47,101417.0,1.2050017
54033789,-7.990374,23.47,101421.0,1.2050493
54045884,-7.990374,23.47,101421.0,1.2050493
54069120,-7.90582,23.47,101419.99,1.2050372
54079770,-7.7419963,23.47,101418.0,1.2050136
54091363,-7.572888,23.47,101416.0,1.2049898
54113352,-7.4883337,23.47,101415.0,1.204978
54122775,-7.572888,23.47,101416.0,1.2049898
54133901,-7.2399554,23.47,101412.0,1.2049423
54157789,-7.7419963,23.47,101418.0,1.2050136
54168818,-7.4037795,23.47,101413.99,1.204966
54179369,-7.4037795,23.47,101413.99,1.204966
54200448,-7.2399554,23.47,101412.0,1.2049423
54210775,-7.7419963,23.47,101418.0,1.2050136
54221690,-7.155401,23.47,101411.0,1.2049304
54242320,-7.2399554,23.47,101412.0,1.2049423
54253253,-7.4883337,23.47,101415.0,1.204978
54264505,-7.3245096,23.47,101413.0,1.2049541
54286408,-7.572888,23.47,101416.0,1.2049898
54295772,-6.9915776,23.47,101409.0,1.2049067
54306407,-7.2399554,23.47,101412.0,1.2049423
54327413,-7.2399554,23.48,101412.0,1.2049423
54336788,-7.572888,23.48,101416.0,1.2049898
54347400,-7.2399554,23.48,101412.0,1.2049423
54368671,-7.657442,23.48,101417.0,1.2050017
54379664,-7.2399554,23.48,101412.0,1.2049423
54390664,-6.9070234,23.48,101407.99,1.2048947
54414396,-6.9915776,23.48,101409.0,1.2049067
54423762,-7.076132,23.48,101410.0,1.2049185
54435369,-7.4883337,23.48,101415.0,1.204978
54457313,-7.3245096,23.47,101413.0,1.2049541
54466804,-7.3245096,23.47,101413.0,1.2049541
54478414,-6.658645,23.47,101405.0,1.2048591
54501516,-6.7431993,23.48,101406.0,1.204871
54511764,-7.155401,23.48,101411.0,1.2049304
54522400,-6.574091,23.48,101404.0,1.2048472
54542494,-7.076132,23.48,101410.0,1.2049185
54553784,-6.822469,23.48,101407.0,1.2048829
54566486,-6.9915776,23.48,101409.0,1.2049067
54587357,-7.3245096,23.48,101413.0,1.2049541
54597689,-6.574091,23.48,101404.0,1.2048472
54609315,-6.4948215,23.48,101403.0,1.2048354
54631365,-6.7431993,23.48,101406.0,1.204871
54641220,-6.4948215,23.48,101403.0,1.2048354
54651354,-6.1566043,23.48,101399.0,1.2047879
54673350,-6.4948215,23.48,101403.0,1.2048354
54682782,-6.9915776,23.48,101409.0,1.2049067
54694484,-6.325713,23.48,101400.99,1.2048116
54716313,-6.325713,23.48,101400.99,1.2048116
54726784,-6.325713,23.48,101400.99,1.2048116
54738389,-6.574091,23.48,101404.0,1.2048472
54760321,-6.7431993,23.48,101406.0,1.204871
54770773,-6.822469,23.48,101407.0,1.2048829
54782616,-6.241159,23.48,101400.0,1.2047998
54804324,-6.241159,23.48,101400.0,1.2047998
54813975,-6.4948215,23.48,101403.0,1.2048354
54825317,-6.241159,23.48,101400.0,1.2047998
54847213,-6.4102674,23.48,101401.99,1.2048234
54857230,-6.9070234,23.48,101407.99,1.2048947
54867400,-6.1566043,23.48,101399.0,1.2047879
54889314,-6.325713,23.49,101400.99,1.2048116
54899764,-6.1566043,23.49,101399.0,1.2047879
54911374,-6.1566043,23.49,101399.0,1.2047879
54931317,-5.9927807,23.49,101397.0,1.2047641
54942012,-6.4102674,23.49,101401.99,1.2048234
54953350,-6.077335,23.49,101398.0,1.2047759
54975541,-6.077335,23.49,101398.0,1.2047759
54985790,-6.077335,23.49,101398.0,1.2047759
54998292,-6.077335,23.49,101398.0,1.2047759
55019369,-6.4102674,23.49,101401.99,1.2048234
55029913,-5.9927807,23.49,101397.0,1.2047641
55041313,-5.8236723,23.49,101394.99,1.2047403
55063315,-6.241159,23.49,101400.0,1.2047998
55073207,-5.9082265,23.49,101396.0,1.2047522
55084316,-6.4102674,23.49,101401.99,1.2048234
55104319,-5.9082265,23.49,101396.0,1.2047522
55113817,-6.241159,23.49,101400.0,1.2047998
55124320,-5.1630926,23.49,101387.0,1.2046453
55145322,-5.8236723,23.49,101394.99,1.2047403
55154847,-5.575294,23.49,101392.0,1.2047046
55167077,-5.49074,23.49,101391.0,1.2046928
55188318,-5.744403,23.49,101394.0,1.2047285
55198779,-5.8236723,23.49,101394.99,1.2047403
55209322,-5.078538,23.49,101386.0,1.2046334
55229670,-5.326916,23.49,101388.99,1.204669
55241223,-5.659848,23.49,101393.0,1.2047166
55252313,-4.9939837,23.49,101385.0,1.2046216
55273351,-5.49074,23.49,101391.0,1.2046928
55283763,-5.242362,23.49,101388.0,1.2046572
55295362,-5.078538,23.49,101386.0,1.2046334
55316335,-5.575294,23.49,101392.0,1.2047046
55326790,-5.078538,23.49,101386.0,1.2046334
55338409,-4.9939837,23.49,101385.0,1.2046216
55359381,-4.9094296,23.5,101384.0,1.2046096
55370102,-4.8248754,23.5,101382.99,1.2045977
55381353,-5.078538,23.5,101386.0,1.2046334
55402416,-4.8248754,23.49,101382.99,1.2045977
55411762,-4.6610518,23.49,101381.0,1.204574
55423401,-4.9094296,23.49,101384.0,1.2046096
55444352,-4.8248754,23.5,101382.99,1.2045977
55454923,-4.6610518,23.5,101381.0,1.204574
55465353,-4.5764976,23.5,101380.0,1.2045621
55486514,-5.1630926,23.5,101387.0,1.2046453
55496786,-5.078538,23.5,101386.0,1.2046334
55507401,-4.8248754,23.5,101382.99,1.2045977
55530411,-4.4972277,23.5,101379.0,1.2045503
55540817,-4.745606,23.5,101382.0,1.2045859
55551396,-4.0797415,23.5,101374.0,1.2044908
55573351,-4.1642957,23.49,101375.0,1.2045027
55583224,-4.5764976,23.49,101380.0,1.2045621
55594876,-3.995187,23.49,101373.0,1.204479
55618407,-3.995187,23.5,101373.0,1.204479
55628805,-3.995187,23.5,101373.0,1.204479
55640317,-4.3281193,23.5,101376.99,1.2045264
55660313,-4.4126735,23.49,101378.0,1.2045383
55670802,-4.1642957,23.49,101375.0,1.2045027
55682413,-3.8313634,23.49,101371.0,1.2044551
55704332,-4.1642957,23.5,101375.0,1.2045027
55714042,-3.8313634,23.5,101371.0,1.2044551
55725326,-4.4126735,23.5,101378.0,1.2045383
55745314,-4.243565,23.5,101375.99,1.2045145
55755799,-4.0797415,23.5,101374.0,1.2044908
55767361,-3.6622548,23.5,101369.0,1.2044314
55788321,-3.995187,23.5,101373.0,1.204479
55798595,-4.0797415,23.5,101374.0,1.2044908
55809322,-3.6622548,23.5,101369.0,1.2044314
55830617,-3.498431,23.49,101367.0,1.2044077
55840803,-3.8313634,23.49,101371.0,1.2044551
55852321,-4.243565,23.49,101375.99,1.2045145
55875368,-4.0797415,23.5,101374.0,1.2044908
55887309,-3.8313634,23.5,101371.0,1.2044551
55898411,-3.498431,23.5,101367.0,1.2044077
55920319,-3.2447684,23.5,101363.99,1.2043719
55930062,-3.2447684,23.5,101363.99,1.2043719
55940317,-3.746809,23.5,101369.99,1.2044432
55962397,-3.8313634,23.5,101371.0,1.2044551
55972802,-3.3293226,23.5,101365.0,1.2043839
55984085,-3.5777006,23.5,101368.0,1.2044195
56004352,-3.6622548,23.49,101369.0,1.2044314
56014477,-3.4138768,23.49,101366.0,1.2043958
56026392,-2.9963903,23.49,101361.0,1.2043364
56048318,-2.9118361,23.5,101360.0,1.2043245
56058017,-3.5777006,23.5,101368.0,1.2044195
56068321,-2.9118361,23.5,101360.0,1.2043245
56090397,-3.995187,23.5,101373.0,1.204479
56099771,-3.8313634,23.5,101371.0,1.2044551
56111364,-3.3293226,23.5,101365.0,1.2043839
56133355,-3.4138768,23.5,101366.0,1.2043958
56142814,-2.9118361,23.5,101360.0,1.2043245
56153351,-3.6622548,23.5,101369.0,1.2044314
56176101,-3.498431,23.5,101367.0,1.2044077
56187104,-3.2447684,23.5,101363.99,1.2043719
56197316,-2.7480123,23.5,101357.99,1.2043006
56218317,-2.9963903,23.5,101361.0,1.2043364
56228803,-3.498431,23.5,101367.0,1.2044077
56240887,-2.7480123,23.5,101357.99,1.2043006
56262317,-2.7480123,23.5,101357.99,1.2043006
56273470,-2.7480123,23.5,101357.99,1.2043006
56283700,-3.0809445,23.5,101362.0,1.2043482
56305312,-3.2447684,23.5,101363.99,1.2043719
56315776,-2.7480123,23.5,101357.99,1.2043006
56326319,-3.0809445,23.5,101362.0,1.2043482
56348322,-2.0821478,23.5,101350.0,1.2042056
56357777,-2.41508,23.5,101354.0,1.2042532
56369321,-2.7480123,23.5,101357.99,1.2043006
56390631,-2.7480123,23.5,101357.99,1.2043006
56401774,-2.578904,23.5,101356.0,1.2042769
56412335,-2.7480123,23.5,101357.99,1.2043006
56433353,-2.8325665,23.5,101359.0,1.2043126
56443207,-2.41508,23.5,101354.0,1.2042532
56453349,-2.578904,23.5,101356.0,1.2042769
56473686,-2.663458,23.5,101357.0,1.2042888
56484076,-2.3305259,23.5,101353.0,1.2042413
56496424,-1.9130393,23.5,101348.0,1.2041819
56521122,-2.0821478,23.5,101350.0,1.2042056
56530920,-2.663458,23.5,101357.0,1.2042888
56541692,-2.3305259,23.5,101353.0,1.2042413
56564085,-1.9975935,23.5,101349.0,1.2041938
56575606,-1.9975935,23.5,101349.0,1.2041938
56586814,-2.3305259,23.5,101353.0,1.2042413
56609320,-2.2459717,23.5,101351.99,1.2042294
56619768,-1.9975935,23.5,101349.0,1.2041938
56630616,-2.1614175,23.5,101350.99,1.2042174
56653352,-2.4996343,23.5,101355.0,1.2042651
56663755,-2.1614175,23.5,101350.99,1.2042174
56675666,-1.5801071,23.5,101344.0,1.2041343
56697312,-1.5008374,23.49,101343.0,1.2041225
56707764,-1.6646613,23.49,101344.99,1.2041461
56718631,-1.5008374,23.49,101343.0,1.2041225
56741320,-2.0821478,23.5,101350.0,1.2042056
56751763,-2.1614175,23.5,101350.99,1.2042174
56763696,-1.7492155,23.5,101346.0,1.2041582
56784321,-1.8337698,23.5,101347.0,1.20417
56793781,-1.9130393,23.5,101348.0,1.2041819
56804320,-1.9130393,23.5,101348.0,1.2041819
56825326,-1.8337698,23.5,101347.0,1.20417
56835104,-1.331729,23.5,101341.0,1.2040987
56846334,-0.91424257,23.5,101336.0,1.2040393
56868321,-1.8337698,23.5,101347.0,1.20417
56879651,-1.8337698,23.5,101347.0,1.20417
56891704,-1.6646613,23.5,101344.99,1.2041461
56912993,-1.4162832,23.5,101342.0,1.2041106
56923765,-1.4162832,23.5,101342.0,1.2041106
56936796,-1.8337698,23.5,101347.0,1.20417
56960092,-1.6646613,23.5,101344.99,1.2041461
56970765,-2.0821478,23.5,101350.0,1.2042056
56982371,-1.5008374,23.5,101343.0,1.2041225
57003624,-0.99879676,23.5,101337.0,1.2040511
57013788,-1.1626205,23.5,101338.99,1.2040749
57025611,-1.6646613,23.5,101344.99,1.2041461
57046370,-1.5801071,23.5,101344.0,1.2041343
57056812,-1.1626205,23.5,101338.99,1.2040749
57068446,-0.91424257,23.5,101336.0,1.2040393
57089598,-1.5801071,23.5,101344.0,1.2041343
57100805,-1.6646613,23.5,101344.99,1.2041461
57113740,-1.331729,23.5,101341.0,1.2040987
57136170,-1.5008374,23.5,101343.0,1.2041225
57145790,-1.6646613,23.5,101344.99,1.2041461
57156476,-1.083351,23.5,101338.0,1.204063
57177968,-1.4162832,23.51,101342.0,1.2041106
57187902,-0.99879676,23.51,101337.0,1.2040511
57198315,-0.99879676,23.51,101337.0,1.2040511
57220438,-1.5008374,23.5,101343.0,1.2041225
57230770,-1.2471749,23.5,101340.0,1.2040869
57242317,-1.1626205,23.5,101338.99,1.2040749
57262318,-1.1626205,23.5,101338.99,1.2040749
57272414,-1.331729,23.5,101341.0,1.2040987
57283617,-0.834973,23.5,101335.0,1.2040274
57305674,-1.4162832,23.51,101342.0,1.2041106
57315907,-0.91424257,23.51,101336.0,1.2040393
57326412,-0.49675608,23.51,101331.0,1.2039798
57347706,-0.99879676,23.51,101337.0,1.2040511
57358679,-0.99879676,23.51,101337.0,1.2040511
57369855,-0.834973,23.51,101335.0,1.2040274
57392804,-1.5008374,23.51,101343.0,1.2041225
57403900,-1.1626205,23.51,101338.99,1.2040749
57416702,-1.2471749,23.51,101340.0,1.2040869
57438387,-1.331729,23.51,101341.0,1.2040987
57448489,-0.99879676,23.51,101337.0,1.2040511
57459621,-0.7504187,23.51,101334.0,1.2040155
57482388,-0.7504187,23.51,101334.0,1.2040155
57492004,-0.7504187,23.51,101334.0,1.2040155
57504717,-0.91424257,23.51,101336.0,1.2040393
57525321,-0.91424257,23.51,101336.0,1.2040393
57536322,-0.99879676,23.51,101337.0,1.2040511
57547624,-0.33293226,23.51,101329.0,1.2039561
57569624,-0.834973,23.51,101335.0,1.2040274
57580803,-0.99879676,23.51,101337.0,1.2040511
57593005,-0.6658645,23.51,101332.99,1.2040036
57614389,-0.16382381,23.51,101326.99,1.2039323
57624806,-0.16382381,23.51,101326.99,1.2039323
57635638,-0.33293226,23.51,101329.0,1.2039561
57657681,0.08191191,23.5,101324.0,1.2038968
57667900,-0.33293226,23.5,101329.0,1.2039561
57680833,-0.24837804,23.5,101328.0,1.2039442
57702390,0.08191191,23.51,101324.0,1.2038968
57713132,0.08191191,23.51,101324.0,1.2038968
57724543,-0.0,23.51,101325.0,1.2039086
57747631,-0.49675608,23.51,101331.0,1.2039798
57758774,-0.24837804,23.51,101328.0,1.2039442
57769317,0.49939838,23.51,101319.0,1.2038373
57789319,-0.24837804,23.51,101328.0,1.2039442
57799766,-0.0,23.51,101325.0,1.2039086
57811368,0.16646613,23.51,101323.0,1.2038848
57833858,0.16646613,23.51,101323.0,1.2038848
57844807,0.4174865,23.51,101319.99,1.2038491
57855378,0.16646613,23.51,101323.0,1.2038848
57877329,0.49939838,23.51,101319.0,1.2038373
57887765,0.24837804,23.51,101322.0,1.2038729
57898392,0.4174865,23.51,101319.99,1.2038491
57919383,0.6658645,23.51,101317.0,1.2038136
57929785,0.6658645,23.51,101317.0,1.2038136
57941340,0.33293226,23.51,101321.0,1.2038611
57962398,0.5813103,23.51,101318.0,1.2038255
57972818,0.83233064,23.51,101315.0,1.2037898
57983316,0.5813103,23.51,101318.0,1.2038255
58005312,0.83233064,23.51,101315.0,1.2037898
58015762,0.99879676,23.51,101313.0,1.203766
58026472,0.5813103,23.51,101318.0,1.2038255
58050620,1.1652629,23.51,101311.0,1.2037423
58061786,1.1652629,23.51,101311.0,1.2037423
58073049,0.99879676,23.51,101313.0,1.203766
58095313,1.083351,23.51,101312.0,1.2037542
58105784,0.83233064,23.51,101315.0,1.2037898
58116457,1.083351,23.51,101312.0,1.2037542
58137797,1.1652629,23.51,101311.0,1.2037423
58147772,0.9168849,23.51,101313.99,1.2037778
58159315,0.99879676,23.51,101313.0,1.203766
58180488,1.331729,23.51,101309.0,1.2037185
58190834,0.9168849,23.51,101313.99,1.2037778
58201692,1.331729,23.51,101309.0,1.2037185
58223365,1.4981952,23.51,101307.0,1.2036947
58233341,1.8311274,23.51,101303.0,1.2036473
58244412,1.331729,23.51,101309.0,1.2037185
58266319,1.5827494,23.51,101306.0,1.2036829
58275764,1.1652629,23.51,101311.0,1.2037423
58286383,1.8311274,23.51,101303.0,1.2036473
58308430,1.7492155,23.51,101304.0,1.203659
58318781,1.8311274,23.51,101303.0,1.2036473
58330408,1.8311274,23.51,101303.0,1.2036473
58351369,1.331729,23.519999,101309.0,1.2037185
58361771,1.331729,23.519999,101309.0,1.2037185
58373353,1.5827494,23.519999,101306.0,1.2036829
58394475,1.5827494,23.519999,101306.0,1.2036829
58404804,1.9156817,23.519999,101301.99,1.2036352
58417520,2.0821478,23.519999,101300.0,1.2036116
58439363,1.5827494,23.51,101306.0,1.2036829
58449254,1.8311274,23.51,101303.0,1.2036473
58460431,1.8311274,23.51,101303.0,1.2036473
58482394,1.5827494,23.519999,101306.0,1.2036829
58491764,2.1640596,23.519999,101299.0,1.2035997
58502393,1.9156817,23.519999,101301.99,1.2036352
58522389,2.663458,23.519999,101293.0,1.2035284
58531762,2.5815463,23.519999,101294.0,1.2035403
58542388,2.2486138,23.519999,101298.0,1.2035878
58564422,2.0821478,23.519999,101300.0,1.2036116
58574771,2.1640596,23.519999,101299.0,1.2035997
58585715,2.3305259,23.519999,101297.0,1.203576
58608321,2.3305259,23.519999,101297.0,1.203576
58618779,2.2486138,23.519999,101298.0,1.2035878
58630389,1.9975935,23.519999,101300.99,1.2036234
58653351,1.9975935,23.519999,101300.99,1.2036234
58663763,1.9156817,23.519999,101301.99,1.2036352
58674591,2.663458,23.519999,101293.0,1.2035284
58698318,2.663458,23.519999,101293.0,1.2035284
58709219,2.4969919,23.519999,101294.99,1.2035521
58719370,2.3305259,23.519999,101297.0,1.203576
58740314,2.41508,23.51,101296.0,1.203564
58749780,2.5815463,23.51,101294.0,1.2035403
58762523,2.1640596,23.51,101299.0,1.2035997
58783382,2.3305259,23.519999,101297.0,1.203576
58793910,2.5815463,23.519999,101294.0,1.2035403
58805320,2.663458,23.519999,101293.0,1.2035284
58826498,2.5815463,23.519999,101294.0,1.2035403
58837243,2.663458,23.519999,101293.0,1.2035284
58847369,2.829924,23.519999,101291.0,1.2035047
58869325,2.0821478,23.519999,101300.0,1.2036116
58879771,3.2474108,23.519999,101286.0,1.2034452
58891400,2.663458,23.519999,101293.0,1.2035284
58912329,2.5815463,23.519999,101294.0,1.2035403
58921975,2.663458,23.519999,101293.0,1.2035284
58932320,2.41508,23.519999,101296.0,1.203564
58955290,2.7480123,23.519999,101292.0,1.2035165
58965217,2.3305259,23.519999,101297.0,1.203576
58975378,2.4969919,23.519999,101294.99,1.2035521
58997316,2.829924,23.519999,101291.0,1.2035047
59006829,3.1654987,23.519999,101287.0,1.2034571
59019300,2.829924,23.519999,101291.0,1.2035047
59040317,2.2486138,23.519999,101298.0,1.2035878
59050771,2.5815463,23.519999,101294.0,1.2035403
59062378,2.3305259,23.519999,101297.0,1.203576
59085313,2.663458,23.519999,101293.0,1.2035284
59095764,2.663458,23.519999,101293.0,1.2035284
59107366,2.5815463,23.519999,101294.0,1.2035403
59128322,2.3305259,23.519999,101297.0,1.203576
59138763,2.663458,23.519999,101293.0,1.2035284
59149322,2.4969919,23.519999,101294.99,1.2035521
59170306,3.1654987,23.519999,101287.0,1.2034571
59179765,3.1654987,23.519999,101287.0,1.2034571
59190376,2.9990327,23.519999,101288.99,1.2034808
59212321,3.4138768,23.519999,101284.0,1.2034215
59221774,3.1654987,23.519999,101287.0,1.2034571
59235377,3.4138768,23.519999,101284.0,1.2034215
59255427,2.9990327,23.519999,101288.99,1.2034808
59265999,3.2474108,23.519999,101286.0,1.2034452
59277317,3.8313634,23.519999,101279.0,1.2033621
59299356,3.8313634,23.519999,101279.0,1.2033621
59309234,3.4138768,23.519999,101284.0,1.2034215
59319356,3.498431,23.519999,101282.99,1.2034096
59341328,3.2474108,23.519999,101286.0,1.2034452
59351771,2.7480123,23.519999,101292.0,1.2035165
59363389,3.6648972,23.519999,101281.0,1.2033858
59384316,2.9990327,23.519999,101288.99,1.2034808
59393900,3.0809445,23.519999,101288.0,1.203469
59404316,3.8313634,23.519999,101279.0,1.2033621
59424316,2.7480123,23.519999,101292.0,1.2035165
59434808,3.498431,23.519999,101282.99,1.2034096
59446408,3.4138768,23.519999,101284.0,1.2034215
59467107,3.8313634,23.519999,101279.0,1.2033621
59476788,3.9132752,23.519999,101278.0,1.2033502
59488315,3.746809,23.519999,101280.0,1.2033739
59510416,3.580343,23.529999,101282.0,1.2033978
59520788,3.8313634,23.529999,101279.0,1.2033621
59531379,3.746809,23.529999,101280.0,1.2033739
59553353,3.498431,23.529999,101282.99,1.2034096
59563774,3.746809,23.529999,101280.0,1.2033739
59574409,3.498431,23.529999,101282.99,1.2034096
59595444,3.580343,23.529999,101282.0,1.2033978
59606044,3.8313634,23.529999,101279.0,1.2033621
59617312,3.580343,23.529999,101282.0,1.2033978
59637319,3.9978294,23.529999,101276.99,1.2033381
59647770,3.498431,23.529999,101282.99,1.2034096
59659379,4.0823836,23.529999,101275.99,1.2033263
59681323,3.9978294,23.529999,101276.99,1.2033381
59691004,3.9978294,23.529999,101276.99,1.2033381
59701317,3.2474108,23.529999,101286.0,1.2034452
59723486,3.746809,23.529999,101280.0,1.2033739
59734799,3.8313634,23.529999,101279.0,1.2033621
59746616,4.0823836,23.529999,101275.99,1.2033263
59769328,3.9978294,23.529999,101276.99,1.2033381
59779774,3.8313634,23.529999,101279.0,1.2033621
59790408,3.6648972,23.529999,101281.0,1.2033858
59811978,4.4972277,23.529999,101271.0,1.203267
59822033,4.1642957,23.529999,101275.0,1.2033145
59832317,4.2462077,23.529999,101274.0,1.2033026
59853473,3.6648972,23.529999,101281.0,1.2033858
59864470,3.8313634,23.529999,101279.0,1.2033621
59874584,4.330762,23.529999,101273.0,1.2032908
59895367,4.0823836,23.529999,101275.99,1.2033263
59904805,4.2462077,23.529999,101274.0,1.2033026
59915372,3.9978294,23.529999,101276.99,1.2033381
59936332,4.2462077,23.529999,101274.0,1.2033026
59946798,3.9132752,23.529999,101278.0,1.2033502
59957321,4.1642957,23.529999,101275.0,1.2033145
59978819,4.0823836,23.529999,101275.99,1.2033263
59988803,4.1642957,23.529999,101275.0,1.2033145
60000314,4.581782,23.529999,101269.99,1.203255
60021312,4.83016,23.529999,101267.0,1.2032195
60031763,4.4126735,23.529999,101272.0,1.2032789
60043561,4.4972277,23.529999,101271.0,1.203267
60064350,4.4126735,23.529999,101272.0,1.2032789
60075402,4.2462077,23.529999,101274.0,1.2033026
60085350,4.745606,23.529999,101268.0,1.2032313
60106422,4.4126735,23.529999,101272.0,1.2032789
60116809,5.247647,23.529999,101262.0,1.20316
60127399,5.247647,23.529999,101262.0,1.20316
60149314,4.912072,23.529999,101266.0,1.2032076
60159763,4.9966264,23.529999,101265.0,1.2031957
60171373,4.663694,23.529999,101269.0,1.2032433
60193351,4.912072,23.529999,101266.0,1.2032076
60203767,4.663694,23.529999,101269.0,1.2032433
60214398,5.247647,23.529999,101262.0,1.20316
60236102,4.83016,23.529999,101267.0,1.2032195
60245769,4.4126735,23.529999,101272.0,1.2032789
60257317,4.912072,23.529999,101266.0,1.2032076
60278320,4.83016,23.529999,101267.0,1.2032195
60289515,4.9966264,23.529999,101265.0,1.2031957
60300470,4.663694,23.529999,101269.0,1.2032433
60323919,4.745606,23.529999,101268.0,1.2032313
60334809,4.745606,23.529999,101268.0,1.2032313
60345478,4.9966264,23.529999,101265.0,1.2031957
60367478,4.83016,23.529999,101267.0,1.2032195
60379570,5.0811806,23.529999,101263.99,1.2031838
60390896,5.4141126,23.529999,101260.0,1.2031363
60411885,5.247647,23.519999,101262.0,1.20316
60422954,5.0811806,23.519999,101263.99,1.2031838
60433507,5.580579,23.519999,101257.99,1.2031125
60454848,4.83016,23.529999,101267.0,1.2032195
60465784,5.580579,23.529999,101257.99,1.2031125
60477315,5.247647,23.529999,101262.0,1.20316
60498635,5.4141126,23.529999,101260.0,1.2031363
60508788,5.828957,23.529999,101255.0,1.203077
60520325,5.4960246,23.529999,101259.0,1.2031244
60542697,5.4960246,23.529999,101259.0,1.2031244
60552803,5.4960246,23.529999,101259.0,1.2031244
60564879,5.1630926,23.529999,101263.0,1.203172
60586622,6.079977,23.529999,101251.99,1.2030412
60596788,5.828957,23.529999,101255.0,1.203077
60608322,6.2464433,23.529999,101250.0,1.2030175
60630630,5.747045,23.519999,101256.0,1.2030888
60640804,6.1645317,23.519999,101250.99,1.2030293
60652313,5.9135113,23.519999,101254.0,1.203065
60674627,5.995423,23.519999,101253.0,1.2030531
60685469,5.4960246,23.519999,101259.0,1.2031244
60696469,6.2464433,23.519999,101250.0,1.2030175
60718822,5.9135113,23.519999,101254.0,1.203065
60728470,6.3283553,23.519999,101249.0,1.2030056
60738662,5.828957,23.519999,101255.0,1.203077
60759678,6.079977,23.529999,101251.99,1.2030412
60771698,6.3283553,23.529999,101249.0,1.2030056
60783751,6.1645317,23.529999,101250.99,1.2030293
60804895,5.747045,23.519999,101256.0,1.2030888
60815099,5.995423,23.519999,101253.0,1.2030531
60826639,5.995423,23.519999,101253.0,1.2030531
60849314,5.662491,23.529999,101257.0,1.2031007
60860191,5.9135113,23.529999,101254.0,1.203065
60870626,5.3295584,23.529999,101261.0,1.2031482
60892476,5.4960246,23.519999,101259.0,1.2031244
60903477,5.747045,23.519999,101256.0,1.2030888
60915287,5.995423,23.519999,101253.0,1.2030531
60935668,5.4960246,23.529999,101259.0,1.2031244
60947574,6.079977,23.529999,101251.99,1.2030412
60959737,5.995423,23.529999,101253.0,1.2030531
60983696,6.3283553,23.519999,101249.0,1.2030056
60993775,6.4129095,23.519999,101248.0,1.2029938
61004321,5.995423,23.519999,101253.0,1.2030531
61026626,5.9135113,23.519999,101254.0,1.203065
61037477,5.9135113,23.519999,101254.0,1.203065
61048470,6.079977,23.519999,101251.99,1.2030412
61070573,5.828957,23.519999,101255.0,1.203077
61080809,6.4974637,23.519999,101247.0,1.2029818
61091400,6.830396,23.519999,101243.0,1.2029343
61112434,6.1645317,23.519999,101250.99,1.2030293
61122773,6.5793757,23.519999,101246.0,1.2029699
61133841,6.830396,23.519999,101243.0,1.2029343
61154392,6.4129095,23.529999,101248.0,1.2029938
61165209,6.5793757,23.529999,101246.0,1.2029699
61176503,6.66393,23.529999,101244.99,1.202958
61198380,6.66393,23.529999,101244.99,1.202958
61207769,6.4974637,23.529999,101247.0,1.2029818
61219364,6.5793757,23.529999,101246.0,1.2029699
61241321,6.830396,23.519999,101243.0,1.2029343
61251764,6.4974637,23.519999,101247.0,1.2029818
61262548,6.5793757,23.519999,101246.0,1.2029699
61283368,6.5793757,23.519999,101246.0,1.2029699
61294063,6.745842,23.519999,101244.0,1.2029462
61305336,6.996862,23.519999,101241.0,1.2029105
61327388,6.745842,23.529999,101244.0,1.2029462
61337775,6.9123077,23.529999,101242.0,1.2029225
61350425,6.66393,23.529999,101244.99,1.202958
61373275,6.745842,23.519999,101244.0,1.2029462
61383515,7.3297944,23.519999,101237.0,1.202863
61394478,6.996862,23.519999,101241.0,1.2029105
61415470,7.3297944,23.519999,101237.0,1.202863
61425508,7.163328,23.519999,101238.99,1.2028867
61436921,6.996862,23.519999,101241.0,1.2029105
61457470,5.9135113,23.519999,101254.0,1.203065
61468871,6.830396,23.519999,101243.0,1.2029343
61479476,7.4962606,23.519999,101235.0,1.2028393
61501628,6.745842,23.519999,101244.0,1.2029462
61511470,7.24524,23.519999,101238.0,1.2028749
61521478,7.3297944,23.519999,101237.0,1.202863
61543469,7.078774,23.529999,101240.0,1.2028986
61554481,6.9123077,23.529999,101242.0,1.2029225
61565496,6.745842,23.529999,101244.0,1.2029462
61586478,6.5793757,23.529999,101246.0,1.2029699
61597470,6.996862,23.529999,101241.0,1.2029105
61607478,6.996862,23.529999,101241.0,1.2029105
61629495,7.078774,23.529999,101240.0,1.2028986
61640478,7.4117064,23.529999,101236.0,1.2028512
61651478,6.996862,23.529999,101241.0,1.2029105
61672478,6.745842,23.519999,101244.0,1.2029462
61683469,7.078774,23.519999,101240.0,1.2028986
61694490,6.745842,23.519999,101244.0,1.2029462
61714479,7.24524,23.519999,101238.0,1.2028749
61725729,7.3297944,23.519999,101237.0,1.202863
61735470,7.24524,23.519999,101238.0,1.2028749
61758291,8.162125,23.529999,101226.99,1.2027441
61767476,7.9111047,23.529999,101230.0,1.2027799
61778486,7.7446384,23.529999,101232.0,1.2028036
61798627,7.24524,23.529999,101238.0,1.2028749
61809217,7.4117064,23.529999,101236.0,1.2028512
61819367,7.578172,23.529999,101234.0,1.2028273
61840312,7.7446384,23.529999,101232.0,1.2028036
61850778,7.4117064,23.529999,101236.0,1.2028512
61863265,7.995659,23.529999,101229.0,1.202768
61883401,7.078774,23.529999,101240.0,1.2028986
61893794,7.163328,23.529999,101238.99,1.2028867
61905318,7.662727,23.529999,101232.99,1.2028154
61927367,7.4962606,23.529999,101235.0,1.2028393
61937249,7.3297944,23.529999,101237.0,1.202863
61948315,7.3297944,23.529999,101237.0,1.202863
61970334,7.9111047,23.519999,101230.0,1.2027799
61979765,8.246679,23.519999,101225.99,1.2027322
61990506,7.9111047,23.519999,101230.0,1.2027799
62011375,7.995659,23.519999,101229.0,1.202768
62021981,8.413145,23.519999,101224.0,1.2027086
62033355,8.246679,23.519999,101225.99,1.2027322
62054580,7.7446384,23.519999,101232.0,1.2028036
62065207,7.8291926,23.519999,101231.0,1.2027917
62075316,8.328591,23.519999,101225.0,1.2027204
62097313,7.995659,23.529999,101229.0,1.202768
62107764,8.495057,23.529999,101223.0,1.2026967
62119200,8.328591,23.529999,101225.0,1.2027204
62139375,7.9111047,23.519999,101230.0,1.2027799
62150131,8.495057,23.519999,101223.0,1.2026967
62161323,8.162125,23.519999,101226.99,1.2027441
62183366,8.579612,23.519999,101222.0,1.2026848
62193217,8.080214,23.519999,101228.0,1.202756
62204317,7.9111047,23.519999,101230.0,1.2027799
62226378,8.162125,23.519999,101226.99,1.2027441
62237686,8.328591,23.519999,101225.0,1.2027204
62249323,7.7446384,23.519999,101232.0,1.2028036
62270490,8.328591,23.519999,101225.0,1.2027204
62281216,8.080214,23.519999,101228.0,1.202756
62291361,8.413145,23.519999,101224.0,1.2027086
62313355,7.578172,23.519999,101234.0,1.2028273
62323766,7.995659,23.519999,101229.0,1.202768
62335215,8.162125,23.519999,101226.99,1.2027441
62358439,8.162125,23.519999,101226.99,1.2027441
62369232,8.495057,23.519999,101223.0,1.2026967
62380353,8.246679,23.519999,101225.99,1.2027322
62401354,8.746078,23.519999,101219.99,1.2026609
62410773,8.246679,23.519999,101225.99,1.2027322
62422521,8.413145,23.519999,101224.0,1.2027086
62445859,8.246679,23.519999,101225.99,1.2027322
62457219,8.82799,23.519999,101219.0,1.2026491
62467372,8.413145,23.519999,101224.0,1.2027086
62487377,8.413145,23.51,101224.0,1.2027086
62498097,7.9111047,23.51,101230.0,1.2027799
62509321,8.746078,23.51,101219.99,1.2026609
62530412,8.82799,23.51,101219.0,1.2026491
62539768,8.746078,23.51,101219.99,1.2026609
62551115,8.579612,23.51,101222.0,1.2026848
62573354,8.328591,23.51,101225.0,1.2027204
62583774,8.328591,23.51,101225.0,1.2027204
62595376,8.413145,23.51,101224.0,1.2027086
62616096,8.413145,23.519999,101224.0,1.2027086
62626024,8.661524,23.519999,101221.0,1.202673
62636317,8.246679,23.519999,101225.99,1.2027322
62658408,8.997098,23.51,101217.0,1.2026254
62668801,8.413145,23.51,101224.0,1.2027086
62680316,8.495057,23.51,101223.0,1.2026967
62701322,8.495057,23.51,101223.0,1.2026967
62710877,8.080214,23.51,101228.0,1.202756
62721313,8.080214,23.51,101228.0,1.202756
62744290,8.162125,23.519999,101226.99,1.2027441
62754041,8.328591,23.519999,101225.0,1.2027204
62764316,9.07901,23.519999,101216.0,1.2026135
62786409,8.746078,23.51,101219.99,1.2026609
62796803,8.661524,23.51,101221.0,1.202673
62807975,8.246679,23.51,101225.99,1.2027322
62828317,8.246679,23.51,101225.99,1.2027322
62839601,8.162125,23.51,101226.99,1.2027441
62851364,8.495057,23.51,101223.0,1.2026967
62874410,8.661524,23.51,101221.0,1.202673
62883764,7.995659,23.51,101229.0,1.202768
62895188,8.162125,23.51,101226.99,1.2027441
62915362,8.328591,23.51,101225.0,1.2027204
62926488,8.413145,23.51,101224.0,1.2027086
62937313,7.4117064,23.51,101236.0,1.2028512
62959300,7.995659,23.51,101229.0,1.202768
62970032,8.246679,23.51,101225.99,1.2027322
62981323,8.080214,23.51,101228.0,1.202756
63002412,8.162125,23.51,101226.99,1.2027441
63012803,8.328591,23.51,101225.0,1.2027204
63024317,8.080214,23.51,101228.0,1.202756
63047189,8.080214,23.51,101228.0,1.202756
63056804,8.162125,23.51,101226.99,1.2027441
63067376,8.328591,23.51,101225.0,1.2027204
63087996,8.246679,23.5,101225.99,1.2027322
63098034,8.746078,23.5,101219.99,1.2026609
63108319,7.995659,23.5,101229.0,1.202768
63130397,8.162125,23.51,101226.99,1.2027441
63140802,8.246679,23.51,101225.99,1.2027322
63152084,8.246679,23.51,101225.99,1.2027322
63172351,7.9111047,23.5,101230.0,1.2027799
63182854,7.995659,23.5,101229.0,1.202768
63193358,8.328591,23.5,101225.0,1.2027204
63215099,7.8291926,23.5,101231.0,1.2027917
63226025,8.162125,23.5,101226.99,1.2027441
63237325,8.328591,23.5,101225.0,1.2027204
63258398,8.579612,23.5,101222.0,1.2026848
63267767,8.495057,23.5,101223.0,1.2026967
63279090,8.246679,23.5,101225.99,1.2027322
63301317,7.7446384,23.5,101232.0,1.2028036
63311767,8.080214,23.5,101228.0,1.202756
63322316,8.162125,23.5,101226.99,1.2027441
63344108,8.495057,23.5,101223.0,1.2026967
63355122,8.579612,23.5,101222.0,1.2026848
63366316,8.661524,23.5,101221.0,1.202673
63388317,8.661524,23.5,101221.0,1.202673
63397771,8.328591,23.5,101225.0,1.2027204
63408520,8.162125,23.5,101226.99,1.2027441
63431296,8.080214,23.5,101228.0,1.202756
63441271,7.662727,23.5,101232.99,1.2028154
63452646,8.328591,23.5,101225.0,1.2027204
63476011,8.162125,23.49,101226.99,1.2027441
63487576,8.328591,23.49,101225.0,1.2027204
63499798,8.080214,23.49,101228.0,1.202756
63521137,8.495057,23.49,101223.0,1.2026967
63530922,8.495057,23.49,101223.0,1.2026967
63544132,7.9111047,23.49,101230.0,1.2027799
63566327,9.07901,23.49,101216.0,1.2026135
63576787,8.162125,23.49,101226.99,1.2027441
63588316,8.912544,23.49,101218.0,1.2026373
63609314,8.328591,23.49,101225.0,1.2027204
63619763,8.246679,23.49,101225.99,1.2027322
63632788,8.746078,23.49,101219.99,1.2026609
63654649,8.661524,23.49,101221.0,1.202673
63664800,9.245476,23.49,101213.99,1.2025896
63676322,9.245476,23.49,101213.99,1.2025896
63697058,8.912544,23.49,101218.0,1.2026373
63706960,9.245476,23.49,101213.99,1.2025896
63719983,9.496496,23.49,101211.0,1.2025541
63742670,9.163564,23.48,101215.0,1.2026017
63752804,8.162125,23.48,101226.99,1.2027441
63764321,9.07901,23.48,101216.0,1.2026135
63787717,8.746078,23.48,101219.99,1.2026609
63797786,8.579612,23.48,101222.0,1.2026848
63809049,9.163564,23.48,101215.0,1.2026017
63829701,9.245476,23.48,101213.99,1.2025896
63840380,9.496496,23.48,101211.0,1.2025541
63852085,8.912544,23.48,101218.0,1.2026373
63874923,8.579612,23.48,101222.0,1.2026848
63885613,9.07901,23.48,101216.0,1.2026135
63897035,9.07901,23.48,101216.0,1.2026135
63917692,9.07901,23.48,101216.0,1.2026135
63928369,9.578408,23.48,101210.0,1.2025422
63938816,9.163564,23.48,101215.0,1.2026017
63961226,9.33003,23.47,101213.0,1.2025778
63971111,9.744874,23.47,101207.99,1.2025183
63983999,9.33003,23.47,101213.0,1.2025778
64006630,8.997098,23.47,101217.0,1.2026254
64017779,8.997098,23.47,101217.0,1.2026254
64029316,9.662963,23.47,101209.0,1.2025304
64050626,9.33003,23.47,101213.0,1.2025778
64060805,9.496496,23.47,101211.0,1.2025541
64072885,9.07901,23.47,101216.0,1.2026135
64093353,8.82799,23.47,101219.0,1.2026491
64103770,9.33003,23.47,101213.0,1.2025778
64114395,8.912544,23.47,101218.0,1.2026373
64135400,9.496496,23.47,101211.0,1.2025541
64145786,8.82799,23.47,101219.0,1.2026491
64156425,8.912544,23.47,101218.0,1.2026373
64178067,9.245476,23.47,101213.99,1.2025896
64188806,8.82799,23.47,101219.0,1.2026491
64200999,8.912544,23.47,101218.0,1.2026373
64223313,9.07901,23.46,101216.0,1.2026135
64233791,8.912544,23.46,101218.0,1.2026373
64245321,9.07901,23.46,101216.0,1.2026135
64266329,8.746078,23.46,101219.99,1.2026609
64276820,8.82799,23.46,101219.0,1.2026491
64288978,8.997098,23.46,101217.0,1.2026254
64311375,8.746078,23.46,101219.99,1.2026609
64321203,9.496496,23.46,101211.0,1.2025541
64332408,8.746078,23.46,101219.99,1.2026609
64353767,8.997098,23.46,101217.0,1.2026254
64363769,8.82799,23.46,101219.0,1.2026491
64375320,8.413145,23.46,101224.0,1.2027086
64397313,8.495057,23.46,101223.0,1.2026967
64407762,8.997098,23.46,101217.0,1.2026254
64418514,8.912544,23.46,101218.0,1.2026373
64442492,8.413145,23.46,101224.0,1.2027086
64452806,8.746078,23.46,101219.99,1.2026609
64463387,8.912544,23.46,101218.0,1.2026373
64484454,9.245476,23.46,101213.99,1.2025896
64494779,8.82799,23.46,101219.0,1.2026491
64506521,8.997098,23.46,101217.0,1.2026254
64529594,8.997098,23.46,101217.0,1.2026254
64540477,8.661524,23.46,101221.0,1.202673
64551478,8.997098,23.46,101217.0,1.2026254
64572469,8.579612,23.46,101222.0,1.2026848
64582478,8.746078,23.46,101219.99,1.2026609
64593598,9.4119425,23.46,101212.0,1.202566
64614480,8.661524,23.449999,101221.0,1.202673
64625470,8.997098,23.449999,101217.0,1.2026254
64635476,8.413145,23.449999,101224.0,1.2027086
64657500,8.997098,23.449999,101217.0,1.2026254
64667761,8.495057,23.449999,101223.0,1.2026967
64679370,8.997098,23.449999,101217.0,1.2026254
64700457,8.997098,23.449999,101217.0,1.2026254
64711509,8.246679,23.449999,101225.99,1.2027322
64722315,8.746078,23.449999,101219.99,1.2026609
64743399,9.245476,23.449999,101213.99,1.2025896
64753770,9.07901,23.449999,101216.0,1.2026135
64765229,9.163564,23.449999,101215.0,1.2026017
64787193,8.413145,23.449999,101224.0,1.2027086
64797244,8.661524,23.449999,101221.0,1.202673
64808313,8.413145,23.449999,101224.0,1.2027086
64829314,8.997098,23.449999,101217.0,1.2026254
64838773,8.579612,23.449999,101222.0,1.2026848
64849712,8.579612,23.449999,101222.0,1.2026848
64872317,8.579612,23.449999,101222.0,1.2026848
64882106,8.579612,23.449999,101222.0,1.2026848
64894087,8.912544,23.449999,101218.0,1.2026373
64915447,8.997098,23.449999,101217.0,1.2026254
64925616,8.495057,23.449999,101223.0,1.2026967
64938314,8.579612,23.449999,101222.0,1.2026848
64959367,8.495057,23.439999,101223.0,1.2026967
64970275,8.246679,23.439999,101225.99,1.2027322
64980320,8.162125,23.439999,101226.99,1.2027441
65003285,8.328591,23.439999,101225.0,1.2027204
65013241,8.162125,23.439999,101226.99,1.2027441
65023461,8.82799,23.439999,101219.0,1.2026491
65044362,8.661524,23.439999,101221.0,1.202673
65054785,8.746078,23.439999,101219.99,1.2026609
65065880,8.661524,23.439999,101221.0,1.202673
65086408,8.661524,23.439999,101221.0,1.202673
65097713,8.661524,23.439999,101221.0,1.202673
65108323,8.661524,23.439999,101221.0,1.202673
65130487,8.661524,23.439999,101221.0,1.202673
65141794,8.162125,23.439999,101226.99,1.2027441
65154304,8.328591,23.439999,101225.0,1.2027204
65176320,7.8291926,23.439999,101231.0,1.2027917
65186771,8.246679,23.439999,101225.99,1.2027322
65197325,8.328591,23.439999,101225.0,1.2027204
65219215,8.162125,23.43,101226.99,1.2027441
65229808,8.495057,23.43,101223.0,1.2026967
65242319,8.661524,23.43,101221.0,1.202673
65264316,8.579612,23.43,101222.0,1.2026848
65273907,8.246679,23.43,101225.99,1.2027322
65285327,8.661524,23.43,101221.0,1.202673
65307361,8.328591,23.43,101225.0,1.2027204
65317216,8.162125,23.43,101226.99,1.2027441
65327356,8.495057,23.43,101223.0,1.2026967
65349314,8.912544,23.43,101218.0,1.2026373
65358801,8.413145,23.43,101224.0,1.2027086
65370283,8.746078,23.43,101219.99,1.2026609
65392316,8.661524,23.43,101221.0,1.202673
65402807,8.162125,23.43,101226.99,1.2027441
65414321,8.328591,23.43,101225.0,1.2027204
65437322,8.328591,23.43,101225.0,1.2027204
65447764,8.82799,23.43,101219.0,1.2026491
65459212,9.07901,23.43,101216.0,1.2026135
65481686,9.163564,23.42,101215.0,1.2026017
65493237,8.82799,23.42,101219.0,1.2026491
65504316,8.495057,23.42,101223.0,1.2026967
65525316,8.080214,23.42,101228.0,1.202756
65534779,8.661524,23.42,101221.0,1.202673
65546599,8.413145,23.42,101224.0,1.2027086
65569332,8.495057,23.42,101223.0,1.2026967
65579766,8.413145,23.42,101224.0,1.2027086
65590411,8.82799,23.42,101219.0,1.2026491
65611393,8.82799,23.41,101219.0,1.2026491
65622021,8.82799,23.41,101219.0,1.2026491
65633350,8.162125,23.41,101226.99,1.2027441
65654410,8.413145,23.41,101224.0,1.2027086
65664791,8.162125,23.41,101226.99,1.2027441
65676079,8.746078,23.41,101219.99,1.2026609
65696316,7.995659,23.42,101229.0,1.202768
65706879,8.413145,23.42,101224.0,1.2027086
65718410,8.579612,23.42,101222.0,1.2026848
65740097,8.746078,23.41,101219.99,1.2026609
65750034,8.579612,23.41,101222.0,1.2026848
65760322,8.495057,23.41,101223.0,1.2026967
65782410,8.328591,23.41,101225.0,1.2027204
65791811,8.661524,23.41,101221.0,1.202673
65803388,8.997098,23.41,101217.0,1.2026254
65824315,8.912544,23.41,101218.0,1.2026373
65834595,8.413145,23.41,101224.0,1.2027086
65846415,8.746078,23.41,101219.99,1.2026609
65868323,8.997098,23.41,101217.0,1.2026254
65878788,8.912544,23.41,101218.0,1.2026373
65889313,8.746078,23.41,101219.99,1.2026609
65910420,8.82799,23.41,101219.0,1.2026491
65920806,8.328591,23.41,101225.0,1.2027204
65932074,8.746078,23.41,101219.99,1.2026609
65952316,8.579612,23.4,101222.0,1.2026848
65963594,8.328591,23.4,101225.0,1.2027204
65975396,9.496496,23.4,101211.0,1.2025541
65997322,9.163564,23.4,101215.0,1.2026017
66007763,8.82799,23.4,101219.0,1.2026491
66018431,8.82799,23.4,101219.0,1.2026491
66039374,8.246679,23.4,101225.99,1.2027322
66050515,8.82799,23.4,101219.0,1.2026491
66062489,8.997098,23.4,101217.0,1.2026254
66085313,8.579612,23.4,101222.0,1.2026848
66095764,8.82799,23.4,101219.0,1.2026491
66107389,8.579612,23.4,101222.0,1.2026848
66127368,8.495057,23.39,101223.0,1.2026967
66138400,8.82799,23.39,101219.0,1.2026491
66149329,7.995659,23.39,101229.0,1.202768
66170865,8.495057,23.39,101223.0,1.2026967
66182005,8.162125,23.39,101226.99,1.2027441
66193353,9.07901,23.39,101216.0,1.2026135
66214392,8.82799,23.39,101219.0,1.2026491
66224805,8.912544,23.39,101218.0,1.2026373
66235992,9.163564,23.39,101215.0,1.2026017
66256316,8.579612,23.39,101222.0,1.2026848
66266543,8.413145,23.39,101224.0,1.2027086
66277325,8.579612,23.39,101222.0,1.2026848
66299123,8.912544,23.39,101218.0,1.2026373
66308803,8.746078,23.39,101219.99,1.2026609
66319317,8.912544,23.39,101218.0,1.2026373
66341317,8.997098,23.39,101217.0,1.2026254
66351800,8.912544,23.39,101218.0,1.2026373
66364991,9.163564,23.39,101215.0,1.2026017
66386315,8.579612,23.38,101222.0,1.2026848
66396802,8.495057,23.38,101223.0,1.2026967
66408323,8.413145,23.38,101224.0,1.2027086
66429037,8.495057,23.39,101223.0,1.2026967
66438926,8.579612,23.39,101222.0,1.2026848
66451909,7.8291926,23.39,101231.0,1.2027917
66474322,8.661524,23.38,101221.0,1.202673
66484805,8.82799,23.38,101219.0,1.2026491
66495651,8.162125,23.38,101226.99,1.2027441
66517032,8.912544,23.38,101218.0,1.2026373
66528006,8.746078,23.38,101219.99,1.2026609
66540538,8.912544,23.38,101218.0,1.2026373
66564641,8.82799,23.38,101219.0,1.2026491
66576003,8.82799,23.38,101219.0,1.2026491
66588516,8.82799,23.38,101219.0,1.2026491
66611394,8.912544,23.369999,101218.0,1.2026373
66621778,8.579612,23.369999,101222.0,1.2026848
66633355,8.661524,23.369999,101221.0,1.202673
66654636,8.495057,23.369999,101223.0,1.2026967
66665781,8.82799,23.369999,101219.0,1.2026491
66676794,8.162125,23.369999,101226.99,1.2027441
66698635,8.246679,23.369999,101225.99,1.2027322
66708786,8.912544,23.369999,101218.0,1.2026373
66720318,8.495057,23.369999,101223.0,1.2026967
66743764,7.995659,23.359999,101229.0,1.202768
66753778,8.413145,23.359999,101224.0,1.2027086
66765154,8.328591,23.359999,101225.0,1.2027204
66785686,8.080214,23.359999,101228.0,1.202756
66796379,8.82799,23.359999,101219.0,1.2026491
66807995,8.413145,23.359999,101224.0,1.2027086
66830836,8.328591,23.359999,101225.0,1.2027204
66841781,8.746078,23.359999,101219.99,1.2026609
66853349,8.413145,23.359999,101224.0,1.2027086
66874335,8.328591,23.359999,101225.0,1.2027204
66884807,8.661524,23.359999,101221.0,1.202673
66896324,8.912544,23.359999,101218.0,1.2026373
66919655,8.912544,23.369999,101218.0,1.2026373
66929787,8.328591,23.369999,101225.0,1.2027204
66941320,8.328591,23.369999,101225.0,1.2027204
66962684,8.579612,23.359999,101222.0,1.2026848
66973787,8.661524,23.359999,101221.0,1.202673
66985312,8.246679,23.359999,101225.99,1.2027322
67007687,8.162125,23.359999,101226.99,1.2027441
67017790,7.995659,23.359999,101229.0,1.202768
67028322,8.495057,23.359999,101223.0,1.2026967
67048322,7.8291926,23.359999,101231.0,1.2027917
67057789,8.495057,23.359999,101223.0,1.2026967
67069314,7.662727,23.359999,101232.99,1.2028154
67090625,8.080214,23.359999,101228.0,1.202756
67100805,8.495057,23.359999,101223.0,1.2026967
67112330,7.995659,23.359999,101229.0,1.202768
67135687,7.7446384,23.359999,101232.0,1.2028036
67145784,7.662727,23.359999,101232.99,1.2028154
67157497,7.995659,23.359999,101229.0,1.202768
67179378,8.162125,23.359999,101226.99,1.2027441
67189794,7.7446384,23.359999,101232.0,1.2028036
67201342,7.995659,23.359999,101229.0,1.202768
67221724,8.246679,23.359999,101225.99,1.2027322
67231771,7.995659,23.359999,101229.0,1.202768
67243361,8.080214,23.359999,101228.0,1.202756
67264668,8.328591,23.359999,101225.0,1.2027204
67275649,8.413145,23.359999,101224.0,1.2027086
67286621,8.997098,23.359999,101217.0,1.2026254
67310473,8.162125,23.35,101226.99,1.2027441
67321802,7.9111047,23.35,101230.0,1.2027799
67334688,8.413145,23.35,101224.0,1.2027086
67358570,8.579612,23.35,101222.0,1.2026848
67368808,7.9111047,23.35,101230.0,1.2027799
67379374,8.328591,23.35,101225.0,1.2027204
67401314,8.162125,23.35,101226.99,1.2027441
67411766,8.328591,23.35,101225.0,1.2027204
67422320,8.162125,23.35,101226.99,1.2027441
67443362,8.328591,23.34,101225.0,1.2027204
67453764,8.495057,23.34,101223.0,1.2026967
67465321,8.080214,23.34,101228.0,1.202756
67486321,8.82799,23.35,101219.0,1.2026491
67495764,8.82799,23.35,101219.0,1.2026491
67507364,7.9111047,23.35,101230.0,1.2027799
67529318,8.413145,23.34,101224.0,1.2027086
67539763,8.495057,23.34,101223.0,1.2026967
67550614,8.82799,23.34,101219.0,1.2026491
67571413,8.579612,23.34,101222.0,1.2026848
67582270,8.579612,23.34,101222.0,1.2026848
67592425,8.080214,23.34,101228.0,1.202756
67614511,8.080214,23.34,101228.0,1.202756
67625787,8.661524,23.34,101221.0,1.202673
67638405,8.162125,23.34,101226.99,1.2027441
67659375,8.080214,23.34,101228.0,1.202756
67669267,8.495057,23.34,101223.0,1.2026967
67680443,8.746078,23.34,101219.99,1.2026609
67702501,8.246679,23.34,101225.99,1.2027322
67713794,8.82799,23.34,101219.0,1.2026491
67726501,8.82799,23.34,101219.0,1.2026491
67750479,8.579612,23.33,101222.0,1.2026848
67761507,8.413145,23.33,101224.0,1.2027086
67772469,8.495057,23.33,101223.0,1.2026967
67794542,8.912544,23.33,101218.0,1.2026373
67805601,8.413145,23.33,101224.0,1.2027086
67816470,8.579612,23.33,101222.0,1.2026848
67838480,8.246679,23.33,101225.99,1.2027322
67848470,8.495057,23.33,101223.0,1.2026967
67858483,8.162125,23.33,101226.99,1.2027441
67880477,9.07901,23.33,101216.0,1.2026135
67891477,8.328591,23.33,101225.0,1.2027204
67902488,8.997098,23.33,101217.0,1.2026254
67924516,8.746078,23.33,101219.99,1.2026609
67934544,8.495057,23.33,101223.0,1.2026967
67944509,8.82799,23.33,101219.0,1.2026491
67966322,8.413145,23.33,101224.0,1.2027086
67976469,8.82799,23.33,101219.0,1.2026491
67986559,9.07901,23.33,101216.0,1.2026135
68007507,8.912544,23.33,101218.0,1.2026373
68018503,8.746078,23.33,101219.99,1.2026609
68028506,8.997098,23.33,101217.0,1.2026254
68049507,8.746078,23.33,101219.99,1.2026609
68060475,8.912544,23.33,101218.0,1.2026373
68070576,8.912544,23.33,101218.0,1.2026373
68091508,8.912544,23.33,101218.0,1.2026373
68101799,8.661524,23.33,101221.0,1.202673
68112515,8.997098,23.33,101217.0,1.2026254
68134389,8.495057,23.33,101223.0,1.2026967
68143478,8.495057,23.33,101223.0,1.2026967
68154080,8.746078,23.33,101219.99,1.2026609
68176316,8.579612,23.33,101222.0,1.2026848
68185791,8.82799,23.33,101219.0,1.2026491
68198616,9.163564,23.33,101215.0,1.2026017
68219313,8.746078,23.33,101219.99,1.2026609
68228761,8.746078,23.33,101219.99,1.2026609
68239318,8.661524,23.33,101221.0,1.202673
68259314,8.661524,23.32,101221.0,1.202673
68269786,8.246679,23.32,101225.99,1.2027322
68281323,8.746078,23.32,101219.99,1.2026609
68303374,8.661524,23.32,101221.0,1.202673
68313211,8.246679,23.32,101225.99,1.2027322
68323319,8.912544,23.32,101218.0,1.2026373
68345317,8.162125,23.33,101226.99,1.2027441
68354875,8.997098,23.33,101217.0,1.2026254
68366581,8.495057,23.33,101223.0,1.2026967
68388334,9.33003,23.32,101213.0,1.2025778
68398785,8.746078,23.32,101219.99,1.2026609
68410329,8.912544,23.32,101218.0,1.2026373
68433352,8.661524,23.32,101221.0,1.202673
68443763,8.579612,23.32,101222.0,1.2026848
68455195,8.997098,23.32,101217.0,1.2026254
68476325,8.746078,23.32,101219.99,1.2026609
68486782,8.746078,23.32,101219.99,1.2026609
68497325,8.997098,23.32,101217.0,1.2026254
68518290,8.328591,23.32,101225.0,1.2027204
68527765,8.746078,23.32,101219.99,1.2026609
68538319,8.82799,23.32,101219.0,1.2026491
68560317,8.82799,23.32,101219.0,1.2026491
68570028,8.82799,23.32,101219.0,1.2026491
68580318,9.163564,23.32,101215.0,1.2026017
68602410,8.997098,23.31,101217.0,1.2026254
68611764,8.746078,23.31,101219.99,1.2026609
68624089,8.912544,23.31,101218.0,1.2026373
68647105,9.07901,23.31,101216.0,1.2026135
68658016,9.07901,23.31,101216.0,1.2026135
68668313,8.997098,23.31,101217.0,1.2026254
68690411,8.746078,23.31,101219.99,1.2026609
68700786,8.82799,23.31,101219.0,1.2026491
68712331,8.997098,23.31,101217.0,1.2026254
68732321,8.661524,23.31,101221.0,1.202673
68742427,8.579612,23.31,101222.0,1.2026848
68753353,8.82799,23.31,101219.0,1.2026491
68775546,9.33003,23.31,101213.0,1.2025778
68786051,9.07901,23.31,101216.0,1.2026135
68796321,9.496496,23.31,101211.0,1.2025541
68818410,9.163564,23.3,101215.0,1.2026017
68828802,8.912544,23.3,101218.0,1.2026373
68839976,8.82799,23.3,101219.0,1.2026491
68860317,9.163564,23.3,101215.0,1.2026017
68870982,8.997098,23.3,101217.0,1.2026254
68882409,8.912544,23.3,101218.0,1.2026373
68904073,9.245476,23.3,101213.99,1.2025896
68914877,8.912544,23.3,101218.0,1.2026373
68925321,9.578408,23.3,101210.0,1.2025422
68946408,9.496496,23.3,101211.0,1.2025541
68955801,8.997098,23.3,101217.0,1.2026254
68968089,9.245476,23.3,101213.99,1.2025896
68990505,8.997098,23.3,101217.0,1.2026254
69000804,9.163564,23.3,101215.0,1.2026017
69011354,9.163564,23.3,101215.0,1.2026017
69031984,9.496496,23.3,101211.0,1.2025541
69042026,9.662963,23.3,101209.0,1.2025304
69052313,9.662963,23.3,101209.0,1.2025304
69074414,9.662963,23.289999,101209.0,1.2025304
69084805,9.33003,23.289999,101213.0,1.2025778
69096322,9.744874,23.289999,101207.99,1.2025183
69117323,9.496496,23.289999,101211.0,1.2025541
69127764,9.245476,23.289999,101213.99,1.2025896
69139389,9.4119425,23.289999,101212.0,1.202566
69161470,9.245476,23.289999,101213.99,1.2025896
69172470,9.911341,23.289999,101206.0,1.2024947
69183470,9.4119425,23.289999,101212.0,1.202566
69203470,9.4119425,23.279999,101212.0,1.202566
69214497,9.744874,23.279999,101207.99,1.2025183
69225470,10.077806,23.279999,101204.0,1.2024709
69247190,9.245476,23.279999,101213.99,1.2025896
69258017,9.662963,23.279999,101209.0,1.2025304
69268362,9.33003,23.279999,101213.0,1.2025778
69290400,9.33003,23.289999,101213.0,1.2025778
69300805,9.4119425,23.289999,101212.0,1.202566
69312336,9.33003,23.289999,101213.0,1.2025778
69332314,10.077806,23.279999,101204.0,1.2024709
69342582,9.744874,23.279999,101207.99,1.2025183
69353353,9.07901,23.279999,101216.0,1.2026135
69374815,9.662963,23.279999,101209.0,1.2025304
69384807,9.662963,23.279999,101209.0,1.2025304
69395654,9.829429,23.279999,101207.0,1.2025065
69416920,9.496496,23.279999,101211.0,1.2025541
69427115,9.829429,23.279999,101207.0,1.2025065
69437317,9.578408,23.279999,101210.0,1.2025422
69459671,10.246915,23.279999,101201.99,1.202447
69471687,9.4119425,23.279999,101212.0,1.202566
69483712,9.911341,23.279999,101206.0,1.2024947
69506323,9.911341,23.269999,101206.0,1.2024947
69515811,9.911341,23.269999,101206.0,1.2024947
69526316,9.995894,23.269999,101205.0,1.2024828
69547650,9.4119425,23.269999,101212.0,1.202566
69557802,10.661759,23.269999,101197.0,1.2023878
69568912,10.162361,23.269999,101203.0,1.2024591
69589320,10.246915,23.269999,101201.99,1.202447
69599802,9.829429,23.269999,101207.0,1.2025065
69610642,9.662963,23.269999,101209.0,1.2025304
69633351,10.246915,23.269999,101201.99,1.202447
69643764,10.077806,23.269999,101204.0,1.2024709
69654640,9.578408,23.269999,101210.0,1.2025422
69675674,10.162361,23.269999,101203.0,1.2024591
69687704,9.829429,23.269999,101207.0,1.2025065
69698333,9.911341,23.269999,101206.0,1.2024947
69720781,9.829429,23.26,101207.0,1.2025065
69731113,10.246915,23.26,101201.99,1.202447
69742676,10.077806,23.26,101204.0,1.2024709
69765352,9.578408,23.26,101210.0,1.2025422
69775879,10.077806,23.26,101204.0,1.2024709
69786813,10.077806,23.26,101204.0,1.2024709
69809313,10.246915,23.26,101201.99,1.202447
69819110,10.328827,23.26,101200.99,1.2024353
69829314,10.077806,23.26,101204.0,1.2024709
69851634,10.077806,23.26,101204.0,1.2024709
69861787,10.410739,23.26,101200.0,1.2024235
69873145,10.328827,23.26,101200.99,1.2024353
69893688,10.162361,23.26,101203.0,1.2024591
69904558,9.578408,23.26,101210.0,1.2025422
69915994,10.077806,23.26,101204.0,1.2024709
69939688,9.995894,23.25,101205.0,1.2024828
69949801,9.995894,23.25,101205.0,1.2024828
69961318,10.328827,23.25,101200.99,1.2024353
69982678,10.410739,23.25,101200.0,1.2024235
69993779,10.410739,23.25,101200.0,1.2024235
70005316,10.246915,23.25,101201.99,1.202447
70026630,10.077806,23.25,101204.0,1.2024709
70037471,10.162361,23.25,101203.0,1.2024591
70047921,9.829429,23.25,101207.0,1.2025065
70070625,9.911341,23.25,101206.0,1.2024947
70080803,10.495294,23.25,101199.0,1.2024115
70092325,10.077806,23.25,101204.0,1.2024709
70115780,9.744874,23.25,101207.99,1.2025183
70125783,9.829429,23.25,101207.0,1.2025065
70136806,10.328827,23.25,101200.99,1.2024353
70160811,10.91278,23.24,101194.0,1.2023522
70171772,10.246915,23.24,101201.99,1.202447
70184514,10.077806,23.24,101204.0,1.2024709
70206373,10.246915,23.24,101201.99,1.202447
