timestamp,time_utc_usec,lat,lon,alt,alt_ellipsoid,s_variance_m_s,c_variance_rad,eph,epv,hdop,vdop,noise_per_ms,jamming_indicator,vel_m_s,vel_n_m_s,vel_e_m_s,vel_d_m_s,cog_rad,timestamp_time_relative,heading,heading_offset,fix_type,vel_ned_valid,satellites_used
253663593,1541093624200058,323874350,-1170763979,19427,-15017,0.34,0.6913242,0.66300005,1.4440001,0.75,1.24,84,9,0.05,-0.05,-0.003,-0.120000005,4.4114213,0,nan,0.0,4,1,16
253852548,1541093624400058,323874349,-1170763979,19428,-15016,0.33100003,0.6913373,0.66800004,1.455,0.75,1.24,84,9,0.058000002,-0.052,0.025,-0.165,4.4114213,0,nan,0.0,4,1,16
254047562,1541093624600058,323874349,-1170763979,19423,-15021,0.35500002,0.69135123,0.67200005,1.4660001,0.75,1.24,84,9,0.029000001,-0.010000001,-0.027,-0.14600001,4.4114213,0,nan,0.0,4,1,16
254258577,1541093624800058,323874350,-1170763981,19283,-15161,0.261,0.6913617,0.67600006,1.4770001,0.75,1.24,84,2,0.115,0.071,-0.09,-0.023000002,4.4114213,0,nan,0.0,4,1,16
254457520,1541093625000058,323874352,-1170763984,19300,-15144,0.26000002,0.691372,0.675,1.4790001,0.75,1.24,84,2,0.058000002,0.056,-0.017,-0.056,4.4114213,0,nan,0.0,4,1,16
254654594,1541093625200058,323874352,-1170763986,19326,-15119,0.21100001,0.6913804,0.675,1.485,0.75,1.24,84,2,0.086,-0.040000003,-0.076000005,-0.001,4.4114213,0,nan,0.0,4,1,16
254856557,1541093625400058,323874351,-1170763988,19314,-15130,0.36900002,0.69139504,0.67800003,1.4990001,0.75,1.24,84,2,0.027,-0.013,-0.023000002,0.054,4.4114213,0,nan,0.0,4,1,16
255058635,1541093625600058,323874350,-1170763990,19328,-15116,0.26700002,0.69140553,0.68200004,1.5070001,0.75,1.24,84,2,0.128,-0.104,-0.074,0.066,4.4114213,0,nan,0.0,4,1,16
255260545,1541093625800058,323874350,-1170763991,19300,-15145,0.35000002,0.6914195,0.683,1.514,0.75,1.24,84,3,0.0050000004,0.0050000004,0.0,-0.066,4.4114213,0,nan,0.0,4,1,16
255455533,1541093626000058,323874350,-1170763991,19258,-15186,0.273,0.6914301,0.683,1.5120001,0.75,1.24,84,3,0.034,0.011000001,0.032,0.033,4.4114213,0,nan,0.0,4,1,16
255657621,1541093626200058,323874350,-1170763993,19247,-15197,0.31800002,0.69144285,0.68200004,1.5130001,0.75,1.24,84,3,0.036000002,0.023000002,-0.028,-0.091000006,4.4114213,0,nan,0.0,4,1,16
255858558,1541093626400058,323874351,-1170763994,19235,-15210,0.32700002,0.6914558,0.68100005,1.514,0.75,1.24,84,3,0.017,0.016,0.006,-0.15300001,4.4114213,0,nan,0.0,4,1,16
256056519,1541093626600058,323874350,-1170763995,19257,-15187,0.356,0.6914699,0.683,1.526,0.75,1.24,84,3,0.047000002,-0.039,-0.026,-0.201,4.4114213,0,nan,0.0,4,1,16
256258630,1541093626800058,323874350,-1170763996,19236,-15208,0.32200003,0.69148266,0.68500006,1.5300001,0.75,1.24,84,3,0.051000003,0.048,-0.016,-0.115,4.4114213,0,nan,0.0,4,1,16
256459520,1541093627000058,323874350,-1170763996,19247,-15198,0.342,0.69149625,0.68600005,1.536,0.75,1.24,84,3,0.041,0.031000001,0.027,-0.13800001,4.4114213,0,nan,0.0,4,1,16
256650794,1541093627200058,323874350,-1170763996,19244,-15200,0.32900003,0.69150937,0.68700004,1.544,0.75,1.24,84,3,0.041,-0.036000002,0.019000001,-0.11100001,4.4114213,0,nan,0.0,4,1,16
256857593,1541093627400058,323874350,-1170763996,19149,-15295,0.324,0.6915221,0.68700004,1.5460001,0.75,1.24,84,3,0.010000001,0.010000001,-0.003,-0.038000003,4.4114213,0,nan,0.0,4,1,16
257057595,1541093627600058,323874350,-1170763999,19078,-15367,0.23,0.6915312,0.68500006,1.5410001,0.75,1.24,84,3,0.11000001,0.034,-0.105000004,-0.07,4.4114213,0,nan,0.0,4,1,16
257260549,1541093627800058,323874349,-1170764003,19300,-15144,0.31300002,0.69157255,0.67800003,1.4890001,0.75,1.24,84,6,0.192,-0.014,-0.19100001,-1.023,4.4114213,0,nan,0.0,4,1,16
257459735,1541093628000058,323874349,-1170764008,19604,-14840,0.30900002,0.7360713,0.675,1.4760001,0.75,1.24,84,6,0.27400002,0.023000002,-0.273,-1.8850001,4.5924196,0,nan,0.0,4,1,16
257658573,1541093628200058,323874349,-1170764009,20091,-14353,0.273,0.7361711,0.669,1.4310001,0.75,1.24,84,6,0.193,0.193,0.010000001,-2.674,4.5924196,0,nan,0.0,4,1,16
257859555,1541093628400058,323874346,-1170764004,20797,-13647,0.263,0.622956,0.66400003,1.399,0.75,1.24,84,6,0.26500002,0.028,0.263,-2.686,2.770377,0,nan,0.0,4,1,16
258059561,1541093628600058,323874342,-1170763995,21529,-12915,0.252,0.31350788,0.66,1.371,0.75,1.24,84,6,0.536,-0.020000001,0.536,-2.5760002,1.8435209,0,nan,0.0,4,1,16
258261390,1541093628800058,323874340,-1170763984,22053,-12391,0.273,0.48074394,0.657,1.3620001,0.75,1.24,84,6,0.39800003,-0.082,0.38900003,-2.617,1.824208,0,nan,0.0,4,1,16
258462568,1541093629000058,323874337,-1170763972,22521,-11923,0.282,0.2755538,0.65400004,1.355,0.75,1.24,84,6,0.69900006,-0.275,0.642,-2.332,1.9377064,0,nan,0.0,4,1,16
258660463,1541093629200058,323874330,-1170763958,22982,-11462,0.33900002,0.3842335,0.656,1.36,0.75,1.24,84,6,0.75600004,-0.33800003,0.67700005,-2.348,1.970461,0,nan,0.0,4,1,16
258860551,1541093629400058,323874325,-1170763943,23455,-10989,0.29700002,0.30974093,0.656,1.3490001,0.75,1.24,84,6,0.63600004,-0.317,0.551,-2.17,2.044762,0,nan,0.0,4,1,16
259062648,1541093629600058,323874318,-1170763930,23898,-10546,0.30400002,0.32952008,0.65400004,1.3410001,0.77,1.24,84,6,0.63600004,-0.42900002,0.469,-2.1520002,2.170002,0,nan,0.0,4,1,15
259258828,1541093629800058,323874309,-1170763919,24421,-10023,0.305,0.36397845,0.652,1.33,0.77,1.24,84,7,0.568,-0.33200002,0.462,-2.1980002,2.1808698,0,nan,0.0,4,1,15
259460341,1541093630000058,323874302,-1170763909,24830,-9614,0.349,0.5471394,0.656,1.337,0.75,1.24,84,7,0.597,-0.409,0.43400002,-1.8440001,2.2257004,0,nan,0.0,4,1,16
259665590,1541093630200058,323874296,-1170763899,25139,-9305,0.377,0.68469614,0.66400003,1.3490001,0.75,1.24,84,7,0.536,-0.252,0.47300002,-1.3260001,2.161281,0,nan,0.0,4,1,16
259859524,1541093630400058,323874290,-1170763891,25332,-9112,0.36400002,0.68473697,0.67300004,1.355,0.75,1.24,84,7,0.43100002,-0.358,0.23900001,-0.92300004,2.161281,0,nan,0.0,4,1,16
260064593,1541093630600058,323874280,-1170763887,25640,-8804,0.317,0.3849168,0.67600006,1.3460001,0.75,1.24,84,7,0.49800003,-0.49100003,0.086,-0.97200006,2.7745287,0,nan,0.0,4,1,16
260264523,1541093630800058,323874275,-1170763885,25803,-8641,0.36800003,0.3850053,0.67700005,1.343,0.75,1.24,84,2,0.040000003,-0.030000001,0.027,-1.2420001,2.7745287,0,nan,0.0,4,1,16
260463564,1541093631000058,323874275,-1170763888,26055,-8389,0.29000002,0.6164127,0.67200005,1.3080001,0.75,1.24,84,2,0.277,0.128,-0.245,-1.5250001,3.4540086,0,nan,0.0,4,1,16
260660522,1541093631200058,323874282,-1170763898,26339,-8105,0.36400002,0.270607,0.674,1.314,0.75,1.24,84,2,1.0320001,0.772,-0.68600005,-1.636,5.21721,0,nan,0.0,4,1,16
260862589,1541093631400058,323874295,-1170763910,26720,-7724,0.33200002,0.22348416,0.67600006,1.3010001,0.75,1.24,84,2,1.133,0.96900004,-0.587,-1.373,5.5275135,0,nan,0.0,4,1,16
261066751,1541093631600058,323874319,-1170763921,26959,-7485,0.245,0.11622915,0.67300004,1.2750001,0.75,1.24,84,2,1.674,1.605,-0.47400004,-1.2830001,5.8966236,0,nan,0.0,4,1,16
261263521,1541093631800058,323874351,-1170763925,27162,-7282,0.22900002,0.09224135,0.669,1.258,0.76,1.38,84,2,1.8870001,1.8830001,-0.126,-1.2340001,6.0935535,0,nan,0.0,4,1,15
261465612,1541093632000058,323874386,-1170763921,27352,-7092,0.21200001,0.074948445,0.665,1.243,0.75,1.24,84,2,2.21,2.1560001,0.48700002,-1.2190001,0.059902314,0,nan,0.0,4,1,16
261662575,1541093632200058,323874426,-1170763905,27524,-6920,0.254,0.097715914,0.66300005,1.2440001,0.75,1.24,84,2,2.3130002,2.151,0.84900004,-1.033,0.1787732,0,nan,0.0,4,1,16
261858710,1541093632400058,323874469,-1170763885,27721,-6723,0.33800003,0.121561304,0.66800004,1.2520001,0.75,1.24,84,2,2.732,2.545,0.99300003,-1.1290001,0.25538617,0,nan,0.0,4,1,16
262064520,1541093632600058,323874514,-1170763863,27955,-6490,0.33900002,0.12033381,0.675,1.261,0.75,1.24,84,2,2.6750002,2.424,1.13,-1.031,0.34714684,0,nan,0.0,4,1,16
262262596,1541093632800058,323874557,-1170763841,28199,-6245,0.33100003,0.11290744,0.68200004,1.2720001,0.78,1.25,84,3,2.4420002,2.285,0.86300004,-1.014,0.35471946,0,nan,0.0,4,1,15
262462603,1541093633000058,323874598,-1170763820,28372,-6072,0.321,0.12271514,0.68600005,1.2830001,0.75,1.24,84,3,2.3560002,2.17,0.91800004,-1.156,0.37566343,0,nan,0.0,4,1,16
262664530,1541093633200057,323874634,-1170763799,28536,-5908,0.26000002,0.100415766,0.68600005,1.2770001,0.75,1.24,84,3,2.002,1.7540001,0.96500003,-1.1340001,0.4520392,0,nan,0.0,4,1,16
262860575,1541093633400057,323874667,-1170763779,28901,-5543,0.273,0.105530106,0.68200004,1.271,0.75,1.24,84,3,1.7680001,1.5580001,0.836,-1.35,0.47130397,0,nan,0.0,4,1,16
263058643,1541093633600057,323874696,-1170763762,29187,-5257,0.284,0.11269416,0.679,1.2720001,0.75,1.24,84,3,1.7,1.5320001,0.73600006,-1.4590001,0.46033266,0,nan,0.0,4,1,16
263258701,1541093633800057,323874725,-1170763746,29502,-4942,0.30800003,0.13387007,0.675,1.2700001,0.75,1.24,84,2,1.4530001,1.3000001,0.647,-1.848,0.461028,0,nan,0.0,4,1,16
263461596,1541093634000057,323874751,-1170763729,29995,-4449,0.3,0.12549685,0.67,1.2650001,0.75,1.24,84,2,1.4690001,1.2210001,0.818,-2.177,0.53009105,0,nan,0.0,4,1,16
263662064,1541093634200057,323874775,-1170763711,30398,-4046,0.30400002,0.13949455,0.66400003,1.261,0.75,1.24,84,2,1.3230001,1.1240001,0.698,-2.1100001,0.5415037,0,nan,0.0,4,1,16
263860551,1541093634400057,323874798,-1170763696,30742,-3702,0.263,0.1315774,0.656,1.2470001,0.75,1.24,84,2,1.286,1.1450001,0.586,-1.9740001,0.5051246,0,nan,0.0,4,1,16
264060586,1541093634600057,323874819,-1170763682,31142,-3302,0.356,0.23396085,0.657,1.2540001,0.75,1.24,84,2,1.217,1.052,0.611,-1.9540001,0.5102356,0,nan,0.0,4,1,16
264262579,1541093634800057,323874840,-1170763668,31549,-2895,0.31300002,0.15711924,0.65500003,1.248,0.75,1.24,84,2,1.1780001,1.0480001,0.53800005,-2.0860002,0.4855729,0,nan,0.0,4,1,16
264458573,1541093635000057,323874859,-1170763655,31940,-2504,0.32900003,0.19187328,0.652,1.251,0.75,1.24,84,2,1.051,0.91800004,0.512,-1.9700001,0.49485525,0,nan,0.0,4,1,16
264664549,1541093635200057,323874878,-1170763644,32341,-2103,0.294,0.15758054,0.648,1.2520001,0.75,1.24,84,2,1.1170001,1.056,0.365,-1.8470001,0.3982164,0,nan,0.0,4,1,16
264861150,1541093635400057,323874898,-1170763635,32729,-1715,0.291,0.16989417,0.642,1.245,0.75,1.24,84,2,0.98100007,0.91400003,0.356,-1.9350001,0.38578337,0,nan,0.0,4,1,16
265063530,1541093635600057,323874914,-1170763626,33127,-1317,0.30900002,0.2183796,0.638,1.2370001,0.75,1.24,84,2,0.84000003,0.78700006,0.293,-1.9850001,0.37463593,0,nan,0.0,4,1,16
265263521,1541093635800057,323874928,-1170763619,33501,-943,0.30400002,0.243309,0.634,1.228,0.75,1.24,84,1,0.744,0.65300006,0.35700002,-2.049,0.43064827,0,nan,0.0,4,1,16
265461248,1541093636000057,323874945,-1170763612,33920,-524,0.35000002,0.18003751,0.634,1.2310001,0.75,1.24,84,1,1.1780001,1.1470001,0.26900002,-2.065,0.3012281,0,nan,0.0,4,1,16
265661602,1541093636200057,323874965,-1170763606,34327,-117,0.36400002,0.21791202,0.63500005,1.2370001,0.75,1.24,84,1,0.98600006,0.97900003,0.116000004,-2.3030002,0.22667706,0,nan,0.0,4,1,16
265860522,1541093636400057,323874980,-1170763606,34844,400,0.316,0.24324338,0.633,1.2390001,0.75,1.24,84,1,0.712,0.712,-0.029000001,-2.085,0.10745939,0,nan,0.0,4,1,16
266061589,1541093636600057,323874992,-1170763606,35376,932,0.34500003,0.28339607,0.63100004,1.235,0.75,1.24,84,1,0.66800004,0.66800004,0.006,-2.269,0.065676734,0,nan,0.0,4,1,16
266262572,1541093636800057,323875003,-1170763602,35901,1457,0.354,0.3208997,0.629,1.23,0.75,1.24,84,5,0.605,0.554,0.24400002,-2.407,0.21889831,0,nan,0.0,4,1,16
266460521,1541093637000057,323875013,-1170763597,36501,2057,0.34500003,0.37688917,0.628,1.222,0.75,1.24,84,5,0.476,0.418,0.22700001,-2.6220002,0.33576974,0,nan,0.0,4,1,16
266660345,1541093637200057,323875017,-1170763590,37147,2703,0.34800002,0.44808063,0.62700003,1.2160001,0.75,1.24,84,5,0.43600002,0.21900001,0.377,-2.5830002,0.6295285,0,nan,0.0,4,1,16
266860573,1541093637400057,323875018,-1170763582,37762,3318,0.36400002,0.51673627,0.628,1.2110001,0.75,1.24,84,5,0.397,0.093,0.386,-2.2480001,0.93169266,0,nan,0.0,4,1,16
267056577,1541093637600057,323875017,-1170763575,38363,3919,0.337,0.6865076,0.62600005,1.2010001,0.75,1.24,84,5,0.333,-0.079,0.324,-2.1030002,1.2497284,0,nan,0.0,4,1,16
267259802,1541093637800057,323875016,-1170763567,38784,4340,0.35300002,0.6865931,0.62600005,1.2010001,0.75,1.24,84,6,0.31,-0.069000006,0.30200002,-2.1200001,1.2497284,0,nan,0.0,4,1,16
267457599,1541093638000057,323875012,-1170763557,39247,4803,0.351,0.37675023,0.624,1.2010001,0.75,1.24,84,6,0.609,-0.27800003,0.54200006,-2.43,1.86066,0,nan,0.0,4,1,16
267658649,1541093638200057,323875004,-1170763541,39779,5335,0.33900002,0.23982812,0.62200004,1.2,0.75,1.24,84,6,0.87500006,-0.507,0.71300006,-2.615,2.0943563,0,nan,0.0,4,1,16
267856566,1541093638400057,323874993,-1170763526,40381,5937,0.34800002,0.27731308,0.62100005,1.2,0.75,1.24,84,6,0.874,-0.62600005,0.609,-2.733,2.2124076,0,nan,0.0,4,1,16
268060523,1541093638600057,323874981,-1170763511,40886,6442,0.33900002,0.24028766,0.619,1.194,0.75,1.24,84,6,0.804,-0.53900003,0.597,-2.7250001,2.265381,0,nan,0.0,4,1,16
268263527,1541093638800057,323874971,-1170763497,41333,6889,0.335,0.36155313,0.61600006,1.1880001,0.75,1.24,84,1,0.647,-0.523,0.38200003,-2.5470002,2.3407567,0,nan,0.0,4,1,16
268460554,1541093639000057,323874961,-1170763488,41895,7451,0.33900002,0.48366353,0.61600006,1.179,0.75,1.24,84,1,0.55,-0.411,0.365,-2.6100001,2.3672907,0,nan,0.0,4,1,16
268661575,1541093639200057,323874954,-1170763482,42349,7905,0.34,0.6002555,0.615,1.1700001,0.75,1.24,84,1,0.418,-0.374,0.187,-2.571,2.4899912,0,nan,0.0,4,1,16
268860548,1541093639400057,323874948,-1170763477,42790,8346,0.354,0.60037124,0.615,1.161,0.75,1.24,84,1,0.24900001,-0.231,0.094000004,-2.5210001,2.4899912,0,nan,0.0,4,1,16
269060525,1541093639600057,323874943,-1170763477,43295,8851,0.335,0.5457323,0.615,1.1520001,0.75,1.24,84,1,0.328,-0.26900002,-0.18800001,-2.536,3.1817186,0,nan,0.0,4,1,16
269263558,1541093639800057,323874937,-1170763480,43812,9368,0.32000002,0.4579002,0.61300004,1.138,0.75,1.24,84,1,0.36800003,-0.273,-0.24700001,-2.4220002,3.5895095,0,nan,0.0,4,1,16
269465613,1541093640000057,323874929,-1170763487,44457,10013,0.30800003,0.28683192,0.611,1.125,0.75,1.24,84,1,0.58900005,-0.39800003,-0.43500003,-2.5890002,3.8642323,0,nan,0.0,4,1,16
269657517,1541093640200057,323874923,-1170763495,45013,10569,0.312,0.37831405,0.609,1.1120001,0.75,1.24,84,1,0.45000002,-0.245,-0.37800002,-2.617,3.9641259,0,nan,0.0,4,1,16
269863586,1541093640400057,323874921,-1170763504,45425,10981,0.31,0.2997753,0.606,1.102,0.75,1.24,84,1,0.619,0.058000002,-0.61600006,-2.4290001,4.4817157,0,nan,0.0,4,1,16
270060577,1541093640600057,323874922,-1170763516,45900,11456,0.32500002,0.33257526,0.60300004,1.097,0.75,1.24,84,1,0.614,0.109000005,-0.60400003,-2.397,4.6655216,0,nan,0.0,4,1,16
270262603,1541093640800057,323874924,-1170763528,46430,11986,0.347,0.35241058,0.6,1.095,0.75,1.24,84,4,0.623,0.11000001,-0.61300004,-2.457,4.7713614,0,nan,0.0,4,1,16
270462563,1541093641000057,323874926,-1170763538,46935,12491,0.35900003,0.4318157,0.59800005,1.093,0.75,1.24,84,4,0.497,0.148,-0.47500002,-2.375,4.868211,0,nan,0.0,4,1,16
270663518,1541093641200057,323874927,-1170763550,47504,13060,0.356,0.33560953,0.595,1.0910001,0.75,1.24,84,4,0.61600006,0.012,-0.61600006,-2.5010002,4.783013,0,nan,0.0,4,1,16
270862573,1541093641400057,323874928,-1170763561,48082,13638,0.36400002,0.39570504,0.592,1.0890001,0.75,1.24,84,4,0.51500005,0.256,-0.44700003,-2.555,4.9709272,0,nan,0.0,4,1,16
271059522,1541093641600057,323874931,-1170763570,48649,14205,0.38500002,0.5281284,0.59300005,1.0940001,0.75,1.24,84,4,0.45900002,0.29700002,-0.35000002,-2.5210001,5.130971,0,nan,0.0,4,1,16
271258764,1541093641800057,323874936,-1170763579,49112,14668,0.397,0.47766098,0.595,1.1010001,0.75,1.24,84,4,0.549,0.27400002,-0.476,-2.3470001,5.1884503,0,nan,0.0,4,1,16
271456532,1541093642000057,323874941,-1170763587,49567,15123,0.39600003,0.5372214,0.597,1.1060001,0.75,1.24,84,4,0.48700002,0.316,-0.37100002,-2.285,5.2899084,0,nan,0.0,4,1,16
271658575,1541093642200057,323874948,-1170763595,49983,15539,0.384,0.37922266,0.6,1.116,0.75,1.24,84,4,0.611,0.512,-0.333,-2.283,5.5680113,0,nan,0.0,4,1,16
271860521,1541093642400057,323874956,-1170763602,50437,15993,0.397,0.5445603,0.601,1.118,0.75,1.24,84,4,0.49100003,0.42700002,-0.24200001,-2.2710001,5.632906,0,nan,0.0,4,1,16
272060518,1541093642600057,323874963,-1170763608,50999,16555,0.39000002,0.552644,0.60400003,1.121,0.75,1.24,84,4,0.46,0.374,-0.26700002,-2.3490002,5.647652,0,nan,0.0,4,1,16
272257646,1541093642800057,323874971,-1170763614,51517,17073,0.39400002,0.5480979,0.606,1.1240001,0.75,1.24,84,2,0.45900002,0.40300003,-0.22000001,-2.5370002,5.7154603,0,nan,0.0,4,1,16
272459586,1541093643000057,323874977,-1170763618,52149,17705,0.39400002,0.54823476,0.60800004,1.1270001,0.75,1.24,84,2,0.28500003,0.25800002,-0.12200001,-2.72,5.7154603,0,nan,0.0,4,1,16
272664524,1541093643200057,323874981,-1170763623,52753,18309,0.40500003,0.6016424,0.61,1.1350001,0.75,1.24,84,2,0.41900003,0.347,-0.23600002,-2.8260002,5.7022004,0,nan,0.0,4,1,16
272857624,1541093643400057,323874989,-1170763627,53212,18768,0.41200003,0.45147806,0.61300004,1.146,0.75,1.24,84,2,0.54700005,0.492,-0.23700002,-2.6560001,5.7868795,0,nan,0.0,4,1,16
273060524,1541093643600057,323874995,-1170763631,53693,19249,0.40500003,0.451628,0.615,1.153,0.75,1.24,84,2,0.30200002,0.24800001,-0.17300001,-2.45,5.7868795,0,nan,0.0,4,1,16
273255524,1541093643800057,323874999,-1170763633,54163,19719,0.39800003,0.45177305,0.615,1.1580001,0.75,1.24,96,1,0.23700002,0.223,-0.080000006,-2.377,5.7868795,0,nan,0.0,4,1,16
273452562,1541093644000057,323875002,-1170763635,54740,20296,0.388,0.45192662,0.615,1.1580001,0.75,1.24,96,1,0.115,0.11400001,-0.020000001,-2.529,5.7868795,0,nan,0.0,4,1,16
273655525,1541093644200057,323875004,-1170763635,55254,20810,0.386,0.45208004,0.615,1.1570001,0.75,1.24,96,1,0.13100001,0.116000004,0.060000002,-2.526,5.7868795,0,nan,0.0,4,1,16
273854761,1541093644400057,323875007,-1170763635,55725,21281,0.37800002,0.45222682,0.615,1.1580001,0.75,1.24,96,1,0.105000004,0.078,-0.07,-2.42,5.7868795,0,nan,0.0,4,1,16
274053641,1541093644600057,323875009,-1170763636,56166,21722,0.36900002,0.45236558,0.61600006,1.1600001,0.75,1.24,96,1,0.11000001,0.11000001,0.0050000004,-2.286,5.7868795,0,nan,0.0,4,1,16
274253425,1541093644800057,323875012,-1170763636,56719,22275,0.35500002,0.45251828,0.615,1.153,0.75,1.24,96,2,0.10700001,0.035,0.101,-2.516,5.7868795,0,nan,0.0,4,1,16
274455556,1541093645000057,323875014,-1170763636,57200,22756,0.374,0.45267135,0.615,1.1570001,0.75,1.24,96,2,0.113000005,0.096,-0.059000004,-2.525,5.7868795,0,nan,0.0,4,1,16
274651787,1541093645200057,323875017,-1170763637,57650,23206,0.37800002,0.45281693,0.614,1.161,0.75,1.24,96,2,0.15300001,0.148,-0.039,-2.3960001,5.7868795,0,nan,0.0,4,1,16
274854627,1541093645400057,323875020,-1170763638,58146,23702,0.37600002,0.45296353,0.614,1.1650001,0.75,1.24,96,2,0.082,0.07700001,-0.028,-2.421,5.7868795,0,nan,0.0,4,1,16
275054568,1541093645600057,323875021,-1170763640,58857,24413,0.35000002,0.4531241,0.611,1.161,0.75,1.24,96,2,0.08800001,0.087000005,0.008,-2.6520002,5.7868795,0,nan,0.0,4,1,16
275254917,1541093645800057,323875021,-1170763639,59631,25187,0.33800003,0.45329812,0.606,1.1550001,0.75,1.24,96,3,0.156,0.14500001,0.057000004,-2.871,5.7868795,0,nan,0.0,4,1,16
275456553,1541093646000057,323875026,-1170763640,60174,25730,0.344,0.6142278,0.60200006,1.149,0.75,1.24,96,3,0.284,0.26200002,-0.11100001,-2.8100002,5.8203287,0,nan,0.0,4,1,16
275657585,1541093646200057,323875033,-1170763642,60681,26237,0.35200003,0.4802376,0.59900004,1.1470001,0.75,1.24,96,3,0.40300003,0.39000002,-0.10300001,-2.634,5.9467373,0,nan,0.0,4,1,16
275856550,1541093646400057,323875041,-1170763643,61157,26713,0.35500002,0.47177294,0.596,1.1450001,0.75,1.24,96,3,0.39400002,0.38500002,-0.081,-2.479,6.012775,0,nan,0.0,4,1,16
276051738,1541093646600057,323875046,-1170763646,61770,27326,0.342,0.4719199,0.59000003,1.1290001,0.77,1.26,96,3,0.149,0.126,-0.081,-2.525,6.012775,0,nan,0.0,4,1,15
276253618,1541093646800057,323875049,-1170763647,62485,28041,0.33800003,0.47208115,0.58400005,1.116,0.75,1.24,96,4,0.171,0.16900001,0.026,-2.772,6.012775,0,nan,0.0,4,1,16
276456551,1541093647000057,323875052,-1170763646,63175,28731,0.358,0.47225204,0.578,1.1090001,0.75,1.24,96,4,0.14500001,0.12100001,0.080000006,-2.936,6.012775,0,nan,0.0,4,1,16
276653520,1541093647200057,323875055,-1170763644,63751,29307,0.43,0.4724215,0.57900006,1.12,0.75,1.24,96,4,0.16700001,0.148,0.078,-2.917,6.012775,0,nan,0.0,4,1,16
276848528,1541093647400057,323875057,-1170763643,64319,29875,0.47400004,0.47258398,0.58400005,1.133,0.75,1.24,96,4,0.123,0.098000005,0.074,-2.7960002,6.012775,0,nan,0.0,4,1,16
277051608,1541093647600057,323875058,-1170763641,64871,30427,0.504,0.47274545,0.59400004,1.153,0.75,1.24,96,4,0.085,0.049000002,0.069000006,-2.7830002,6.012775,0,nan,0.0,4,1,16
277250838,1541093647800056,323875059,-1170763639,65424,30980,0.48900002,0.47290722,0.605,1.1700001,0.75,1.24,96,3,0.113000005,0.026,0.11000001,-2.788,6.012775,0,nan,0.0,4,1,16
277452541,1541093648000056,323875058,-1170763639,66022,31578,0.40100002,0.4730699,0.609,1.1750001,0.75,1.24,96,3,0.117000006,0.065000005,0.097,-2.802,6.012775,0,nan,0.0,4,1,16
277653589,1541093648200056,323875059,-1170763638,66582,32138,0.418,0.4732268,0.609,1.182,0.75,1.24,96,3,0.11100001,-0.05,0.09900001,-2.706,6.012775,0,nan,0.0,4,1,16
277851531,1541093648400056,323875059,-1170763637,67103,32659,0.409,0.47338685,0.61,1.189,0.75,1.24,96,3,0.028,-0.006,0.028,-2.7640002,6.012775,0,nan,0.0,4,1,16
278051544,1541093648600056,323875061,-1170763637,67618,33174,0.402,0.47354847,0.611,1.194,0.75,1.24,96,3,0.09900001,0.098000005,-0.0050000004,-2.789,6.012775,0,nan,0.0,4,1,16
278250575,1541093648800056,323875064,-1170763636,68156,33712,0.31100002,0.47370484,0.606,1.1730001,0.75,1.24,96,3,0.028,-0.001,0.028,-2.6990001,6.012775,0,nan,0.0,4,1,16
278458581,1541093649000056,323875063,-1170763635,68912,34468,0.28,0.4738792,0.597,1.1550001,0.75,1.24,96,3,0.192,-0.17500001,0.078,-3.0080001,6.012775,0,nan,0.0,4,1,16
278657574,1541093649200056,323875061,-1170763633,69514,35070,0.319,0.47405374,0.592,1.153,0.75,1.24,96,3,0.044000003,0.044000003,-0.006,-3.016,6.012775,0,nan,0.0,4,1,16
278857622,1541093649400056,323875062,-1170763632,70035,35591,0.33600003,0.47422093,0.588,1.1520001,0.75,1.24,96,3,0.101,0.09900001,0.021000002,-2.89,6.012775,0,nan,0.0,4,1,16
279056521,1541093649600056,323875062,-1170763632,70582,36138,0.40800002,0.47437644,0.59000003,1.161,0.75,1.24,96,3,0.013,0.013,0.003,-2.6880002,6.012775,0,nan,0.0,4,1,16
279256551,1541093649800056,323875062,-1170763632,71165,36721,0.42200002,0.47454032,0.59400004,1.1700001,0.75,1.24,96,2,0.052,-0.028,0.044000003,-2.8370001,6.012775,0,nan,0.0,4,1,16
279456524,1541093650000056,323875061,-1170763630,71799,37355,0.418,0.474707,0.59800005,1.1780001,0.75,1.24,96,2,0.149,-0.109000005,0.101,-2.8820002,6.012775,0,nan,0.0,4,1,16
279651521,1541093650200056,323875058,-1170763629,72350,37906,0.40100002,0.47487107,0.601,1.184,0.75,1.24,96,2,0.096,-0.055000003,0.079,-2.8370001,6.012775,0,nan,0.0,4,1,16
279859532,1541093650400056,323875058,-1170763629,72886,38442,0.4,0.4750264,0.60200006,1.194,0.75,1.24,96,2,0.042000003,0.024,-0.035,-2.6910002,6.012775,0,nan,0.0,4,1,16
280057995,1541093650600056,323875056,-1170763630,73467,39023,0.38700002,0.4751847,0.60400003,1.195,0.75,1.24,96,2,0.18400002,-0.18400002,0.0,-2.7340002,6.012775,0,nan,0.0,4,1,16
280255523,1541093650800056,323875054,-1170763628,74045,39601,0.39400002,0.47534877,0.60800004,1.2060001,0.75,1.24,90,6,0.20400001,-0.157,0.13100001,-2.8370001,6.012775,0,nan,0.0,4,1,16
280452594,1541093651000056,323875051,-1170763627,74591,40147,0.39100003,0.4755034,0.61200005,1.2160001,0.75,1.24,90,6,0.162,-0.15200001,0.055000003,-2.6780002,6.012775,0,nan,0.0,4,1,16
280655533,1541093651200056,323875048,-1170763623,74949,40505,0.30600002,0.47565788,0.605,1.187,0.75,1.24,90,6,0.135,-0.101,0.09,-2.676,6.012775,0,nan,0.0,4,1,16
280854596,1541093651400056,323875047,-1170763619,75458,41014,0.28100002,0.75188625,0.595,1.159,0.75,1.24,90,6,0.231,-0.10700001,0.20500001,-2.644,0.393552,0,nan,0.0,4,1,16
281052593,1541093651600056,323875047,-1170763614,75982,41538,0.27,0.75198376,0.586,1.133,0.75,1.24,90,6,0.201,-0.115,0.165,-2.663,0.393552,0,nan,0.0,4,1,16
281256551,1541093651800056,323875047,-1170763609,76500,42056,0.266,0.7520779,0.57900006,1.113,0.75,1.24,90,6,0.18200001,-0.031000001,0.18,-2.578,0.393552,0,nan,0.0,4,1,16
281457584,1541093652000056,323875046,-1170763606,77008,42564,0.321,0.7521702,0.578,1.115,0.75,1.24,90,6,0.061000004,-0.045,0.040000003,-2.529,0.393552,0,nan,0.0,4,1,16
281657592,1541093652200056,323875045,-1170763605,77554,43110,0.32900003,0.75226337,0.58000004,1.1140001,0.75,1.24,90,6,0.26200002,-0.24300002,0.098000005,-2.5440001,0.393552,0,nan,0.0,4,1,16
281854662,1541093652400056,323875043,-1170763603,78140,43696,0.28800002,0.7523604,0.57600003,1.097,0.75,1.24,90,6,0.179,-0.097,0.15100001,-2.6560001,0.393552,0,nan,0.0,4,1,16
282056521,1541093652600056,323875042,-1170763601,78631,44187,0.33100003,0.7524531,0.57500005,1.097,0.75,1.24,90,6,0.08800001,-0.082,-0.032,-2.5410001,0.393552,0,nan,0.0,4,1,16
282257592,1541093652800056,323875040,-1170763600,79093,44649,0.34300002,0.75253654,0.57500005,1.102,0.75,1.24,90,2,0.07300001,-0.052,0.051000003,-2.289,0.393552,0,nan,0.0,4,1,16
282451521,1541093653000056,323875039,-1170763599,79507,45063,0.351,0.75260705,0.57500005,1.108,0.75,1.24,90,2,0.064,-0.048,0.042000003,-1.9350001,0.393552,0,nan,0.0,4,1,16
282651535,1541093653200056,323875038,-1170763598,79882,45438,0.347,0.7526734,0.57500005,1.1040001,0.75,1.24,90,2,0.036000002,-0.015000001,0.033,-1.8220001,0.393552,0,nan,0.0,4,1,16
282858569,1541093653400056,323875039,-1170763597,80225,45781,0.347,0.75273204,0.57500005,1.1090001,0.75,1.24,90,2,0.082,0.081,-0.012,-1.6070001,0.393552,0,nan,0.0,4,1,16
283054571,1541093653600056,323875039,-1170763597,80523,46079,0.33800003,0.7527851,0.57500005,1.1060001,0.75,1.24,90,2,0.026,-0.024,-0.011000001,-1.4590001,0.393552,0,nan,0.0,4,1,16
283255527,1541093653800056,323875040,-1170763596,80880,46436,0.303,0.75283724,0.57100004,1.0910001,0.75,1.24,90,1,0.117000006,0.015000001,0.116000004,-1.4260001,0.393552,0,nan,0.0,4,1,16
283454589,1541093654000056,323875040,-1170763593,81136,46692,0.34100002,0.7528852,0.57100004,1.095,0.75,1.24,90,1,0.09900001,0.072000004,0.068,-1.312,0.393552,0,nan,0.0,4,1,16
283653744,1541093654200056,323875042,-1170763592,81409,46965,0.34800002,0.75292957,0.573,1.092,0.75,1.24,90,1,0.064,0.059000004,0.027,-1.2160001,0.393552,0,nan,0.0,4,1,16
283850577,1541093654400056,323875041,-1170763592,81594,47150,0.34500003,0.75296485,0.57500005,1.0990001,0.75,1.24,90,1,0.065000005,-0.041,-0.051000003,-0.96700007,0.393552,0,nan,0.0,4,1,16
284053591,1541093654600056,323875041,-1170763590,81725,47281,0.28100002,0.7529931,0.569,1.075,0.75,1.24,90,1,0.10300001,-0.023000002,0.1,-0.76600003,0.393552,0,nan,0.0,4,1,16
284255535,1541093654800056,323875042,-1170763589,81847,47403,0.29500002,0.7530121,0.56600004,1.0580001,0.75,1.24,90,4,0.086,0.086,0.010000001,-0.51600003,0.393552,0,nan,0.0,4,1,16
284454802,1541093655000056,323875048,-1170763591,81881,47437,0.264,0.4632074,0.56700003,1.0550001,0.75,1.24,90,4,0.62600005,0.558,-0.28300002,-0.28,6.050956,0,nan,0.0,4,1,16
284653577,1541093655200056,323875066,-1170763603,81886,47442,0.18100001,0.17251426,0.57000005,1.0530001,0.75,1.24,90,4,1.5480001,1.325,-0.80100006,0.08800001,5.777359,0,nan,0.0,4,1,16
284857618,1541093655400056,323875100,-1170763625,81809,47365,0.16700001,0.09405945,0.57100004,1.0530001,0.75,1.24,90,4,2.707,2.401,-1.2490001,0.527,5.7976093,0,nan,0.0,4,1,16
285058581,1541093655600056,323875154,-1170763657,81691,47247,0.19600001,0.062412273,0.573,1.056,0.75,1.24,90,4,3.9950001,3.6100001,-1.7090001,0.476,5.8279524,0,nan,0.0,4,1,16
285252437,1541093655800056,323875224,-1170763696,81630,47186,0.21200001,0.060461342,0.577,1.065,0.75,1.24,89,5,4.7070003,4.2650003,-1.9920001,0.025,5.8376513,0,nan,0.0,4,1,16
285458611,1541093656000056,323875307,-1170763743,81702,47258,0.19600001,0.036811784,0.58000004,1.074,0.75,1.24,89,5,5.4870005,5.019,-2.2180002,-0.393,5.85958,0,nan,0.0,4,1,16
285658568,1541093656200056,323875402,-1170763791,81750,47307,0.28100002,0.04835923,0.58400005,1.088,0.75,1.24,89,5,6.012,5.5410004,-2.332,-0.572,5.870185,0,nan,0.0,4,1,16
285859518,1541093656400056,323875502,-1170763841,81922,47478,0.275,0.048166897,0.591,1.0990001,0.75,1.24,89,5,5.9420004,5.4690003,-2.3240001,-0.78800005,5.876177,0,nan,0.0,4,1,16
286057584,1541093656600056,323875603,-1170763889,82057,47613,0.307,0.048304603,0.59800005,1.115,0.75,1.24,89,5,6.1450005,5.7400002,-2.193,-0.808,5.898583,0,nan,0.0,4,1,16
286259520,1541093656800056,323875707,-1170763935,82290,47846,0.29900002,0.047679078,0.605,1.13,0.75,1.24,89,1,6.117,5.76,-2.059,-1.0430001,5.920925,0,nan,0.0,4,1,16
286455567,1541093657000056,323875813,-1170763976,82510,48066,0.19500001,0.03274255,0.605,1.138,0.75,1.24,89,1,6.1210003,5.787,-1.9940001,-1.0020001,5.9424486,0,nan,0.0,4,1,16
286657568,1541093657200056,323875918,-1170764018,82707,48263,0.18200001,0.032258395,0.6,1.1370001,0.75,1.24,89,1,6.0350003,5.741,-1.863,-0.90700006,5.9579206,0,nan,0.0,4,1,16
286857519,1541093657400056,323876020,-1170764058,82976,48532,0.21700001,0.035462122,0.59800005,1.1420001,0.75,1.24,89,1,5.827,5.517,-1.876,-0.739,5.956638,0,nan,0.0,4,1,16
287054915,1541093657600056,323876120,-1170764095,83132,48688,0.316,0.05308593,0.60300004,1.1550001,0.75,1.24,89,1,5.7320004,5.518,-1.552,-0.711,5.9754324,0,nan,0.0,4,1,16
287256520,1541093657800056,323876219,-1170764127,83230,48786,0.314,0.05768348,0.611,1.172,0.75,1.24,89,1,5.6840005,5.4810004,-1.5040001,-0.583,5.994814,0,nan,0.0,4,1,16
287462604,1541093658000056,323876316,-1170764159,83330,48886,0.25100002,0.05291332,0.619,1.1850001,0.75,1.24,89,1,5.5470004,5.3710003,-1.386,-0.38500002,6.015082,0,nan,0.0,4,1,16
287660598,1541093658200056,323876413,-1170764187,83427,48984,0.20300001,0.04205353,0.62100005,1.19,0.75,1.24,89,1,5.4500003,5.321,-1.182,-0.39800003,6.046623,0,nan,0.0,4,1,16
287860528,1541093658400056,323876510,-1170764215,83556,49112,0.186,0.033308733,0.615,1.1830001,0.75,1.24,89,1,5.544,5.385,-1.319,-0.266,6.0442815,0,nan,0.0,4,1,16
288062562,1541093658600056,323876609,-1170764244,83802,49358,0.17500001,0.030790225,0.60700005,1.1620001,0.75,1.24,89,1,5.637,5.4670005,-1.3740001,-0.342,6.039851,0,nan,0.0,4,1,16
288262570,1541093658800056,323876708,-1170764270,83871,49427,0.289,0.050309986,0.61,1.174,0.75,1.24,73,6,5.485,5.3690004,-1.121,-0.298,6.052252,0,nan,0.0,4,1,16
288460532,1541093659000056,323876804,-1170764298,83922,49478,0.24100001,0.043676686,0.614,1.184,0.75,1.24,73,6,5.5990005,5.458,-1.2490001,-0.201,6.055788,0,nan,0.0,4,1,16
288657569,1541093659200056,323876907,-1170764317,84024,49580,0.202,0.035236623,0.61300004,1.184,0.75,1.24,73,6,5.8240004,5.734,-1.019,-0.29500002,6.0888453,0,nan,0.0,4,1,16
288862580,1541093659400056,323877013,-1170764341,84141,49698,0.20500001,0.033765838,0.611,1.187,0.75,1.24,73,6,6.044,5.8650002,-1.463,-0.446,6.059747,0,nan,0.0,4,1,16
289062562,1541093659600056,323877124,-1170764366,84262,49818,0.208,0.029783344,0.606,1.189,0.75,1.24,73,6,6.254,6.084,-1.4440001,-0.57100004,6.053706,0,nan,0.0,4,1,16
289263525,1541093659800056,323877229,-1170764399,84755,50311,0.18800001,0.033242237,0.60200006,1.179,0.75,1.24,73,5,6.3710003,6.1080003,-1.812,-0.36600003,6.0225477,0,nan,0.0,4,1,16
289461610,1541093660000056,323877335,-1170764434,85005,50562,0.164,0.03065915,0.59800005,1.1700001,0.75,1.24,73,5,6.387,6.091,-1.9210001,0.59300005,5.9952874,0,nan,0.0,4,1,16
289663526,1541093660200056,323877440,-1170764466,84949,50505,0.156,0.030036068,0.59300005,1.1620001,0.75,1.24,73,5,6.0530005,5.8100004,-1.6980001,2.318,5.9974213,0,nan,0.0,4,1,16
289863551,1541093660400056,323877543,-1170764501,84425,49981,0.18100001,0.035014097,0.59000003,1.153,0.75,1.24,73,5,5.9240003,5.682,-1.6750001,3.7000003,5.996954,0,nan,0.0,4,1,16
290056532,1541093660600056,323877645,-1170764543,83427,48984,0.16900001,0.023538904,0.582,1.1290001,0.75,1.24,73,5,6.1320004,5.7460003,-2.14,4.7400002,5.9443393,0,nan,0.0,4,1,16
290257626,1541093660800056,323877756,-1170764599,82346,47902,0.172,0.030745719,0.57900006,1.1240001,0.75,1.24,73,1,7.2390003,6.531,-3.1220002,5.2900004,5.837315,0,nan,0.0,4,1,16
290459520,1541093661000056,323877880,-1170764681,81053,46609,0.16700001,0.028357236,0.578,1.1190001,0.75,1.24,73,1,8.433001,7.11,-4.5340004,5.637,5.7155194,0,nan,0.0,4,1,16
290659519,1541093661200056,323878012,-1170764792,79844,45400,0.17300001,0.026301935,0.578,1.115,0.75,1.24,73,1,9.396001,7.405,-5.7830005,5.5790005,5.6201077,0,nan,0.0,4,1,16
290858600,1541093661400056,323878147,-1170764930,78659,44216,0.16100001,0.02234196,0.578,1.11,0.75,1.24,73,1,10.427,7.6480002,-7.0860004,5.5800004,5.5359325,0,nan,0.0,4,1,16
291058574,1541093661600055,323878284,-1170765096,77563,43119,0.14600001,0.018933855,0.57600003,1.102,0.75,1.24,73,1,11.3810005,7.6770005,-8.402,5.3500004,5.4526806,0,nan,0.0,4,1,16
291256564,1541093661800055,323878419,-1170765290,76510,42066,0.14500001,0.017668141,0.574,1.095,0.75,1.24,73,2,12.182,7.577,-9.5390005,5.025,5.3836713,0,nan,0.0,4,1,16
291458621,1541093662000055,323878552,-1170765508,75561,41118,0.164,0.018855663,0.574,1.093,0.75,1.24,73,2,12.938001,7.1310005,-10.795,4.4830003,5.296165,0,nan,0.0,4,1,16
291654768,1541093662200055,323878673,-1170765751,74732,40288,0.19600001,0.021976836,0.57600003,1.1,0.75,1.24,73,2,13.56,6.3290005,-11.993001,4.1060004,5.1979637,0,nan,0.0,4,1,16
291855533,1541093662400055,323878779,-1170766018,74011,39567,0.21800001,0.020870123,0.58100003,1.1110001,0.75,1.24,73,2,14.129001,5.3840003,-13.062,3.4650002,5.103378,0,nan,0.0,4,1,16
292058572,1541093662600055,323878869,-1170766306,73426,38982,0.21100001,0.01967876,0.586,1.1220001,0.75,1.24,73,2,14.508,4.5090003,-13.7890005,2.7640002,5.0284295,0,nan,0.0,4,1,16
292258572,1541093662800055,323878944,-1170766610,73007,38564,0.135,0.01235728,0.582,1.1010001,0.75,1.24,73,4,14.8810005,3.561,-14.449,2.01,4.9540024,0,nan,0.0,4,1,16
292460530,1541093663000055,323879000,-1170766925,72615,38172,0.133,0.011669271,0.57500005,1.08,0.75,1.24,73,4,15.226001,2.611,-15.001,1.289,4.8847194,0,nan,0.0,4,1,16
292664529,1541093663200055,323879037,-1170767248,72408,37964,0.21200001,0.01767582,0.57600003,1.0860001,0.75,1.24,73,4,15.407001,1.598,-15.324,0.77500004,4.816284,0,nan,0.0,4,1,16
292862010,1541093663400055,323879058,-1170767576,72368,37925,0.21700001,0.017628174,0.57900006,1.092,0.75,1.24,73,4,15.444001,0.78000003,-15.424001,0.079,4.76291,0,nan,0.0,4,1,16
293064521,1541093663600055,323879064,-1170767908,72468,38024,0.179,0.014139959,0.57900006,1.098,0.75,1.24,73,4,15.485001,0.109000005,-15.484001,-0.698,4.7194147,0,nan,0.0,4,1,16
293256556,1541093663800055,323879060,-1170768237,72645,38202,0.289,0.02180876,0.583,1.11,0.75,1.24,78,2,15.439001,-0.551,-15.429001,-0.95300007,4.6766887,0,nan,0.0,4,1,16
293461639,1541093664000055,323879044,-1170768566,72940,38496,0.164,0.011762123,0.58100003,1.088,0.75,1.24,78,2,15.368001,-1.0680001,-15.331,-1.445,4.642811,0,nan,0.0,4,1,16
293660519,1541093664200055,323879019,-1170768892,73422,38978,0.16000001,0.011656181,0.574,1.069,0.75,1.24,78,2,15.186001,-1.5830001,-15.103001,-2.0070002,4.607942,0,nan,0.0,4,1,16
293858729,1541093664400055,323878988,-1170769211,73870,39426,0.15,0.010677923,0.56600004,1.042,0.75,1.24,78,2,15.082001,-1.9080001,-14.961,-2.263,4.5855722,0,nan,0.0,4,1,16
294061243,1541093664600055,323878956,-1170769519,74296,39852,0.15300001,0.011559489,0.558,1.023,0.75,1.24,78,2,14.971001,-2.3260002,-14.7890005,-2.3070002,4.5563807,0,nan,0.0,4,1,16
294261614,1541093664800055,323878913,-1170769829,74751,40307,0.20400001,0.016699484,0.55600005,1.028,0.75,1.24,84,2,14.864,-2.559,-14.642001,-2.2580001,4.5393744,0,nan,0.0,4,1,16
294463525,1541093665000055,323878865,-1170770136,75177,40733,0.162,0.013840809,0.55300003,1.021,0.78,1.25,84,2,14.744,-2.7830002,-14.478001,-2.3760002,4.522471,0,nan,0.0,4,1,15
294659606,1541093665200055,323878814,-1170770438,75644,41200,0.16600001,0.01432636,0.549,1.016,0.78,1.25,84,2,14.587001,-3.0210001,-14.271001,-2.4380002,4.503748,0,nan,0.0,4,1,15
294862581,1541093665400055,323878758,-1170770738,76120,41676,0.17,0.014492864,0.545,1.011,0.78,1.25,84,2,14.495001,-3.2240002,-14.132001,-2.444,4.4880824,0,nan,0.0,4,1,15
295062575,1541093665600055,323878698,-1170771034,76597,42153,0.17,0.015192217,0.54200006,1.006,0.75,1.24,84,2,14.303,-3.3860002,-13.896001,-2.351,4.473361,0,nan,0.0,4,1,16
295260532,1541093665800055,323878637,-1170771329,77173,42729,0.18800001,0.015894363,0.54,1.011,0.75,1.24,84,10,14.143001,-3.4080002,-13.726001,-2.473,4.4689913,0,nan,0.0,4,1,16
295462620,1541093666000055,323878573,-1170771621,77576,43131,0.21400002,0.017966244,0.54,1.021,0.75,1.24,84,10,14.387001,-3.65,-13.916,-2.1880002,4.4558883,0,nan,0.0,4,1,16
295658920,1541093666200055,323878503,-1170771918,78051,43607,0.18800001,0.0173011,0.54,1.029,0.75,1.24,84,10,14.409,-3.857,-13.883,-1.991,4.4413753,0,nan,0.0,4,1,16
295860519,1541093666400055,323878434,-1170772212,78355,43911,0.194,0.017569007,0.541,1.039,0.75,1.24,84,10,14.304001,-3.759,-13.801001,-1.6400001,4.446496,0,nan,0.0,4,1,16
296061587,1541093666600055,323878365,-1170772505,78671,44226,0.18800001,0.017416814,0.541,1.049,0.75,1.24,84,10,14.2960005,-3.9,-13.753,-1.4070001,4.4360795,0,nan,0.0,4,1,16
296261615,1541093666800055,323878293,-1170772799,78965,44521,0.19900002,0.017349968,0.541,1.0600001,0.79999995,1.39,84,1,14.382001,-3.9520001,-13.829,-1.3560001,4.434003,0,nan,0.0,4,1,15
296456551,1541093667000055,323878223,-1170773092,79301,44857,0.177,0.017932385,0.54200006,1.067,0.75,1.24,84,1,14.316001,-3.8370001,-13.792001,-1.241,4.441068,0,nan,0.0,4,1,16
296660518,1541093667200055,323878155,-1170773384,79532,45088,0.20500001,0.017793456,0.54300004,1.0780001,0.75,1.24,84,1,14.365001,-3.7930002,-13.856001,-1.0220001,4.445201,0,nan,0.0,4,1,16
296857595,1541093667400055,323878088,-1170773678,79576,45131,0.16700001,0.013618105,0.54,1.069,0.75,1.24,84,1,14.418,-3.726,-13.928,-0.81600004,4.4510055,0,nan,0.0,4,1,16
297060526,1541093667600055,323878027,-1170773970,79829,45385,0.149,0.012608083,0.536,1.059,0.75,1.24,84,1,14.339001,-3.6330001,-13.871,-0.59800005,4.4562593,0,nan,0.0,4,1,16
297260524,1541093667800055,323877962,-1170774266,79893,45449,0.21300001,0.01747214,0.535,1.0680001,0.75,1.24,84,1,14.497001,-3.5980003,-14.044001,-0.43100002,4.461617,0,nan,0.0,4,1,16
297457623,1541093668000055,323877898,-1170774564,79980,45535,0.21700001,0.018740296,0.53800005,1.079,0.75,1.24,84,1,14.380001,-3.5130002,-13.945001,-0.18300001,4.465591,0,nan,0.0,4,1,16
297660548,1541093668200055,323877834,-1170774865,80053,45608,0.177,0.017502336,0.53900003,1.088,0.75,1.24,84,1,14.479001,-3.367,-14.082001,-0.064,4.4776607,0,nan,0.0,4,1,16
297859583,1541093668400055,323877773,-1170775166,80102,45657,0.18300001,0.017466556,0.54,1.1,0.75,1.24,84,1,14.558001,-3.325,-14.173,-0.22700001,4.4819593,0,nan,0.0,4,1,16
298061291,1541093668600055,323877713,-1170775469,80132,45688,0.158,0.013587038,0.53900003,1.1,0.75,1.24,84,1,14.507001,-3.0030003,-14.193001,-0.074,4.503867,0,nan,0.0,4,1,16
298262668,1541093668800055,323877658,-1170775774,80136,45692,0.171,0.014636155,0.537,1.107,0.75,1.24,84,8,14.635,-2.94,-14.336,0.051000003,4.5101004,0,nan,0.0,4,1,16
298461516,1541093669000055,323877608,-1170776083,80138,45693,0.156,0.0120541155,0.53400004,1.0960001,0.75,1.24,84,8,14.689001,-2.677,-14.442,-0.018000001,4.529081,0,nan,0.0,4,1,16
298663538,1541093669200055,323877559,-1170776391,80168,45723,0.26000002,0.020180542,0.537,1.1060001,0.75,1.24,84,8,14.683001,-2.5560002,-14.459001,0.13800001,4.5373864,0,nan,0.0,4,1,16
298862568,1541093669400055,323877514,-1170776700,80137,45692,0.16600001,0.015704123,0.54,1.1120001,0.75,1.24,84,8,14.765,-2.2570002,-14.591001,0.16100001,4.5589023,0,nan,0.0,4,1,16
299058569,1541093669600055,323877477,-1170777013,79996,45551,0.14400001,0.0113364365,0.535,1.087,0.75,1.24,84,8,14.641001,-2.032,-14.499001,0.157,4.573166,0,nan,0.0,4,1,16
299263532,1541093669800055,323877438,-1170777324,79915,45470,0.148,0.011954108,0.52900004,1.074,0.75,1.24,84,9,14.705001,-1.8390001,-14.590001,0.155,4.5870056,0,nan,0.0,4,1,16
299468532,1541093670000055,323877406,-1170777636,79827,45382,0.155,0.013052793,0.526,1.072,0.75,1.24,84,9,14.601001,-1.557,-14.518001,0.19900002,4.605538,0,nan,0.0,4,1,16
299670583,1541093670200055,323877381,-1170777945,79813,45368,0.149,0.013243558,0.52400005,1.067,0.75,1.24,84,9,14.632001,-1.291,-14.575001,0.202,4.6240273,0,nan,0.0,4,1,16
299863594,1541093670400055,323877359,-1170778256,79763,45318,0.21400002,0.016591972,0.52500004,1.074,0.75,1.24,84,9,14.639001,-1.1680001,-14.593,0.163,4.632523,0,nan,0.0,4,1,16
300062589,1541093670600055,323877338,-1170778565,79754,45309,0.2,0.0162546,0.527,1.0810001,0.75,1.24,84,9,14.56,-1.0250001,-14.524001,0.24900001,4.6419396,0,nan,0.0,4,1,16
300262602,1541093670800055,323877318,-1170778875,79822,45377,0.14500001,0.011068878,0.523,1.057,0.75,1.24,84,1,14.692,-0.78900003,-14.6710005,0.09900001,4.65865,0,nan,0.0,4,1,16
300460548,1541093671000055,323877306,-1170779185,79848,45403,0.18900001,0.014322694,0.522,1.0610001,0.75,1.24,84,1,14.497001,-0.48600003,-14.489,0.012,4.678854,0,nan,0.0,4,1,16
300659543,1541093671200055,323877299,-1170779492,79821,45376,0.312,0.020037774,0.527,1.07,0.75,1.23,84,1,14.397,-0.296,-14.394001,0.115,4.691806,0,nan,0.0,4,1,16
300863549,1541093671400055,323877293,-1170779798,79849,45403,0.20400001,0.014946126,0.532,1.0760001,0.75,1.23,84,1,14.359,-0.13700001,-14.358001,0.085,4.702846,0,nan,0.0,4,1,16
301062609,1541093671600055,323877291,-1170780103,79857,45411,0.2,0.015420157,0.53300005,1.0810001,0.75,1.23,84,1,14.282001,0.061000004,-14.282001,-0.058000002,4.716686,0,nan,0.0,4,1,16
301259743,1541093671800055,323877294,-1170780405,79858,45412,0.19000001,0.015742172,0.53400004,1.087,0.75,1.23,84,4,14.1640005,0.29700002,-14.161,-0.08800001,4.7333903,0,nan,0.0,4,1,16
301464519,1541093672000055,323877299,-1170780705,79905,45460,0.19000001,0.015477753,0.535,1.093,0.75,1.23,84,4,14.02,0.42400002,-14.014001,-0.022000002,4.742605,0,nan,0.0,4,1,16
301658573,1541093672200055,323877307,-1170781003,79920,45475,0.20600002,0.015482292,0.536,1.1010001,0.75,1.23,84,4,13.9800005,0.59800005,-13.968,-0.13800001,4.755162,0,nan,0.0,4,1,16
301859813,1541093672400055,323877319,-1170781300,79940,45495,0.215,0.015341966,0.537,1.1040001,0.75,1.23,84,4,13.991001,0.69900006,-13.974001,-0.044000003,4.762398,0,nan,0.0,4,1,16
302060523,1541093672600055,323877339,-1170781595,79931,45486,0.20500001,0.01508837,0.53800005,1.105,0.75,1.23,84,4,13.845,1.409,-13.773001,0.0,4.8143544,0,nan,0.0,4,1,16
302262564,1541093672800055,323877375,-1170781877,80067,45622,0.163,0.015636055,0.53800005,1.107,0.75,1.23,84,9,13.408001,2.493,-13.175,-0.11000001,4.8993835,0,nan,0.0,4,1,16
302459609,1541093673000055,323877426,-1170782156,80140,45694,0.22600001,0.01498592,0.537,1.1060001,0.75,1.23,84,9,13.304001,3.1610003,-12.923,-0.32200003,4.952306,0,nan,0.0,4,1,16
302660455,1541093673200055,323877493,-1170782427,80214,45768,0.178,0.014455863,0.536,1.0940001,0.78,1.3,84,9,13.162001,4.052,-12.523001,-0.41400003,5.025289,0,nan,0.0,4,1,15
302858582,1541093673400055,323877572,-1170782685,80265,45819,0.21200001,0.016427213,0.536,1.097,0.81,1.31,84,9,12.9800005,4.9220004,-12.011001,-0.441,5.101303,0,nan,0.0,4,1,14
303067521,1541093673600055,323877671,-1170782934,80277,45831,0.19500001,0.014780494,0.535,1.09,0.75,1.23,84,9,12.839001,5.7000003,-11.504001,-0.49600002,5.1724267,0,nan,0.0,4,1,16
303260520,1541093673800055,323877780,-1170783177,80435,45990,0.312,0.019913333,0.53800005,1.1,0.75,1.23,84,5,12.990001,6.3610005,-11.327001,-0.70500004,5.2240605,0,nan,0.0,4,1,16
303461519,1541093674000055,323877900,-1170783409,80582,46136,0.32200003,0.02208714,0.546,1.113,0.75,1.23,84,5,12.735001,6.9700003,-10.659,-0.65400004,5.2915125,0,nan,0.0,4,1,16
303659533,1541093674200055,323878024,-1170783637,80923,46478,0.30200002,0.017595362,0.551,1.118,0.81,1.31,84,5,12.709001,7.4590006,-10.2890005,-0.629,5.3396587,0,nan,0.0,4,1,14
303856555,1541093674400055,323878164,-1170783847,80992,46546,0.23900001,0.016195957,0.554,1.1220001,0.78,1.3,84,5,12.632001,8.169001,-9.635,-0.503,5.415596,0,nan,0.0,4,1,15
304058634,1541093674600055,323878314,-1170784045,81144,46699,0.194,0.017223082,0.555,1.1220001,0.81,1.31,84,5,12.518001,8.620001,-9.078,-0.47200003,5.4719467,0,nan,0.0,4,1,14
304257521,1541093674800055,323878473,-1170784231,81240,46794,0.18,0.01782365,0.554,1.118,0.78,1.3,84,3,12.589001,9.172001,-8.623,-0.518,5.528597,0,nan,0.0,4,1,15
304459531,1541093675000054,323878642,-1170784404,81302,46857,0.208,0.015995419,0.554,1.1190001,0.78,1.3,84,3,12.620001,9.673,-8.106,-0.238,5.5856624,0,nan,0.0,4,1,15
304660587,1541093675200054,323878820,-1170784571,81302,46857,0.27600002,0.0209251,0.55600005,1.13,0.78,1.3,84,3,12.747001,10.165001,-7.6920004,-0.11400001,5.6354003,0,nan,0.0,4,1,15
304857600,1541093675400054,323879009,-1170784729,81337,46891,0.164,0.01423089,0.554,1.105,0.78,1.3,84,3,12.589001,10.486,-6.965,-0.18200001,5.696857,0,nan,0.0,4,1,15
305059777,1541093675600054,323879200,-1170784867,81429,46984,0.16600001,0.014984523,0.551,1.092,0.78,1.3,84,3,12.759001,10.975,-6.5070004,-0.21400002,5.74805,0,nan,0.0,4,1,15
305260519,1541093675800054,323879396,-1170784991,81759,47314,0.164,0.014875092,0.54800004,1.08,0.75,1.23,84,1,12.762001,11.318001,-5.8960004,-0.045,5.8029156,0,nan,0.0,4,1,16
305467524,1541093676000054,323879599,-1170785106,82073,47628,0.164,0.014552031,0.546,1.07,0.75,1.23,84,1,12.835001,11.690001,-5.3,0.012,5.8575397,0,nan,0.0,4,1,16
305662907,1541093676200054,323879812,-1170785213,82075,47630,0.287,0.027897865,0.55,1.079,0.75,1.23,84,1,12.941001,12.047001,-4.727,0.061000004,5.909231,0,nan,0.0,4,1,16
305863524,1541093676400054,323880031,-1170785307,82007,47562,0.18900001,0.018684622,0.55600005,1.087,0.75,1.23,84,1,13.037001,12.352,-4.17,0.17500001,5.9576135,0,nan,0.0,4,1,16
306061408,1541093676600054,323880255,-1170785388,81925,47479,0.18800001,0.01631813,0.55600005,1.09,0.75,1.23,84,1,13.079,12.586,-3.5570002,0.31,6.007733,0,nan,0.0,4,1,16
306261593,1541093676800054,323880485,-1170785460,81861,47416,0.18800001,0.015334985,0.55700004,1.1010001,0.75,1.23,101,11,13.324,12.954,-3.1190002,0.18800001,6.0469356,0,nan,0.0,4,1,16
306464549,1541093677000054,323880719,-1170785518,81797,47352,0.18300001,0.015004071,0.55700004,1.1110001,0.75,1.23,101,11,13.248001,13.025001,-2.4220002,0.23300001,6.0993676,0,nan,0.0,4,1,16
306664521,1541093677200054,323880955,-1170785564,81763,47318,0.179,0.0146850245,0.55700004,1.1190001,0.78,1.3299999,101,11,13.315001,13.185,-1.8560001,0.21300001,6.1433716,0,nan,0.0,4,1,15
306858611,1541093677400054,323881195,-1170785601,81683,47238,0.215,0.014728833,0.55600005,1.128,0.75,1.23,101,11,13.479001,13.415001,-1.304,0.13100001,6.186317,0,nan,0.0,4,1,16
307059817,1541093677600054,323881438,-1170785623,81585,47140,0.21800001,0.016380787,0.55700004,1.138,0.75,1.23,101,11,13.611001,13.590001,-0.76500005,0.13700001,6.2269583,0,nan,0.0,4,1,16
307263542,1541093677800054,323881684,-1170785632,81502,47057,0.16700001,0.014667397,0.558,1.141,0.75,1.23,94,12,13.768001,13.767,-0.177,0.066,6.2703614,0,nan,0.0,4,1,16
307463528,1541093678000054,323881933,-1170785628,81556,47111,0.18,0.01356784,0.55600005,1.143,0.75,1.23,94,12,13.873001,13.867001,0.404,-0.011000001,0.029136175,0,nan,0.0,4,1,16
307663590,1541093678200054,323882182,-1170785614,81601,47156,0.194,0.014313968,0.555,1.148,0.75,1.23,94,12,13.9140005,13.886001,0.883,0.061000004,0.063512705,0,nan,0.0,4,1,16
307859820,1541093678400054,323882429,-1170785597,81810,47365,0.186,0.013934708,0.55300003,1.1470001,0.77,1.26,94,12,14.127001,14.067,1.2930001,-0.028,0.09168424,0,nan,0.0,4,1,15
308060539,1541093678600054,323882682,-1170785565,81827,47382,0.20400001,0.014046409,0.55200005,1.1550001,0.75,1.23,94,12,14.168,14.056001,1.774,-0.024,0.12554955,0,nan,0.0,4,1,16
308262587,1541093678800054,323882936,-1170785522,81806,47361,0.202,0.014098943,0.551,1.161,0.75,1.23,88,5,14.261001,14.073001,2.308,-0.089,0.16252977,0,nan,0.0,4,1,16
308463664,1541093679000054,323883184,-1170785477,82140,47695,0.17400001,0.012958545,0.54700005,1.1550001,0.75,1.23,88,5,14.340001,14.075001,2.746,-0.11400001,0.19268608,0,nan,0.0,4,1,16
308664578,1541093679200054,323883435,-1170785421,82291,47846,0.185,0.013278115,0.544,1.156,0.75,1.23,88,5,14.502001,14.145,3.2,-0.14600001,0.22246785,0,nan,0.0,4,1,16
308863546,1541093679400054,323883689,-1170785351,82320,47875,0.194,0.013163622,0.54200006,1.164,0.75,1.23,88,5,14.558001,14.118001,3.5500002,-0.18900001,0.24633907,0,nan,0.0,4,1,16
309058905,1541093679600054,323883943,-1170785272,82363,47918,0.19100001,0.012993277,0.54,1.171,0.75,1.23,88,5,14.614,14.053,4.0090003,-0.20600002,0.27791226,0,nan,0.0,4,1,16
309261594,1541093679800054,323884196,-1170785184,82491,48046,0.164,0.012341223,0.536,1.1650001,0.75,1.23,82,2,14.702001,14.061001,4.2910004,-0.29000002,0.2962089,0,nan,0.0,4,1,16
309457613,1541093680000054,323884447,-1170785090,82726,48281,0.16900001,0.012435819,0.53300005,1.159,0.75,1.23,82,2,14.751,13.996,4.658,-0.254,0.32127008,0,nan,0.0,4,1,16
309659107,1541093680200054,323884697,-1170784992,82893,48448,0.16100001,0.012383983,0.53000003,1.156,0.75,1.23,82,2,14.825001,13.976001,4.9440002,-0.30200002,0.33998838,0,nan,0.0,4,1,16
309861568,1541093680400054,323884947,-1170784885,83101,48656,0.16000001,0.012424125,0.527,1.153,0.75,1.23,82,2,14.845,13.892,5.236,-0.35000002,0.36042234,0,nan,0.0,4,1,16
310064548,1541093680600054,323885198,-1170784770,83165,48721,0.185,0.013104978,0.52500004,1.1580001,0.75,1.23,82,2,14.945001,13.853001,5.6070004,-0.39100003,0.38462463,0,nan,0.0,4,1,16
310263552,1541093680800054,323885449,-1170784647,83167,48723,0.185,0.012843528,0.523,1.161,0.75,1.23,82,6,15.037001,13.856001,5.841,-0.388,0.39895746,0,nan,0.0,4,1,16
310463578,1541093681000054,323885699,-1170784520,83254,48810,0.16600001,0.012665505,0.52000004,1.154,0.75,1.23,82,6,15.025001,13.758,6.037,-0.48200002,0.4135245,0,nan,0.0,4,1,16
310661300,1541093681200054,323885943,-1170784393,83543,49099,0.16000001,0.012749804,0.517,1.1470001,0.75,1.23,82,6,14.991001,13.596001,6.3160005,-0.48600003,0.43486655,0,nan,0.0,4,1,16
310861587,1541093681400054,323886185,-1170784262,83800,49355,0.162,0.012978442,0.514,1.141,0.75,1.23,82,6,15.088,13.633,6.465,-0.347,0.4428024,0,nan,0.0,4,1,16
311059524,1541093681600054,323886428,-1170784124,84010,49566,0.16100001,0.013023297,0.512,1.136,0.75,1.23,82,6,15.070001,13.495001,6.708,-0.462,0.46128666,0,nan,0.0,4,1,16
311259842,1541093681800054,323886670,-1170783981,84160,49716,0.164,0.012588535,0.51000005,1.133,0.75,1.23,81,7,15.079,13.395,6.9240003,-0.44900003,0.47706792,0,nan,0.0,4,1,16
311466574,1541093682000054,323886911,-1170783834,84252,49808,0.16800001,0.01256445,0.508,1.13,0.75,1.23,81,7,15.136001,13.4210005,6.998,-0.44000003,0.48061582,0,nan,0.0,4,1,16
311663521,1541093682200054,323887151,-1170783684,84304,49860,0.155,0.0120412,0.50600004,1.1270001,0.75,1.23,81,7,15.115001,13.253,7.268,-0.3,0.5016142,0,nan,0.0,4,1,16
311864520,1541093682400054,323887391,-1170783528,84395,49951,0.14400001,0.011885517,0.503,1.1270001,0.75,1.23,81,7,15.061001,13.193001,7.2650003,-0.36,0.5033746,0,nan,0.0,4,1,16
312056525,1541093682600054,323887630,-1170783371,84433,49989,0.172,0.012722054,0.50100005,1.128,0.75,1.23,81,7,15.1710005,13.203001,7.472,-0.33200002,0.515011,0,nan,0.0,4,1,16
312263519,1541093682800054,323887868,-1170783211,84483,50039,0.18200001,0.013309182,0.5,1.13,0.75,1.23,81,9,15.114,13.089001,7.5580006,-0.28800002,0.52364916,0,nan,0.0,4,1,16
312460532,1541093683000054,323888105,-1170783047,84580,50136,0.163,0.013660517,0.499,1.1240001,0.75,1.23,81,9,15.1640005,13.027,7.761,-0.32500002,0.53726155,0,nan,0.0,4,1,16
312661165,1541093683200054,323888342,-1170782879,84658,50215,0.186,0.014020055,0.499,1.128,0.75,1.23,81,9,15.306001,13.077001,7.9540005,-0.33900002,0.5464205,0,nan,0.0,4,1,16
312862104,1541093683400054,323888576,-1170782707,84757,50313,0.21000001,0.014502464,0.5,1.136,0.75,1.23,81,9,15.196001,12.769001,8.237,-0.34,0.5729125,0,nan,0.0,4,1,16
313068523,1541093683600054,323888808,-1170782527,84848,50405,0.215,0.0142837735,0.50100005,1.1470001,0.79999995,1.39,81,9,15.452001,12.813001,8.636001,-0.328,0.59302586,0,nan,0.0,4,1,15
313259722,1541093683800054,323889040,-1170782339,84871,50428,0.193,0.014326185,0.50200003,1.153,0.75,1.23,81,10,15.575001,12.693001,9.025001,-0.41300002,0.6180629,0,nan,0.0,4,1,16
313462610,1541093684000054,323889268,-1170782143,84986,50542,0.18900001,0.01357168,0.50200003,1.164,0.75,1.23,81,10,15.592001,12.431001,9.411,-0.38700002,0.64800197,0,nan,0.0,4,1,16
313663584,1541093684200054,323889492,-1170781935,85030,50586,0.192,0.014045711,0.503,1.171,0.75,1.23,81,10,15.842001,12.277,10.011001,-0.44700003,0.6840645,0,nan,0.0,4,1,16
313859815,1541093684400054,323889709,-1170781716,85206,50763,0.18400002,0.0142554995,0.503,1.179,0.75,1.23,81,10,15.731001,11.692,10.524,-0.42200002,0.73285866,0,nan,0.0,4,1,16
314060460,1541093684600054,323889921,-1170781485,85308,50865,0.19700001,0.014435443,0.504,1.19,0.75,1.23,81,10,16.087,11.645,11.099001,-0.531,0.7614225,0,nan,0.0,4,1,16
314266560,1541093684800054,323890131,-1170781241,85343,50900,0.18300001,0.014103656,0.505,1.195,0.75,1.23,81,4,16.437,11.488001,11.7560005,-0.597,0.79694766,0,nan,0.0,4,1,16
314463529,1541093685000054,323890334,-1170780986,85476,51033,0.18200001,0.014408913,0.505,1.2010001,0.75,1.23,81,4,16.388,10.972,12.173,-0.42000002,0.83725095,0,nan,0.0,4,1,16
314658596,1541093685200054,323890529,-1170780721,85595,51152,0.16800001,0.013700484,0.505,1.2010001,0.75,1.23,81,4,16.708,10.76,12.783001,-0.45000002,0.8711322,0,nan,0.0,4,1,16
314863549,1541093685400054,323890720,-1170780444,85651,51208,0.165,0.013406397,0.505,1.2,0.75,1.23,81,4,16.836,10.403001,13.238001,-0.342,0.90473723,0,nan,0.0,4,1,16
315063523,1541093685600054,323890904,-1170780155,85687,51244,0.19600001,0.015126418,0.507,1.2110001,0.75,1.23,81,4,17.08,10.026,13.827001,-0.284,0.9434258,0,nan,0.0,4,1,16
315259914,1541093685800054,323891079,-1170779853,85743,51300,0.14,0.010825578,0.50200003,1.177,0.75,1.23,76,3,17.223001,9.486,14.375001,-0.12100001,0.9874683,0,nan,0.0,4,1,16
315463532,1541093686000054,323891245,-1170779541,85798,51355,0.17400001,0.0120974,0.50100005,1.1780001,0.75,1.23,76,3,17.383001,9.037001,14.85,-0.12900001,1.0241162,0,nan,0.0,4,1,16
315663523,1541093686200054,323891404,-1170779217,85813,51370,0.17600001,0.011793887,0.499,1.172,0.78,1.25,76,3,17.679,8.629001,15.43,-0.086,1.06091,0,nan,0.0,4,1,15
315860727,1541093686400054,323891556,-1170778882,85815,51372,0.18400002,0.01334531,0.5,1.177,0.75,1.23,76,3,17.937,8.193001,15.957001,-0.031000001,1.0964833,0,nan,0.0,4,1,16
316061520,1541093686600054,323891699,-1170778538,85768,51325,0.186,0.013302026,0.50200003,1.184,0.78,1.25,76,3,18.061,7.6600003,16.356,0.13800001,1.1327895,0,nan,0.0,4,1,15
316262582,1541093686800054,323891832,-1170778184,85678,51235,0.179,0.011950967,0.50200003,1.1780001,0.75,1.23,67,3,18.249,7.182,16.777,0.24200001,1.1663285,0,nan,0.0,4,1,16
316463524,1541093687000054,323891956,-1170777822,85516,51073,0.148,0.0109823095,0.50100005,1.176,0.75,1.23,67,3,18.422,6.6540003,17.178001,0.44500002,1.2012529,0,nan,0.0,4,1,16
316664531,1541093687200054,323892071,-1170777451,85385,50942,0.13900001,0.009725672,0.49600002,1.149,0.75,1.23,67,3,18.581001,6.089,17.555,0.42900002,1.2369052,0,nan,0.0,4,1,16
316858571,1541093687400054,323892177,-1170777073,85236,50793,0.13000001,0.009510473,0.49100003,1.1240001,0.75,1.23,67,3,18.791,5.6250005,17.93,0.588,1.2667894,0,nan,0.0,4,1,16
317058858,1541093687600054,323892274,-1170776688,85130,50688,0.224,0.017316284,0.49400002,1.131,0.78,1.25,67,3,18.968,5.131,18.26,0.544,1.2968818,0,nan,0.0,4,1,15
317261574,1541093687800053,323892362,-1170776296,85018,50575,0.192,0.016308356,0.5,1.1400001,0.78,1.25,72,8,19.080002,4.6720004,18.499,0.628,1.3234289,0,nan,0.0,4,1,15
317466602,1541093688000053,323892440,-1170775900,84884,50442,0.163,0.01148479,0.50200003,1.1370001,0.78,1.25,72,8,19.082,4.0290003,18.651001,0.623,1.3580298,0,nan,0.0,4,1,15
317662575,1541093688200053,323892511,-1170775500,84737,50295,0.15200001,0.009975603,0.49800003,1.123,0.78,1.25,72,8,19.262001,3.7570002,18.892,0.505,1.374478,0,nan,0.0,4,1,15
317861570,1541093688400053,323892572,-1170775094,84584,50141,0.16000001,0.010389072,0.497,1.113,0.78,1.25,72,8,19.383001,3.1430001,19.126001,0.66200006,1.4079452,0,nan,0.0,4,1,15
318062577,1541093688600053,323892625,-1170774684,84552,50110,0.15300001,0.009779079,0.49300003,1.093,0.78,1.25,72,8,19.511002,2.8140001,19.307001,0.60200006,1.4260845,0,nan,0.0,4,1,15
318260526,1541093688800053,323892672,-1170774270,84432,49990,0.23900001,0.018038325,0.49800003,1.1040001,0.78,1.25,72,2,19.744001,2.4020002,19.598001,0.44500002,1.4488642,0,nan,0.0,4,1,15
318460624,1541093689000053,323892709,-1170773855,84331,49889,0.25500003,0.01790411,0.508,1.1170001,0.78,1.25,72,2,19.494001,1.7470001,19.416,0.67600006,1.4810814,0,nan,0.0,4,1,15
318666575,1541093689200053,323892739,-1170773438,84252,49810,0.163,0.010717717,0.512,1.1140001,0.78,1.25,72,2,19.816002,1.697,19.743,0.34800002,1.4850377,0,nan,0.0,4,1,15
318861621,1541093689400053,323892761,-1170773019,84190,49748,0.163,0.009579414,0.509,1.103,0.75,1.23,72,2,19.868,1.261,19.828001,0.49,1.5073099,0,nan,0.0,4,1,16
319059736,1541093689600053,323892781,-1170772598,84076,49635,0.16700001,0.010849664,0.508,1.098,0.78,1.25,72,2,19.785002,0.93500006,19.762001,0.52500004,1.5235122,0,nan,0.0,4,1,15
319256532,1541093689800053,323892795,-1170772177,83919,49477,0.17,0.0116677,0.507,1.097,0.88,1.49,72,1,19.857,0.6,19.848001,0.53000003,1.5405939,0,nan,0.0,4,1,14
319455554,1541093690000053,323892804,-1170771755,83784,49343,0.15900001,0.011696672,0.507,1.093,0.78,1.25,72,1,19.748001,0.42700002,19.743,0.42700002,1.5491862,0,nan,0.0,4,1,15
319659522,1541093690200053,323892810,-1170771336,83643,49201,0.158,0.011233811,0.50600004,1.087,0.78,1.25,72,1,19.717001,0.224,19.716002,0.367,1.5594113,0,nan,0.0,4,1,15
319868460,1541093690400053,323892813,-1170770918,83562,49121,0.16600001,0.010756289,0.505,1.0840001,0.75,1.23,72,1,19.691,-0.002,19.691,0.337,1.5708809,0,nan,0.0,4,1,16
320057627,1541093690600053,323892811,-1170770500,83351,48909,0.155,0.010996969,0.504,1.077,0.75,1.23,72,1,19.644001,-0.071,19.644001,0.31100002,1.5744272,0,nan,0.0,4,1,16
320260671,1541093690800053,323892806,-1170770081,83242,48801,0.177,0.011460005,0.504,1.077,0.78999996,1.3199999,72,4,19.683,-0.40800002,19.679,0.34100002,1.5915112,0,nan,0.0,4,1,15
320460703,1541093691000053,323892798,-1170769664,83169,48727,0.215,0.015093258,0.508,1.0860001,0.75,1.23,72,4,19.593,-0.49400002,19.586,0.24000001,1.5960371,0,nan,0.0,4,1,16
320661581,1541093691200053,323892789,-1170769249,83123,48681,0.224,0.017607404,0.51500005,1.1,0.75,1.23,72,4,19.488,-0.57900006,19.479,0.179,1.600495,0,nan,0.0,4,1,16
320858014,1541093691400053,323892775,-1170768837,83070,48628,0.158,0.011194367,0.51900005,1.103,0.75,1.23,72,4,19.382,-0.93600005,19.36,-0.004,1.6191255,0,nan,0.0,4,1,16
321059733,1541093691600053,323892759,-1170768428,83017,48575,0.14600001,0.010072295,0.51600003,1.0910001,0.76,1.37,72,4,19.344002,-0.99200004,19.318,0.059000004,1.6220793,0,nan,0.0,4,1,15
321261445,1541093691800053,323892741,-1170768019,83015,48574,0.15200001,0.009923941,0.514,1.0860001,0.76,1.37,77,4,19.467001,-0.96000004,19.444,-0.223,1.6201339,0,nan,0.0,4,1,15
321457598,1541093692000053,323892722,-1170767612,82960,48519,0.158,0.00947225,0.512,1.075,0.75,1.23,77,4,19.318,-1.0660001,19.288,-0.25800002,1.6260062,0,nan,0.0,4,1,16
321663531,1541093692200053,323892701,-1170767205,82984,48542,0.15400001,0.00894551,0.508,1.054,0.75,1.23,77,4,19.2,-1.1370001,19.166,-0.40100002,1.6300344,0,nan,0.0,4,1,16
