timestamp,magnetometer_ga[0],magnetometer_ga[1],magnetometer_ga[2]
51039477,0.24927162,-0.036923435,0.41790804
51062477,0.25221586,-0.03396908,0.41790804
51083471,0.24338308,-0.03987779,0.405418
51103478,0.24338308,-0.03987779,0.40854052
51126485,0.24927162,-0.036923435,0.41166303
51147470,0.23749454,-0.036923435,0.40854052
51170479,0.24043882,-0.03987779,0.405418
51193024,0.26104867,-0.03987779,0.41790804
51213471,0.24338308,-0.03987779,0.41166303
51234478,0.23749454,-0.03987779,0.41166303
51256917,0.26104867,-0.036923435,0.41166303
51277516,0.24338308,-0.03987779,0.405418
51298565,0.23749454,-0.03987779,0.41166303
51319508,0.2581044,-0.036923435,0.41478556
51342486,0.24927162,-0.03987779,0.41478556
51363471,0.26104867,-0.04283215,0.4272756
51384777,0.2345503,-0.04283215,0.41790804
51406482,0.25516012,-0.03987779,0.42103055
51428494,0.24632736,-0.036923435,0.41790804
51450487,0.2581044,-0.03987779,0.41478556
51471470,0.23749454,-0.03987779,0.41790804
51492469,0.24927162,-0.04283215,0.4241531
51514491,0.25221586,-0.03987779,0.41790804
51534485,0.25221586,-0.03396908,0.41790804
51556473,0.24927162,-0.03987779,0.42103055
51578493,0.2581044,-0.03987779,0.41790804
51599479,0.25221586,-0.036923435,0.4303981
51620469,0.24338308,-0.036923435,0.405418
51641821,0.24632736,-0.03987779,0.4241531
51664470,0.23749454,-0.036923435,0.41790804
51687472,0.24338308,-0.03101472,0.41478556
51708472,0.24927162,-0.036923435,0.42103055
51728471,0.2581044,-0.036923435,0.41790804
51751470,0.24338308,-0.036923435,0.4272756
51772470,0.24043882,-0.03987779,0.4272756
51793602,0.2581044,-0.036923435,0.41790804
51814557,0.24043882,-0.045786504,0.41790804
51835508,0.24338308,-0.036923435,0.41166303
51856510,0.26104867,-0.03987779,0.45225567
51877508,0.25221586,-0.03396908,0.41790804
51900469,0.24043882,-0.036923435,0.42103055
51921611,0.2581044,-0.03987779,0.41790804
51943471,0.26104867,-0.03987779,0.41790804
51964470,0.26104867,-0.03987779,0.41478556
51985788,0.24043882,-0.036923435,0.41478556
52008470,0.26104867,-0.03987779,0.41790804
52031478,0.26104867,-0.036923435,0.41790804
52052470,0.24632736,-0.03987779,0.405418
52073754,0.2345503,-0.036923435,0.41166303
52094478,0.25516012,-0.03396908,0.41166303
52115471,0.2581044,-0.036923435,0.41166303
52136470,0.25516012,-0.036923435,0.41790804
52157470,0.24927162,-0.04283215,0.40854052
52179470,0.2581044,-0.03987779,0.41478556
52200477,0.24927162,-0.03396908,0.41478556
52223471,0.25221586,-0.03396908,0.41790804
52245470,0.24927162,-0.03987779,0.405418
52267471,0.25221586,-0.036923435,0.40854052
52289471,0.26104867,-0.036923435,0.41478556
52311471,0.26104867,-0.03987779,0.41790804
52332478,0.24927162,-0.036923435,0.41166303
52353473,0.26104867,-0.036923435,0.41166303
52374555,0.23749454,-0.03396908,0.41166303
52395512,0.24927162,-0.03987779,0.41478556
52416509,0.26399294,-0.036923435,0.41478556
52437520,0.24927162,-0.036923435,0.41790804
52458714,0.24043882,-0.036923435,0.405418
52479509,0.24632736,-0.036923435,0.40854052
52500515,0.25221586,-0.036923435,0.41166303
52521509,0.26104867,-0.036923435,0.41478556
52542633,0.24927162,-0.036923435,0.41166303
52564482,0.23160602,-0.036923435,0.41478556
52586595,0.2581044,-0.036923435,0.41790804
52608478,0.24927162,-0.036923435,0.40854052
52629470,0.25516012,-0.03396908,0.41478556
52651471,0.23749454,-0.036923435,0.40854052
52673473,0.25516012,-0.03987779,0.40854052
52695470,0.25221586,-0.03987779,0.41478556
52716469,0.25516012,-0.036923435,0.4241531
52737470,0.25516012,-0.03396908,0.41478556
52757480,0.25221586,-0.036923435,0.41478556
52779080,0.24927162,-0.036923435,0.41166303
52800470,0.25221586,-0.036923435,0.41166303
52822493,0.24632736,-0.03396908,0.42103055
52843470,0.26104867,-0.03396908,0.41790804
52864471,0.24927162,-0.03987779,0.41166303
52885471,0.24927162,-0.036923435,0.405418
52905471,0.24927162,-0.03396908,0.41478556
52928471,0.24632736,-0.03987779,0.405418
52949471,0.24043882,-0.03987779,0.42103055
52970593,0.24632736,-0.03987779,0.4272756
52992478,0.24632736,-0.03987779,0.43664312
53014479,0.24338308,-0.04283215,0.4303981
53034688,0.24338308,-0.036923435,0.43664312
53055471,0.25221586,-0.036923435,0.4303981
53076469,0.25221586,-0.03396908,0.4303981
53099207,0.25516012,-0.028060364,0.43664312
53120510,0.25221586,-0.03101472,0.4272756
53141510,0.25221586,-0.028060364,0.4272756
53163567,0.2581044,-0.028060364,0.4241531
53184508,0.25516012,-0.022151649,0.43664312
53205509,0.24043882,-0.022151649,0.4272756
53227447,0.24927162,-0.025106007,0.4272756
53248476,0.25516012,-0.025106007,0.4303981
53269476,0.24338308,-0.025106007,0.43352062
53291485,0.24338308,-0.025106007,0.4272756
53311477,0.24927162,-0.019197294,0.44288814
53332470,0.24338308,-0.019197294,0.43664312
53352470,0.24927162,-0.016242936,0.44288814
53374900,0.24927162,-0.016242936,0.44288814
53395475,0.24338308,-0.022151649,0.43352062
53417470,0.25516012,-0.019197294,0.44288814
53440470,0.2669372,-0.022151649,0.4272756
53462862,0.2581044,-0.019197294,0.41790804
53483483,0.26399294,-0.016242936,0.42103055
53503477,0.28165853,-0.022151649,0.405418
53526831,0.27282572,-0.016242936,0.40854052
53547471,0.28754705,-0.016242936,0.40229547
53569478,0.28754705,-0.022151649,0.38668293
53589471,0.30521262,-0.028060364,0.3773154
53611443,0.31110117,-0.025106007,0.36794785
53632469,0.3228782,-0.025106007,0.37107038
53654833,0.32876676,-0.028060364,0.34921277
53677471,0.34937662,-0.03101472,0.34296778
53699470,0.35232088,-0.028060364,0.33360022
53721470,0.35232088,-0.03101472,0.31486514
53744471,0.36115366,-0.03101472,0.31174263
53765471,0.3670422,-0.03987779,0.28364003
53787366,0.36998647,-0.036923435,0.28051752
53808469,0.36998647,-0.03396908,0.277395
53830936,0.37293074,-0.03396908,0.27427247
53854827,0.37293074,-0.036923435,0.26802748
53878823,0.37293074,-0.03101472,0.27427247
53900981,0.375875,-0.03396908,0.27114996
53922470,0.375875,-0.03396908,0.277395
53942471,0.36998647,-0.03396908,0.277395
53964815,0.3670422,-0.03396908,0.27427247
53987471,0.37293074,-0.028060364,0.28676257
54010471,0.36998647,-0.028060364,0.28364003
54030479,0.37293074,-0.03101472,0.277395
54051477,0.36998647,-0.028060364,0.28988504
54074491,0.36998647,-0.03101472,0.28676257
54096470,0.36998647,-0.028060364,0.28364003
54117478,0.3670422,-0.025106007,0.29300755
54137470,0.37293074,-0.025106007,0.28988504
54157812,0.36998647,-0.03101472,0.28364003
54179395,0.36998647,-0.028060364,0.28988504
54202516,0.3670422,-0.03101472,0.28364003
54223516,0.36998647,-0.028060364,0.28364003
54245678,0.37293074,-0.028060364,0.277395
54268984,0.37293074,-0.03101472,0.27427247
54290480,0.37293074,-0.028060364,0.26802748
54311479,0.375875,-0.028060364,0.27114996
54333477,0.375875,-0.03396908,0.27114996
54355481,0.37881926,-0.03396908,0.26490495
54378478,0.375875,-0.03101472,0.26490495
54399472,0.37881926,-0.03101472,0.26802748
54420916,0.375875,-0.03101472,0.26802748
54442482,0.37881926,-0.03101472,0.26802748
54464470,0.37881926,-0.028060364,0.26802748
54485479,0.37881926,-0.028060364,0.26490495
54506484,0.38176352,-0.03396908,0.25241488
54528470,0.38470778,-0.03396908,0.25241488
54550545,0.38176352,-0.03396908,0.25553742
54571473,0.38176352,-0.03396908,0.25241488
54591471,0.38176352,-0.03396908,0.25865993
54611471,0.38470778,-0.03101472,0.25241488
54632477,0.38470778,-0.03396908,0.25553742
54654495,0.38765207,-0.03396908,0.24616988
54676478,0.38765207,-0.03396908,0.24929239
54698489,0.39059633,-0.03396908,0.24616988
54720516,0.38470778,-0.036923435,0.25241488
54742511,0.38765207,-0.036923435,0.25241488
54763507,0.38470778,-0.03396908,0.24929239
54784510,0.39059633,-0.03396908,0.25241488
54805904,0.38765207,-0.03396908,0.24616988
54828470,0.38765207,-0.03101472,0.24616988
54851470,0.39059633,-0.03101472,0.23992485
54871471,0.39059633,-0.03101472,0.24304737
54891471,0.38765207,-0.025106007,0.25553742
54912469,0.38765207,-0.022151649,0.25241488
54934473,0.38765207,-0.019197294,0.25865993
54955478,0.38470778,-0.016242936,0.25865993
54977477,0.38470778,-0.01328858,0.24929239
54999470,0.38765207,-0.01328858,0.25553742
55022418,0.38470778,-0.0073798657,0.25553742
55044470,0.38470778,-0.004425509,0.25865993
55067479,0.38176352,0.0014832048,0.25865993
55088478,0.375875,0.0014832048,0.26490495
55108477,0.37293074,0.0044375616,0.26490495
55131472,0.37293074,0.0044375616,0.277395
55152470,0.36998647,0.010346276,0.28676257
55173773,0.3670422,0.013300633,0.28676257
55194587,0.36409792,0.013300633,0.28988504
55215510,0.36409792,0.01625499,0.28988504
55236513,0.36409792,0.01625499,0.29300755
55259470,0.36115366,0.01625499,0.29300755
55281470,0.3582094,0.01625499,0.3023751
55301611,0.3582094,0.019209346,0.3023751
55324471,0.35526517,0.019209346,0.30549762
55344471,0.35232088,0.019209346,0.31486514
55367211,0.35232088,0.022163702,0.31174263
55388478,0.34937662,0.022163702,0.31174263
55409470,0.34937662,0.01625499,0.31798765
55431196,0.34937662,0.019209346,0.3211102
55451471,0.34348807,0.01625499,0.3242327
55472471,0.34348807,0.019209346,0.3242327
55493470,0.3405438,0.019209346,0.32735518
55514485,0.33759958,0.01625499,0.3304777
55536470,0.33759958,0.013300633,0.33360022
55559214,0.33759958,0.013300633,0.3304777
55581471,0.33465528,0.0073919185,0.33984527
55604470,0.32876676,0.0044375616,0.33984527
55625476,0.32876676,0.0014832048,0.34921277
55646493,0.3258225,-0.0014711521,0.34921277
55668471,0.3258225,-0.0014711521,0.34609026
55690493,0.31993398,-0.010334223,0.3523353
55710522,0.31698972,-0.010334223,0.3554578
55731477,0.31698972,-0.01328858,0.34921277
55753471,0.31993398,-0.019197294,0.3523353
55773480,0.31404543,-0.025106007,0.3523353
55794493,0.3081569,-0.025106007,0.3554578
55816471,0.3081569,-0.028060364,0.36170286
55837470,0.30521262,-0.03101472,0.36482534
55858572,0.30521262,-0.036923435,0.36170286
55881470,0.30521262,-0.03987779,0.36794785
55903471,0.30521262,-0.045786504,0.36170286
55924480,0.29932413,-0.04874086,0.36794785
55944477,0.29932413,-0.05169522,0.37107038
55965471,0.29637986,-0.057603933,0.36794785
55988470,0.2904913,-0.06055829,0.36170286
56008488,0.2904913,-0.066467,0.35858032
56028470,0.28754705,-0.066467,0.36794785
56049470,0.2846028,-0.066467,0.36482534
56071471,0.2846028,-0.07533007,0.36482534
56092470,0.28165853,-0.07828443,0.37107038
56113478,0.27871427,-0.07828443,0.3773154
56134489,0.27282572,-0.07828443,0.3773154
56156470,0.27282572,-0.08419314,0.3773154
56177471,0.27282572,-0.08419314,0.3773154
56199471,0.2669372,-0.087147504,0.38980544
56220470,0.26399294,-0.087147504,0.38356042
56242887,0.26399294,-0.09010186,0.38043788
56266845,0.2581044,-0.09305622,0.3773154
56290918,0.2581044,-0.09601057,0.38668293
56312518,0.25516012,-0.09601057,0.38668293
56333515,0.25221586,-0.09896492,0.39292797
56354853,0.24338308,-0.09896492,0.39292797
56375736,0.24338308,-0.101919286,0.38668293
56396509,0.24338308,-0.101919286,0.38980544
56417508,0.23749454,-0.10487364,0.38668293
56439477,0.23160602,-0.101919286,0.39292797
56461470,0.2345503,-0.10487364,0.39292797
56482894,0.2345503,-0.107828,0.39292797
56506924,0.23160602,-0.110782355,0.39292797
56529471,0.22866175,-0.110782355,0.39917296
56551197,0.2257175,-0.11373671,0.39292797
56573471,0.21982896,-0.11373671,0.39605048
56595479,0.21982896,-0.116691075,0.40229547
56615492,0.21982896,-0.116691075,0.39605048
56637479,0.21982896,-0.12259979,0.40229547
56659480,0.21394044,-0.12259979,0.39605048
56682885,0.21099617,-0.12259979,0.39292797
56703508,0.21099617,-0.12555414,0.39605048
56724515,0.21394044,-0.12555414,0.39292797
56745514,0.2080519,-0.1285085,0.405418
56768471,0.2080519,-0.1285085,0.39917296
56788470,0.2080519,-0.1285085,0.39605048
56810818,0.2080519,-0.13146286,0.39605048
56832121,0.20510764,-0.1344172,0.39917296
56853471,0.20510764,-0.1344172,0.39605048
56876471,0.19921911,-0.1344172,0.40229547
56898824,0.20216337,-0.1344172,0.39917296
56919471,0.20216337,-0.13737157,0.405418
56940470,0.19921911,-0.14032593,0.39917296
56961470,0.19627485,-0.13737157,0.405418
56984028,0.19333057,-0.14032593,0.405418
57005470,0.19627485,-0.14032593,0.40229547
57027617,0.19921911,-0.14328028,0.40854052
57049471,0.19333057,-0.14328028,0.405418
57070488,0.19038631,-0.14328028,0.40229547
57092472,0.19038631,-0.14623465,0.405418
57113808,0.19038631,-0.14328028,0.39917296
57136193,0.19038631,-0.149189,0.40229547
57158473,0.19038631,-0.149189,0.405418
57180473,0.18744205,-0.149189,0.41166303
57202515,0.18744205,-0.15214336,0.39917296
57225471,0.19038631,-0.15805207,0.39605048
57246485,0.19333057,-0.16100642,0.405418
57269470,0.19333057,-0.16396077,0.39292797
57290478,0.19333057,-0.16396077,0.39917296
57312471,0.19627485,-0.16986948,0.39605048
57334482,0.20216337,-0.17282385,0.38668293
57357471,0.19921911,-0.17577821,0.38980544
57378504,0.19921911,-0.17873256,0.38980544
57401473,0.19627485,-0.17577821,0.38980544
57421470,0.19921911,-0.18168692,0.38980544
57443632,0.19627485,-0.18464127,0.39292797
57467623,0.19333057,-0.18759564,0.38356042
57488471,0.19038631,-0.19055,0.38668293
57509470,0.18449779,-0.19350435,0.39292797
57529470,0.18155351,-0.19941306,0.38668293
57552220,0.17860925,-0.20236742,0.39292797
57573472,0.16977647,-0.20532179,0.39292797
57594486,0.1668322,-0.20827614,0.38356042
57616519,0.16388792,-0.21418484,0.38043788
57637508,0.1579994,-0.2171392,0.38980544
57659633,0.15505514,-0.2171392,0.38980544
57682488,0.1491666,-0.22009356,0.38980544
57704478,0.14622234,-0.22600228,0.38356042
57724566,0.14327808,-0.22895662,0.38980544
57747654,0.13738954,-0.22600228,0.38668293
57769340,0.13738954,-0.23191099,0.38356042
57791470,0.13738954,-0.2378197,0.3741929
57814479,0.13150102,-0.24668278,0.38043788
57835471,0.12855674,-0.24963713,0.3741929
57857471,0.1256125,-0.25554585,0.3773154
57878481,0.12266822,-0.26440892,0.36482534
57900470,0.1256125,-0.27622634,0.35858032
57921479,0.12266822,-0.2791807,0.36482534
57942496,0.11972396,-0.28804377,0.34921277
57964511,0.11677969,-0.29690683,0.34296778
57986473,0.11677969,-0.30281556,0.33984527
58006470,0.11383543,-0.30872425,0.33672273
58028470,0.11383543,-0.31463298,0.32735518
58050643,0.11089116,-0.32054168,0.32735518
58073072,0.107946895,-0.3264504,0.3242327
58095363,0.105002634,-0.32940477,0.31174263
58118477,0.10205837,-0.33531347,0.30549762
58139470,0.10205837,-0.33826783,0.3023751
58161470,0.10205837,-0.34417656,0.2992526
58182485,0.096169844,-0.3471309,0.3023751
58203479,0.096169844,-0.3471309,0.29300755
58224909,0.096169844,-0.35303962,0.29300755
58246541,0.096169844,-0.355994,0.28988504
58267482,0.093225576,-0.355994,0.28364003
58289617,0.09028131,-0.3619027,0.28676257
58313121,0.09028131,-0.36485705,0.28051752
58334483,0.09028131,-0.36485705,0.277395
58356470,0.08733705,-0.36485705,0.277395
58377477,0.08733705,-0.3678114,0.277395
58397477,0.084392786,-0.37076575,0.27114996
58419470,0.084392786,-0.37076575,0.27427247
58441471,0.07850425,-0.3678114,0.27114996
58462477,0.08144852,-0.37372014,0.26490495
58482475,0.07850425,-0.37372014,0.26490495
58505723,0.07555999,-0.37372014,0.26490495
58526512,0.07555999,-0.37372014,0.26490495
58546480,0.07261572,-0.37667447,0.26802748
58568961,0.07261572,-0.37667447,0.26802748
58589477,0.0667272,-0.37962884,0.26178244
58610298,0.0667272,-0.3825832,0.25865993
58631471,0.06378292,-0.3825832,0.25553742
58653375,0.060838666,-0.3825832,0.24929239
58674613,0.06378292,-0.38553753,0.25241488
58698406,0.060838666,-0.38553753,0.25865993
58720470,0.057894398,-0.38553753,0.25241488
58742482,0.057894398,-0.3884919,0.24929239
58764477,0.054950133,-0.39144626,0.25241488
58786484,0.057894398,-0.38553753,0.25241488
58806502,0.060838666,-0.3884919,0.24929239
58828487,0.054950133,-0.3884919,0.25241488
58850480,0.057894398,-0.3884919,0.25241488
58870477,0.057894398,-0.3884919,0.24929239
58892470,0.054950133,-0.3884919,0.24616988
58914488,0.060838666,-0.3884919,0.24929239
58935470,0.054950133,-0.3884919,0.25553742
58956470,0.057894398,-0.38553753,0.25241488
58977775,0.060838666,-0.39144626,0.24304737
58999471,0.057894398,-0.3884919,0.25241488
59020477,0.060838666,-0.38553753,0.25553742
59042478,0.06378292,-0.3884919,0.25553742
59063478,0.06378292,-0.3825832,0.25553742
59085336,0.06967146,-0.3884919,0.24616988
59107390,0.0667272,-0.38553753,0.25553742
59128344,0.07261572,-0.3825832,0.25241488
59150536,0.07555999,-0.38553753,0.24929239
59171512,0.07850425,-0.3825832,0.26178244
59192508,0.084392786,-0.38553753,0.25865993
59213506,0.084392786,-0.3825832,0.25865993
59236470,0.093225576,-0.3825832,0.25553742
59257797,0.099114105,-0.3825832,0.25865993
59279470,0.105002634,-0.37667447,0.25553742
59300477,0.11089116,-0.37962884,0.25553742
59322497,0.11383543,-0.37372014,0.25553742
59344470,0.12266822,-0.37667447,0.25241488
59367471,0.13150102,-0.37372014,0.26178244
59388471,0.13444528,-0.3678114,0.25241488
59408470,0.14327808,-0.37076575,0.25553742
59428477,0.14622234,-0.36485705,0.25241488
59451315,0.15211087,-0.36485705,0.25241488
59473479,0.16094367,-0.3619027,0.25241488
59494489,0.16388792,-0.355994,0.25241488
59516472,0.17272072,-0.35894832,0.25553742
59539284,0.17566499,-0.355994,0.24929239
59559479,0.17860925,-0.35008526,0.25241488
59581478,0.19038631,-0.3471309,0.25241488
59602497,0.19627485,-0.3471309,0.24929239
59623470,0.19921911,-0.34122217,0.25241488
59645471,0.20510764,-0.33826783,0.25241488
59667472,0.21099617,-0.33531347,0.24929239
59687471,0.21394044,-0.33235914,0.25241488
59708470,0.2168847,-0.3264504,0.25553742
59729470,0.22277322,-0.32349607,0.25553742
59752508,0.22866175,-0.32349607,0.25553742
59773509,0.22866175,-0.31758735,0.25865993
59795473,0.22866175,-0.31463298,0.26178244
59816470,0.23749454,-0.30872425,0.25553742
59836470,0.24632736,-0.30872425,0.25553742
59857477,0.24338308,-0.30576992,0.25865993
59879471,0.25221586,-0.2998612,0.26178244
59899470,0.25516012,-0.2998612,0.26490495
59920477,0.2581044,-0.29690683,0.26802748
59942488,0.2581044,-0.2909981,0.26490495
59964471,0.2581044,-0.2850894,0.26802748
59985470,0.26104867,-0.2850894,0.26490495
60006492,0.26399294,-0.28213507,0.26802748
60029470,0.2669372,-0.28213507,0.26802748
60051072,0.2669372,-0.27622634,0.27114996
60071471,0.27282572,-0.2703176,0.277395
60091471,0.27282572,-0.273272,0.26802748
60113471,0.27282572,-0.26736328,0.27427247
60134480,0.27576998,-0.26440892,0.28051752
60156478,0.28165853,-0.26440892,0.27427247
60177470,0.27871427,-0.26145455,0.277395
60199473,0.28165853,-0.25554585,0.277395
60221470,0.2846028,-0.2525915,0.27427247
60243430,0.2846028,-0.24963713,0.28051752
60263471,0.28754705,-0.24963713,0.277395
60286884,0.2904913,-0.24372841,0.277395
60308469,0.29343557,-0.24077407,0.27427247
60331322,0.29637986,-0.24077407,0.27427247
60353469,0.29637986,-0.24077407,0.28051752
60375471,0.29637986,-0.23191099,0.277395
60397479,0.29932413,-0.22895662,0.277395
60419325,0.29932413,-0.22895662,0.277395
60441469,0.3022684,-0.22304791,0.277395
60463471,0.3081569,-0.22009356,0.277395
60483475,0.3081569,-0.2171392,0.277395
60505470,0.31698972,-0.21123049,0.277395
60528469,0.31698972,-0.21123049,0.27114996
60549470,0.31698972,-0.19941306,0.27427247
60571682,0.31993398,-0.19941306,0.277395
60593469,0.3228782,-0.19055,0.277395
60616471,0.3258225,-0.18168692,0.277395
60637477,0.3258225,-0.17873256,0.28364003
60660105,0.3258225,-0.16986948,0.28676257
60680509,0.32876676,-0.16396077,0.28988504
60701508,0.33171102,-0.15805207,0.28988504
60723480,0.33465528,-0.149189,0.2992526
60743509,0.33759958,-0.14328028,0.29300755
60764193,0.33465528,-0.1344172,0.29300755
60785470,0.3405438,-0.13146286,0.2992526
60807478,0.34348807,-0.12555414,0.2992526
60830851,0.34348807,-0.11964543,0.29613006
60853471,0.34348807,-0.11373671,0.29300755
60875308,0.34937662,-0.110782355,0.29300755
60897477,0.35232088,-0.107828,0.28676257
60919472,0.35232088,-0.101919286,0.28988504
60939481,0.35232088,-0.09305622,0.28988504
60959760,0.36115366,-0.09010186,0.28676257
60983718,0.36115366,-0.087147504,0.28364003
61006818,0.36115366,-0.07533007,0.28364003
61028471,0.36998647,-0.069421366,0.277395
61050553,0.36998647,-0.066467,0.277395
61072470,0.37293074,-0.057603933,0.26802748
61094472,0.37293074,-0.04874086,0.27114996
61114470,0.375875,-0.045786504,0.26802748
61135477,0.375875,-0.03987779,0.26490495
61157519,0.375875,-0.03101472,0.27427247
61178470,0.375875,-0.022151649,0.277395
61200472,0.375875,-0.019197294,0.27427247
61221500,0.37293074,-0.01328858,0.28051752
61242531,0.37293074,-0.004425509,0.27114996
61264470,0.37293074,0.0014832048,0.277395
61286478,0.36998647,0.010346276,0.28051752
61307475,0.3670422,0.01625499,0.28988504
61330485,0.3670422,0.022163702,0.28676257
61350492,0.36409792,0.028072415,0.2992526
61373302,0.3582094,0.036935486,0.2992526
61394503,0.3582094,0.039889846,0.2992526
61415494,0.35232088,0.04579856,0.3023751
61436988,0.34937662,0.05466163,0.30862013
61459481,0.34643236,0.06057034,0.3023751
61482477,0.34643236,0.06647906,0.31174263
61503470,0.33759958,0.075342126,0.31486514
61525471,0.33465528,0.08125084,0.31174263
61547471,0.33465528,0.084205195,0.31486514
61570565,0.3258225,0.090113916,0.31798765
61591509,0.3258225,0.09897698,0.31486514
61613061,0.3228782,0.10193133,0.3242327
61633509,0.31993398,0.11079441,0.31798765
61654572,0.31993398,0.11079441,0.31798765
61675508,0.31404543,0.12261184,0.3242327
61696508,0.31110117,0.12261184,0.31798765
61718528,0.30521262,0.12852056,0.32735518
61740479,0.3022684,0.13738361,0.32735518
61762489,0.3022684,0.13738361,0.32735518
61783471,0.2904913,0.14624669,0.33672273
61803471,0.2904913,0.14920105,0.32735518
61825470,0.28165853,0.1521554,0.33672273
61847471,0.27576998,0.15806411,0.34296778
61867471,0.27576998,0.16397284,0.33984527
61887471,0.27282572,0.16397284,0.33672273
61907469,0.2669372,0.16692719,0.34296778
61928478,0.26104867,0.17579027,0.34921277
61950493,0.26399294,0.17874463,0.34296778
61971470,0.2581044,0.17874463,0.34609026
61992470,0.2581044,0.17874463,0.3523353
62014491,0.2581044,0.17874463,0.34296778
62034478,0.25516012,0.17579027,0.3523353
62056470,0.24632736,0.17874463,0.34296778
62078472,0.24043882,0.17874463,0.35858032
62098477,0.2345503,0.17874463,0.36170286
62120469,0.23749454,0.1728359,0.35858032
62142308,0.23160602,0.16988155,0.36794785
62164473,0.22866175,0.16988155,0.3741929
62187473,0.2257175,0.16692719,0.3773154
62208471,0.2257175,0.16101848,0.38043788
62228476,0.2257175,0.15806411,0.38043788
62250488,0.22277322,0.15510976,0.3773154
62272478,0.2257175,0.1521554,0.38980544
62294492,0.21982896,0.14329232,0.38668293
62314487,0.2168847,0.14329232,0.39292797
62336480,0.2168847,0.13738361,0.38668293
62358594,0.21394044,0.13442928,0.39292797
62380376,0.21099617,0.13442928,0.39292797
62403470,0.21394044,0.12852056,0.39292797
62424479,0.2080519,0.12261184,0.40229547
62445883,0.21099617,0.11965748,0.40229547
62468478,0.2080519,0.11670312,0.39917296
62490494,0.21099617,0.11374877,0.39917296
62510513,0.21099617,0.11079441,0.40229547
62532470,0.21099617,0.107840054,0.405418
62554490,0.21099617,0.09897698,0.405418
62575531,0.21099617,0.09602263,0.40854052
62596469,0.21099617,0.09602263,0.40854052
62617476,0.2168847,0.090113916,0.405418
62639476,0.2168847,0.090113916,0.405418
62659470,0.22277322,0.08715955,0.40854052
62681469,0.22866175,0.084205195,0.39917296
62703471,0.23160602,0.084205195,0.39605048
62724470,0.24338308,0.08125084,0.39605048
62745478,0.25221586,0.084205195,0.38980544
62767580,0.24927162,0.08125084,0.40229547
62788477,0.26104867,0.08125084,0.38356042
62809470,0.26104867,0.08125084,0.38043788
62831479,0.26988146,0.08125084,0.3773154
62852469,0.26988146,0.08125084,0.3773154
62874433,0.27282572,0.08125084,0.3741929
62896470,0.27576998,0.084205195,0.3741929
62918490,0.28165853,0.084205195,0.37107038
62939470,0.28165853,0.084205195,0.3741929
62960477,0.28754705,0.084205195,0.36170286
62982756,0.2904913,0.084205195,0.35858032
63004471,0.29343557,0.08715955,0.35858032
63025470,0.29343557,0.084205195,0.36170286
63047211,0.2904913,0.08715955,0.36482534
63068515,0.2904913,0.09306827,0.36170286
63089510,0.28754705,0.09306827,0.35858032
63111292,0.2846028,0.09306827,0.36170286
63132469,0.28165853,0.09602263,0.36482534
63153476,0.2846028,0.09897698,0.36794785
63175623,0.28165853,0.09897698,0.36170286
63198474,0.27871427,0.10193133,0.36482534
63220470,0.27871427,0.1048857,0.37107038
63242478,0.27282572,0.107840054,0.36482534
63262478,0.27282572,0.11079441,0.36794785
63282974,0.2669372,0.11670312,0.36482534
63306845,0.26104867,0.11965748,0.3741929
63330825,0.25516012,0.1255662,0.37107038
63352482,0.25516012,0.13147491,0.3741929
63373477,0.24927162,0.13442928,0.3773154
63394826,0.24338308,0.13738361,0.3773154
63418806,0.23749454,0.14329232,0.38043788
63440121,0.23160602,0.14624669,0.38668293
63463374,0.22866175,0.14624669,0.38356042
63484470,0.22277322,0.14624669,0.3773154
63506816,0.2168847,0.14920105,0.39917296
63529478,0.21099617,0.14329232,0.39292797
63552480,0.19921911,0.14033797,0.405418
63573478,0.19627485,0.14033797,0.40229547
63594853,0.18744205,0.14033797,0.40854052
63615473,0.18449779,0.13442928,0.41166303
63636470,0.17566499,0.13738361,0.42103055
63658903,0.16977647,0.13442928,0.41790804
63682860,0.1668322,0.13442928,0.41478556
63705509,0.16094367,0.12852056,0.4272756
63728470,0.15505514,0.12852056,0.4303981
63749477,0.1491666,0.12852056,0.43352062
63772471,0.14327808,0.1255662,0.43352062
63794883,0.13444528,0.12852056,0.43352062
63817471,0.13150102,0.12852056,0.4272756
63839195,0.12266822,0.13147491,0.44601068
63861477,0.11972396,0.12852056,0.43664312
63884470,0.11383543,0.13147491,0.43976563
63905472,0.107946895,0.1255662,0.43976563
63927184,0.105002634,0.12852056,0.44288814
63948471,0.096169844,0.12852056,0.44288814
63969514,0.096169844,0.12852056,0.43664312
63992470,0.08733705,0.12852056,0.43976563
64013478,0.084392786,0.1255662,0.44288814
64035472,0.07850425,0.12852056,0.44288814
64057481,0.07261572,0.12261184,0.44601068
64079471,0.06967146,0.1255662,0.44288814
64101470,0.0667272,0.11965748,0.4491332
64121803,0.060838666,0.1255662,0.4491332
64142470,0.060838666,0.1255662,0.45225567
64162470,0.06378292,0.12261184,0.44601068
64185758,0.057894398,0.12261184,0.4491332
64207470,0.057894398,0.1255662,0.45225567
64230471,0.054950133,0.12852056,0.44601068
64251472,0.057894398,0.1255662,0.44601068
64273710,0.054950133,0.12261184,0.4491332
64295479,0.04611734,0.12261184,0.44601068
64317472,0.04611734,0.11965748,0.45225567
64338480,0.049061604,0.11670312,0.44601068
64360990,0.04611734,0.11374877,0.44288814
64382609,0.043173075,0.11374877,0.4585007
64403518,0.04611734,0.11079441,0.4553782
64425010,0.04611734,0.107840054,0.4553782
64447478,0.049061604,0.11079441,0.44601068
64470479,0.054950133,0.107840054,0.45225567
64491480,0.054950133,0.11079441,0.4553782
64511472,0.054950133,0.11079441,0.45225567
64533478,0.054950133,0.107840054,0.4491332
64554486,0.054950133,0.107840054,0.4491332
64577209,0.057894398,0.10193133,0.45225567
64598478,0.054950133,0.1048857,0.45225567
64619470,0.06378292,0.10193133,0.45225567
64641620,0.057894398,0.09897698,0.4585007
64664985,0.06378292,0.09897698,0.4553782
64685478,0.06378292,0.09897698,0.45225567
64707471,0.06378292,0.09602263,0.45225567
64728470,0.06967146,0.09602263,0.4553782
64749478,0.0667272,0.09306827,0.4585007
64771479,0.06967146,0.090113916,0.4553782
64793898,0.07261572,0.08715955,0.4553782
64814560,0.07261572,0.090113916,0.4585007
64835509,0.07261572,0.08715955,0.4585007
64856518,0.07555999,0.09306827,0.4553782
64880470,0.07850425,0.090113916,0.4553782
64903474,0.07850425,0.09306827,0.4553782
64924470,0.08144852,0.09897698,0.44601068
64944478,0.084392786,0.107840054,0.4491332
64965477,0.084392786,0.11670312,0.44601068
64988477,0.084392786,0.12852056,0.44288814
65009850,0.08144852,0.14329232,0.43976563
65030488,0.08144852,0.1521554,0.4303981
65051471,0.07555999,0.16692719,0.4303981
65072476,0.07261572,0.17874463,0.42103055
65093475,0.07261572,0.1935164,0.41790804
65115473,0.060838666,0.2082882,0.41790804
65136477,0.057894398,0.22010562,0.40229547
65159470,0.054950133,0.23192304,0.39605048
65181470,0.049061604,0.24374047,0.39605048
65202489,0.043173075,0.25555792,0.38980544
65222470,0.037284546,0.2614666,0.3773154
65243471,0.031396016,0.27328402,0.36170286
65265701,0.025507485,0.2821471,0.3554578
65287470,0.022563221,0.29101017,0.3523353
65308477,0.022563221,0.29396453,0.3523353
65330547,0.016674692,0.29987326,0.34296778
65352477,0.010786162,0.305782,0.33984527
65373478,0.007841896,0.31464502,0.3304777
65393793,0.010786162,0.3175994,0.3211102
65415470,0.004897632,0.32055375,0.31486514
65437345,0.0019533671,0.3294168,0.31174263
65459276,0.0019533671,0.33532554,0.30549762
65481708,0.0019533671,0.3382799,0.29300755
65504339,0.004897632,0.34123424,0.29613006
65527473,0.0019533671,0.3441886,0.28676257
65548481,0.0019533671,0.34714296,0.28988504
65571288,-0.0009908976,0.35305166,0.28676257
65592469,0.0019533671,0.35600606,0.277395
65614488,0.007841896,0.35600606,0.27427247
65634490,0.007841896,0.3589604,0.277395
65656470,0.004897632,0.36191472,0.27427247
65677468,0.010786162,0.3648691,0.26490495
65699117,0.013730426,0.36191472,0.25865993
65720470,0.013730426,0.3648691,0.26490495
65741472,0.013730426,0.37077782,0.26490495
65763471,0.016674692,0.37077782,0.25865993
65783470,0.019618956,0.37077782,0.25865993
65805469,0.022563221,0.37077782,0.25553742
65826490,0.022563221,0.37373215,0.25865993
65846484,0.02845175,0.37077782,0.25865993
65868345,0.02845175,0.37373215,0.25241488
65889336,0.031396016,0.37373215,0.24929239
65912477,0.037284546,0.37373215,0.24616988
65933471,0.043173075,0.37077782,0.25241488
65955471,0.043173075,0.37373215,0.24929239
65976469,0.04611734,0.37373215,0.24929239
65997345,0.049061604,0.37668654,0.23992485
66018499,0.054950133,0.37373215,0.23992485
66039397,0.057894398,0.37373215,0.24616988
66062512,0.06378292,0.37668654,0.23992485
66085336,0.06967146,0.37668654,0.24304737
66107412,0.07850425,0.37373215,0.23680235
66129470,0.08144852,0.37077782,0.23992485
66151471,0.09028131,0.37077782,0.23367983
66172482,0.093225576,0.36782345,0.23680235
66194583,0.099114105,0.37077782,0.23992485
66216470,0.107946895,0.36782345,0.24304737
66237476,0.11089116,0.3648691,0.23055731
66258475,0.11677969,0.3648691,0.23680235
66279474,0.1256125,0.3648691,0.23992485
66300470,0.13444528,0.3589604,0.23680235
66321477,0.13738954,0.3589604,0.23055731
66344471,0.14327808,0.35600606,0.23992485
66366826,0.1491666,0.35305166,0.23680235
66390817,0.16094367,0.35305166,0.23680235
66414917,0.16977647,0.34714296,0.23992485
66437477,0.17566499,0.34123424,0.24304737
66460478,0.17860925,0.33532554,0.23680235
66481469,0.18744205,0.3382799,0.23680235
66503471,0.19333057,0.33237118,0.23680235
66526835,0.20216337,0.3294168,0.22743481
66550827,0.20510764,0.32350808,0.23992485
66574829,0.21099617,0.3175994,0.23992485
66598824,0.21394044,0.31464502,0.23680235
66619508,0.21982896,0.30873632,0.23992485
66639508,0.2257175,0.305782,0.24304737
66662860,0.22866175,0.305782,0.23992485
66683471,0.2345503,0.29987326,0.23367983
66705476,0.23749454,0.29987326,0.24616988
66727479,0.24043882,0.29396453,0.23680235
66750811,0.2345503,0.29396453,0.23992485
66773471,0.24338308,0.29396453,0.23992485
66795214,0.24927162,0.29101017,0.25241488
66817479,0.25221586,0.29101017,0.23680235
66839478,0.2581044,0.28510144,0.23680235
66859470,0.2581044,0.28805584,0.23992485
66881469,0.26399294,0.28805584,0.23055731
66904471,0.2669372,0.2821471,0.23055731
66926947,0.26988146,0.2762384,0.23367983
66947514,0.27576998,0.2762384,0.23367983
66968520,0.27871427,0.27328402,0.23680235
66989515,0.2846028,0.26442096,0.23367983
67012470,0.29343557,0.25851226,0.23367983
67032470,0.29343557,0.24669483,0.24929239
67054832,0.29637986,0.24374047,0.24929239
67075994,0.29932413,0.23192304,0.25553742
67097477,0.3022684,0.22305997,0.25865993
67120470,0.29932413,0.21715125,0.26802748
67142470,0.30521262,0.21715125,0.27114996
67164974,0.30521262,0.21124254,0.27114996
67186477,0.3081569,0.2082882,0.27114996
67207473,0.30521262,0.2082882,0.26802748
67228894,0.31110117,0.2082882,0.27114996
67251470,0.31110117,0.20533383,0.26490495
67274470,0.31110117,0.20533383,0.26490495
67295471,0.3081569,0.20533383,0.26802748
67316977,0.31110117,0.20533383,0.26490495
67338471,0.31110117,0.20237947,0.26802748
67360517,0.31110117,0.20237947,0.26490495
67382479,0.31110117,0.20237947,0.27114996
67402504,0.31404543,0.20237947,0.26490495
67424470,0.31404543,0.19942512,0.26490495
67445512,0.31404543,0.20237947,0.27114996
67466478,0.31404543,0.20237947,0.25865993
67488507,0.31110117,0.20237947,0.26802748
67509597,0.31698972,0.20237947,0.26802748
67533025,0.31698972,0.20237947,0.26490495
67555471,0.31698972,0.20237947,0.26490495
67578478,0.31993398,0.19942512,0.26178244
67600470,0.31404543,0.20237947,0.25553742
67621471,0.31404543,0.20237947,0.25241488
67642479,0.31993398,0.20237947,0.25865993
67663471,0.31698972,0.20237947,0.25553742
67684982,0.3228782,0.19942512,0.26490495
67706480,0.31993398,0.19647075,0.26490495
67726524,0.31404543,0.1935164,0.26490495
67750502,0.31698972,0.19056204,0.27427247
67772493,0.31993398,0.18465333,0.277395
67794568,0.31404543,0.18169898,0.28051752
67816496,0.31698972,0.18169898,0.28676257
67838506,0.31698972,0.17579027,0.28988504
67858508,0.31110117,0.1728359,0.28988504
67880501,0.31698972,0.16988155,0.29300755
67902514,0.31404543,0.16397284,0.29300755
67924539,0.31110117,0.16692719,0.2992526
67947470,0.31404543,0.15806411,0.30549762
67968477,0.31110117,0.15510976,0.3023751
67988478,0.31110117,0.15806411,0.30862013
68011472,0.31404543,0.14920105,0.30549762
68031471,0.3081569,0.1521554,0.31174263
68052470,0.31110117,0.14920105,0.31486514
68075471,0.3081569,0.14624669,0.31486514
68096471,0.3081569,0.14920105,0.31486514
68118285,0.3081569,0.14329232,0.31486514
68140476,0.3081569,0.14329232,0.31798765
68163471,0.30521262,0.14033797,0.31798765
68183470,0.3081569,0.14033797,0.31798765
68203470,0.30521262,0.14033797,0.31486514
68223471,0.30521262,0.13442928,0.31798765
68243471,0.30521262,0.13738361,0.32735518
68263473,0.30521262,0.13442928,0.31798765
68283470,0.30521262,0.13442928,0.3211102
68304469,0.3022684,0.13442928,0.32735518
68325629,0.3022684,0.13738361,0.32735518
68347472,0.30521262,0.13147491,0.32735518
68368469,0.3022684,0.13442928,0.33360022
68390494,0.29932413,0.13442928,0.3242327
68411470,0.3022684,0.12852056,0.3304777
68433375,0.3022684,0.13147491,0.33360022
68455218,0.3022684,0.13147491,0.33672273
68476348,0.29932413,0.13147491,0.32735518
68498570,0.29637986,0.12852056,0.3304777
68519516,0.29932413,0.12852056,0.32735518
68540513,0.29637986,0.12852056,0.33360022
68561508,0.29932413,0.13147491,0.3304777
68583291,0.29932413,0.12852056,0.3304777
68604478,0.29637986,0.12852056,0.33984527
68625470,0.29932413,0.1255662,0.33360022
68647189,0.29343557,0.12852056,0.33672273
68668336,0.29932413,0.1255662,0.33984527
68690433,0.29932413,0.12852056,0.33360022
68712353,0.29637986,0.12852056,0.33672273
68734578,0.29637986,0.1255662,0.33360022
68755471,0.29343557,0.1255662,0.33984527
68777470,0.29637986,0.1255662,0.34609026
68799471,0.29637986,0.12261184,0.34609026
68819470,0.29343557,0.1255662,0.33984527
68841469,0.29343557,0.11670312,0.33984527
68863205,0.2904913,0.11670312,0.3523353
68884470,0.2904913,0.107840054,0.34609026
68905469,0.2904913,0.1048857,0.3554578
68927470,0.2904913,0.09897698,0.36170286
68948479,0.28754705,0.08715955,0.36482534
68969470,0.28754705,0.08125084,0.36482534
68990528,0.2846028,0.075342126,0.37107038
69011377,0.28165853,0.07238777,0.38043788
69033469,0.28165853,0.0635247,0.3741929
69055471,0.27576998,0.057615984,0.3773154
69076471,0.27871427,0.05466163,0.38356042
69098492,0.27282572,0.04579856,0.38043788
69120472,0.27282572,0.04579856,0.38668293
69140470,0.26988146,0.03398113,0.38356042
69161494,0.2669372,0.036935486,0.38980544
69183496,0.2669372,0.031026775,0.38356042
69203494,0.2669372,0.02511806,0.405418
69225494,0.2669372,0.019209346,0.40229547
69247214,0.26399294,0.01625499,0.40854052
69268385,0.26104867,0.01625499,0.39917296
69290469,0.26399294,0.010346276,0.41478556
69312358,0.26104867,0.010346276,0.41478556
69334497,0.2581044,0.0073919185,0.405418
69355479,0.25221586,0.0014832048,0.41790804
69376469,0.25221586,0.0044375616,0.41790804
69397468,0.25516012,-0.0014711521,0.41166303
69418833,0.24927162,-0.0014711521,0.41790804
69441478,0.24927162,-0.004425509,0.41478556
69464470,0.24338308,-0.0073798657,0.41478556
69485469,0.24043882,-0.0073798657,0.41478556
69506347,0.24338308,-0.010334223,0.41166303
69528470,0.23749454,-0.0073798657,0.41790804
69549477,0.24043882,-0.010334223,0.41790804
69571478,0.23160602,-0.01328858,0.41478556
69593469,0.2345503,-0.01328858,0.4303981
69615409,0.22866175,-0.016242936,0.42103055
69637470,0.23160602,-0.016242936,0.41790804
69658806,0.2257175,-0.019197294,0.4272756
69679471,0.22866175,-0.019197294,0.41478556
69700470,0.2257175,-0.016242936,0.42103055
69722898,0.2257175,-0.016242936,0.4272756
69746827,0.22277322,-0.019197294,0.4303981
69769470,0.21982896,-0.016242936,0.43664312
69791445,0.2168847,-0.016242936,0.4303981
69813479,0.2168847,-0.01328858,0.43352062
69836470,0.21394044,-0.016242936,0.4303981
69858811,0.21394044,-0.010334223,0.43664312
69881478,0.21099617,-0.01328858,0.4303981
69903419,0.21099617,-0.0073798657,0.43664312
69924470,0.21099617,-0.010334223,0.43664312
69946808,0.2080519,-0.004425509,0.4303981
69967471,0.21099617,-0.0073798657,0.43352062
69988479,0.2080519,-0.004425509,0.4303981
70010821,0.2080519,-0.0014711521,0.43664312
70034903,0.20510764,-0.004425509,0.44288814
70056471,0.20510764,-0.004425509,0.43664312
70077480,0.19921911,-0.0014711521,0.44601068
70100470,0.19921911,0.0014832048,0.43664312
70122916,0.19627485,0.0044375616,0.44288814
70143513,0.19627485,0.0073919185,0.44288814
70164471,0.19038631,0.0073919185,0.44288814
70186822,0.19333057,0.010346276,0.44288814
70208978,0.18449779,0.0073919185,0.44288814
70230487,0.18744205,0.013300633,0.44288814
70252530,0.17860925,0.01625499,0.4491332
70274639,0.17860925,0.01625499,0.44288814
70297019,0.17566499,0.019209346,0.44601068
70321007,0.17860925,0.022163702,0.44601068
70343485,0.17566499,0.019209346,0.44601068
70366479,0.17860925,0.013300633,0.4491332
70387470,0.17860925,0.013300633,0.4553782
70409029,0.18155351,0.0073919185,0.4491332
70430400,0.17566499,0.010346276,0.4491332
70452476,0.17860925,0.010346276,0.4491332
70473479,0.17272072,0.013300633,0.4491332
70494486,0.16977647,0.013300633,0.4491332
70516514,0.1668322,0.01625499,0.44601068
70538545,0.1579994,0.019209346,0.4553782
70558477,0.1579994,0.02511806,0.45225567
70580472,0.1491666,0.028072415,0.46474573
70601700,0.14622234,0.031026775,0.45225567
70624992,0.14033382,0.036935486,0.4585007
70646478,0.13444528,0.039889846,0.4553782
70666481,0.12855674,0.04579856,0.4585007
70686478,0.12855674,0.04579856,0.4585007
70706494,0.12266822,0.048752915,0.43976563
70728871,0.11383543,0.05466163,0.4553782
70750471,0.11383543,0.05466163,0.44601068
70772470,0.105002634,0.057615984,0.45225567
70794549,0.107946895,0.06057034,0.44601068
70814483,0.099114105,0.0635247,0.4553782
70836470,0.096169844,0.0635247,0.46162322
70857684,0.096169844,0.0635247,0.4491332
70880470,0.09028131,0.06647906,0.4553782
70902514,0.09028131,0.0635247,0.45225567
70924478,0.08144852,0.0635247,0.4585007
70944478,0.08144852,0.0635247,0.4553782
70967470,0.08144852,0.06057034,0.4585007
70988478,0.07850425,0.06057034,0.46162322
71009776,0.07555999,0.057615984,0.4553782
71031510,0.07555999,0.05466163,0.4553782
71052508,0.07555999,0.05170727,0.46474573
71074493,0.0667272,0.04579856,0.47099075
71095510,0.06378292,0.042844202,0.46474573
71116514,0.06378292,0.04579856,0.46162322
71137717,0.057894398,0.042844202,0.46786827
71158551,0.057894398,0.039889846,0.47099075
71180470,0.054950133,0.04579856,0.46474573
71202490,0.049061604,0.039889846,0.4772358
71222478,0.049061604,0.039889846,0.4834808
71244488,0.04611734,0.039889846,0.46786827
71266389,0.043173075,0.039889846,0.47099075
71287469,0.04022881,0.042844202,0.4585007
71308479,0.037284546,0.042844202,0.46162322
71330478,0.04022881,0.039889846,0.47411326
71350485,0.037284546,0.042844202,0.46162322
71372472,0.04022881,0.039889846,0.4585007
71394470,0.037284546,0.042844202,0.4772358
71414470,0.03434028,0.04579856,0.46474573
71436477,0.031396016,0.039889846,0.4772358
71458488,0.02845175,0.04579856,0.46474573
71478479,0.025507485,0.039889846,0.46786827
71500470,0.022563221,0.04579856,0.4553782
71522483,0.025507485,0.039889846,0.47099075
71543470,0.019618956,0.039889846,0.4803583
71563478,0.016674692,0.036935486,0.47411326
71585785,0.016674692,0.039889846,0.4803583
71608487,0.016674692,0.03398113,0.47411326
71630548,0.007841896,0.036935486,0.46786827
71652470,0.007841896,0.031026775,0.4772358
71674572,0.007841896,0.031026775,0.4772358
71695479,0.004897632,0.028072415,0.47411326
71716470,0.0019533671,0.031026775,0.4772358
71738497,0.0019533671,0.028072415,0.4772358
71759470,0.0019533671,0.028072415,0.47099075
71780477,-0.0009908976,0.019209346,0.4772358
71803315,-0.0009908976,0.022163702,0.46786827
71824470,-0.0039351624,0.022163702,0.47411326
71845470,-0.0009908976,0.01625499,0.47411326
71867471,-0.0039351624,0.019209346,0.47411326
71887477,-0.0039351624,0.013300633,0.47411326
71908470,-0.0039351624,0.013300633,0.4772358
71931116,-0.0039351624,0.010346276,0.47099075
71953471,-0.0009908976,0.0073919185,0.4803583
71975471,-0.006879427,0.0044375616,0.4772358
71996474,-0.006879427,0.0014832048,0.47411326
72018489,-0.006879427,-0.0014711521,0.4772358
72040470,-0.009823692,-0.0014711521,0.4772358
72061477,-0.018656487,-0.004425509,0.46786827
72082495,-0.024545016,-0.0073798657,0.4772358
72103470,-0.02748928,-0.016242936,0.47411326
72125470,-0.030433545,-0.019197294,0.46786827
72147084,-0.033377808,-0.022151649,0.46786827
72169470,-0.033377808,-0.028060364,0.47411326
72191471,-0.030433545,-0.036923435,0.47099075
72212481,-0.02748928,-0.04874086,0.47411326
72233477,-0.021600751,-0.06055829,0.46786827
72256477,-0.018656487,-0.069421366,0.46474573
72278478,-0.012767957,-0.081238784,0.44601068
72298511,-0.012767957,-0.087147504,0.44601068
72318471,-0.012767957,-0.087147504,0.4491332
72341470,-0.018656487,-0.08419314,0.4553782
72361472,-0.024545016,-0.08419314,0.4491332
72383470,-0.030433545,-0.07828443,0.46162322
72404477,-0.033377808,-0.081238784,0.4491332
72427123,-0.030433545,-0.08419314,0.4491332
72448471,-0.030433545,-0.087147504,0.44601068
72469470,-0.036322076,-0.09010186,0.44288814
72491472,-0.042210605,-0.09010186,0.44288814
72511713,-0.04515487,-0.09010186,0.43664312
72535695,-0.04515487,-0.09305622,0.44601068
72558648,-0.0510434,-0.087147504,0.4491332
72583471,-0.056931928,-0.087147504,0.43352062
72605478,-0.059876192,-0.081238784,0.45225567
72627366,-0.065764725,-0.07828443,0.4585007
72647481,-0.068708986,-0.081238784,0.44288814
72668471,-0.074597515,-0.07533007,0.44601068
72689470,-0.07754178,-0.07237572,0.45225567
72711470,-0.07754178,-0.069421366,0.44601068
72732149,-0.08343031,-0.069421366,0.4491332
72756010,-0.08343031,-0.07237572,0.44288814
72777477,-0.08931884,-0.069421366,0.44288814
72798837,-0.08637457,-0.07237572,0.44601068
72822875,-0.09815164,-0.07828443,0.43664312
72845480,-0.0922631,-0.08419314,0.4303981
72868471,-0.09520737,-0.08419314,0.43976563
72889470,-0.09520737,-0.087147504,0.43664312
72910678,-0.09815164,-0.09305622,0.4303981
72932343,-0.10404016,-0.09601057,0.43352062
72955398,-0.1010959,-0.101919286,0.42103055
72976470,-0.10698443,-0.10487364,0.4241531
72997471,-0.10698443,-0.110782355,0.4272756
73019480,-0.10698443,-0.116691075,0.42103055
73039695,-0.10698443,-0.11964543,0.41790804
73063773,-0.1099287,-0.12259979,0.41790804
73086669,-0.10698443,-0.1285085,0.41478556
73109470,-0.1099287,-0.1285085,0.40854052
73131471,-0.11287296,-0.1344172,0.41478556
73152470,-0.1099287,-0.13737157,0.40229547
73173470,-0.11287296,-0.13737157,0.41790804
73196477,-0.11287296,-0.14032593,0.41166303
73217478,-0.11287296,-0.149189,0.405418
73239671,-0.11581723,-0.15214336,0.41478556
73261721,-0.12170575,-0.15509772,0.405418
73283407,-0.11581723,-0.16100642,0.39605048
73306469,-0.11876149,-0.16100642,0.405418
73328543,-0.11876149,-0.16691513,0.40229547
73349478,-0.11581723,-0.16691513,0.39917296
73370470,-0.11876149,-0.16986948,0.39605048
73392470,-0.11876149,-0.17577821,0.38980544
73413716,-0.11876149,-0.18168692,0.39292797
73435379,-0.11876149,-0.18168692,0.38668293
73458478,-0.12170575,-0.19055,0.38668293
73480470,-0.11287296,-0.19941306,0.3773154
73501471,-0.10698443,-0.20827614,0.38356042
73522487,-0.10698443,-0.22304791,0.3773154
73544550,-0.1010959,-0.23191099,0.3773154
73565517,-0.09520737,-0.24077407,0.37107038
73586516,-0.0922631,-0.25554585,0.3523353
73608470,-0.08931884,-0.26145455,0.3523353
73630480,-0.08048605,-0.273272,0.3554578
73650485,-0.08048605,-0.2791807,0.34921277
73670509,-0.08343031,-0.28213507,0.33984527
73694498,-0.08343031,-0.2850894,0.33984527
73716890,-0.08343031,-0.28804377,0.33984527
73738504,-0.08637457,-0.2909981,0.34296778
73758516,-0.08048605,-0.2939525,0.3242327
73780988,-0.08343031,-0.2909981,0.3304777
73802510,-0.08637457,-0.2850894,0.34296778
73822512,-0.0922631,-0.2791807,0.3523353
73844964,-0.08931884,-0.2791807,0.33984527
73867471,-0.09520737,-0.273272,0.3554578
73888470,-0.09520737,-0.2703176,0.34921277
73910392,-0.09815164,-0.26440892,0.3554578
73931471,-0.10404016,-0.26440892,0.3554578
73953470,-0.10404016,-0.26145455,0.34921277
73976470,-0.10404016,-0.2585002,0.36170286
73998480,-0.10404016,-0.26145455,0.3523353
74019471,-0.1010959,-0.26145455,0.34296778
74040471,-0.10404016,-0.26440892,0.34921277
74060471,-0.1010959,-0.26736328,0.3523353
74082482,-0.1010959,-0.26736328,0.33984527
74103477,-0.09815164,-0.2703176,0.3523353
74125847,-0.09815164,-0.27622634,0.3523353
74148470,-0.09520737,-0.27622634,0.33984527
74170481,-0.08931884,-0.2850894,0.33984527
74192469,-0.08343031,-0.2909981,0.33984527
74214485,-0.08637457,-0.2939525,0.33360022
74234550,-0.08343031,-0.2998612,0.33672273
74256479,-0.07754178,-0.30576992,0.32735518
74278482,-0.071653254,-0.30576992,0.33672273
74298478,-0.068708986,-0.30872425,0.3242327
74320477,-0.062820464,-0.31463298,0.3211102
74342484,-0.056931928,-0.31463298,0.31486514
74362470,-0.053987663,-0.31758735,0.3211102
74383607,-0.0510434,-0.32349607,0.31486514
74405709,-0.04515487,-0.32349607,0.31798765
74428486,-0.04515487,-0.32349607,0.31486514
74450470,-0.03926634,-0.3264504,0.31486514
74471470,-0.04515487,-0.32940477,0.31486514
74493782,-0.036322076,-0.33235914,0.3023751
74516470,-0.04515487,-0.33235914,0.31486514
74537470,-0.036322076,-0.32940477,0.31174263
74557612,-0.042210605,-0.32940477,0.30549762
74579470,-0.036322076,-0.33235914,0.31174263
74601338,-0.03926634,-0.33235914,0.3211102
74623501,-0.036322076,-0.33531347,0.30862013
74646518,-0.04515487,-0.32940477,0.31486514
74669343,-0.036322076,-0.3264504,0.31486514
74692470,-0.03926634,-0.3264504,0.31798765
74713470,-0.036322076,-0.32054168,0.3242327
74735472,-0.033377808,-0.32054168,0.3242327
74755478,-0.033377808,-0.31758735,0.3304777
74777476,-0.030433545,-0.31463298,0.32735518
74799479,-0.02748928,-0.31167862,0.33360022
74820471,-0.02748928,-0.30576992,0.34296778
74841470,-0.024545016,-0.30281556,0.33984527
74863220,-0.021600751,-0.30281556,0.33984527
74884477,-0.021600751,-0.2998612,0.34609026
74905470,-0.018656487,-0.2939525,0.34609026
74927471,-0.018656487,-0.2939525,0.3523353
74948469,-0.01571222,-0.2909981,0.3554578
74970434,-0.01571222,-0.2850894,0.36482534
74992470,-0.012767957,-0.2791807,0.35858032
75014493,-0.012767957,-0.2703176,0.36794785
75035470,-0.0039351624,-0.26440892,0.3741929
75056478,-0.0039351624,-0.25554585,0.39605048
75078505,-0.0039351624,-0.24372841,0.38980544
75099470,-0.0009908976,-0.2378197,0.39292797
75120478,0.004897632,-0.22304791,0.39917296
75143299,-0.0009908976,-0.20827614,0.40229547
75164478,0.004897632,-0.19645871,0.40854052
75185478,0.007841896,-0.18168692,0.41478556
75207480,0.004897632,-0.16986948,0.4272756
75227470,0.004897632,-0.15805207,0.43352062
75248470,0.0019533671,-0.149189,0.43352062
75271273,-0.0039351624,-0.14328028,0.43352062
75292470,-0.006879427,-0.13737157,0.43664312
75313476,-0.012767957,-0.13146286,0.43664312
75335479,-0.01571222,-0.1344172,0.43976563
75355470,-0.021600751,-0.13146286,0.43976563
75377470,-0.02748928,-0.13146286,0.43976563
75399471,-0.02748928,-0.13146286,0.43664312
75420475,-0.042210605,-0.1344172,0.4303981
75441478,-0.042210605,-0.1344172,0.4272756
75463474,-0.048099134,-0.1344172,0.43352062
75484470,-0.048099134,-0.13737157,0.4303981
75506824,-0.048099134,-0.1344172,0.4241531
75530810,-0.056931928,-0.13737157,0.4303981
75554810,-0.056931928,-0.1344172,0.4303981
75575672,-0.065764725,-0.14032593,0.43352062
75597471,-0.062820464,-0.14032593,0.4272756
75619516,-0.065764725,-0.14032593,0.4303981
75642859,-0.065764725,-0.14328028,0.4303981
75665472,-0.068708986,-0.14032593,0.41790804
75687471,-0.071653254,-0.14032593,0.4241531
75708470,-0.071653254,-0.13737157,0.42103055
75730912,-0.07754178,-0.13737157,0.42103055
75751471,-0.074597515,-0.14328028,0.41166303
75772471,-0.07754178,-0.13737157,0.4241531
75794825,-0.08048605,-0.14032593,0.42103055
75817471,-0.07754178,-0.14032593,0.42103055
75837476,-0.07754178,-0.14032593,0.41790804
75860508,-0.08048605,-0.14032593,0.41790804
75883728,-0.08048605,-0.14328028,0.42103055
75906678,-0.07754178,-0.14032593,0.41166303
75928345,-0.08343031,-0.14623465,0.41790804
75950693,-0.07754178,-0.14623465,0.4241531
75972386,-0.08048605,-0.149189,0.41478556
75994834,-0.08343031,-0.149189,0.42103055
76018822,-0.08048605,-0.15214336,0.42103055
76042859,-0.07754178,-0.14623465,0.42103055
76067471,-0.08048605,-0.14623465,0.42103055
76090809,-0.07754178,-0.14623465,0.4303981
76114811,-0.08048605,-0.15214336,0.4272756
76135472,-0.08048605,-0.15214336,0.41790804
76155472,-0.08048605,-0.15214336,0.42103055
76178791,-0.08343031,-0.15214336,0.42103055
76199517,-0.08637457,-0.15214336,0.41790804
76220518,-0.08048605,-0.15509772,0.41478556
76241588,-0.08343031,-0.15805207,0.42103055
76264477,-0.08343031,-0.16691513,0.40854052
76285469,-0.08048605,-0.17873256,0.39605048
76308481,-0.08343031,-0.19055,0.40229547
76329470,-0.08637457,-0.19941306,0.39292797
76351470,-0.08931884,-0.21418484,0.39292797
76374478,-0.08637457,-0.22895662,0.38356042
76394471,-0.08343031,-0.24077407,0.37107038
76414470,-0.08343031,-0.24963713,0.36482534
76435476,-0.08637457,-0.2585002,0.36482534
76457511,-0.08343031,-0.26440892,0.3554578
76477470,-0.08931884,-0.27622634,0.34921277
76497611,-0.08931884,-0.2791807,0.34296778
76519387,-0.08931884,-0.28804377,0.33672273
76542477,-0.08931884,-0.29690683,0.33672273
76563478,-0.08637457,-0.30281556,0.32735518
76585471,-0.08637457,-0.30576992,0.31486514
76606481,-0.08637457,-0.31167862,0.31486514
76626475,-0.08343031,-0.31167862,0.31486514
76648990,-0.08637457,-0.31758735,0.30862013
76670549,-0.08343031,-0.32349607,0.31174263
76692470,-0.08048605,-0.32940477,0.2992526
76713620,-0.07754178,-0.32940477,0.3023751
76736972,-0.07754178,-0.33235914,0.30549762
76759471,-0.07754178,-0.33531347,0.2992526
76782635,-0.07754178,-0.34122217,0.3023751
76803516,-0.071653254,-0.34122217,0.29300755
76824917,-0.065764725,-0.34122217,0.29300755
76845537,-0.065764725,-0.3471309,0.28988504
76868476,-0.065764725,-0.3471309,0.28988504
76889471,-0.059876192,-0.35008526,0.28988504
76910479,-0.053987663,-0.35303962,0.28051752
76932469,-0.0510434,-0.35303962,0.28364003
76954492,-0.053987663,-0.355994,0.28988504
76975471,-0.0510434,-0.355994,0.28051752
76996470,-0.048099134,-0.35894832,0.28364003
77018495,-0.042210605,-0.3619027,0.28364003
77040469,-0.036322076,-0.36485705,0.277395
77063471,-0.02748928,-0.36485705,0.277395
77083482,-0.021600751,-0.3678114,0.277395
77104476,-0.01571222,-0.37076575,0.27427247
77127470,-0.0039351624,-0.37372014,0.27427247
77149469,0.004897632,-0.37372014,0.27114996
77169764,0.016674692,-0.37667447,0.26490495
77192470,0.025507485,-0.37667447,0.26490495
77213470,0.043173075,-0.37962884,0.26178244
77236470,0.049061604,-0.37962884,0.26178244
77258534,0.060838666,-0.37667447,0.26802748
77279470,0.0667272,-0.37667447,0.26802748
77301470,0.08144852,-0.37962884,0.25553742
77321819,0.084392786,-0.37372014,0.26490495
77342492,0.09028131,-0.37667447,0.26178244
77364481,0.096169844,-0.37076575,0.27427247
77385631,0.099114105,-0.37076575,0.26490495
77406539,0.10205837,-0.3678114,0.27427247
77428471,0.099114105,-0.3619027,0.28988504
77450493,0.096169844,-0.35894832,0.28988504
77470471,0.096169844,-0.35303962,0.29300755
77491470,0.099114105,-0.35008526,0.29613006
77512471,0.093225576,-0.3471309,0.2992526
77534485,0.093225576,-0.34417656,0.31486514
77556470,0.08733705,-0.33826783,0.3211102
77578790,0.084392786,-0.33531347,0.31798765
77601762,0.08733705,-0.33235914,0.31798765
77624480,0.084392786,-0.33235914,0.32735518
77647470,0.084392786,-0.33235914,0.3242327
77668470,0.084392786,-0.3264504,0.31798765
77690486,0.084392786,-0.32940477,0.3242327
77711470,0.08733705,-0.32940477,0.31486514
77733470,0.09028131,-0.33235914,0.3211102
77755471,0.09028131,-0.33235914,0.31486514
77776478,0.093225576,-0.33531347,0.31174263
77798493,0.099114105,-0.33826783,0.30862013
77821478,0.096169844,-0.33531347,0.30862013
77842500,0.10205837,-0.33531347,0.30549762
77864516,0.10205837,-0.33826783,0.30549762
77885513,0.107946895,-0.33235914,0.3023751
77906581,0.107946895,-0.33531347,0.30549762
77926573,0.107946895,-0.33235914,0.31174263
77947216,0.11089116,-0.33235914,0.30549762
77968470,0.11089116,-0.32940477,0.31174263
77989478,0.107946895,-0.32940477,0.30862013
78011479,0.107946895,-0.32349607,0.3242327
78031470,0.11089116,-0.32054168,0.31798765
78052469,0.11089116,-0.31463298,0.31798765
78073470,0.11089116,-0.31463298,0.3242327
78094482,0.105002634,-0.30872425,0.33672273
78116337,0.105002634,-0.30872425,0.32735518
78139098,0.10205837,-0.30281556,0.34296778
78161469,0.10205837,-0.2998612,0.34609026
78184470,0.10205837,-0.2998612,0.34609026
78205471,0.093225576,-0.2909981,0.3523353
78225470,0.096169844,-0.2909981,0.34921277
78246487,0.09028131,-0.2850894,0.35858032
78268471,0.093225576,-0.2850894,0.3523353
78289480,0.09028131,-0.28213507,0.3554578
78312476,0.09028131,-0.2791807,0.36170286
78333478,0.08733705,-0.2791807,0.36482534
78355075,0.08733705,-0.27622634,0.36482534
78376471,0.08733705,-0.27622634,0.36794785
78397470,0.084392786,-0.2703176,0.36794785
78419471,0.08733705,-0.2703176,0.37107038
78441470,0.084392786,-0.26736328,0.3741929
78462495,0.084392786,-0.2703176,0.36482534
78483189,0.07850425,-0.26440892,0.37107038
78503471,0.084392786,-0.26736328,0.37107038
78524470,0.084392786,-0.26145455,0.3773154
78548103,0.08144852,-0.26145455,0.38043788
78571371,0.07850425,-0.24963713,0.38356042
78592471,0.084392786,-0.24372841,0.38356042
78613469,0.07850425,-0.23486535,0.38980544
78635900,0.084392786,-0.22895662,0.39917296
78657487,0.08144852,-0.22009356,0.40229547
78679473,0.07850425,-0.20827614,0.40229547
78701470,0.08144852,-0.20236742,0.405418
78721470,0.07555999,-0.19055,0.42103055
78742877,0.07555999,-0.18464127,0.41790804
78763992,0.07261572,-0.16986948,0.4241531
78784470,0.07261572,-0.16396077,0.4272756
78805470,0.06967146,-0.15214336,0.4303981
78828020,0.07261572,-0.149189,0.43664312
78849471,0.0667272,-0.13737157,0.43352062
78872471,0.0667272,-0.1285085,0.43352062
78893470,0.060838666,-0.12259979,0.43976563
78915376,0.060838666,-0.11373671,0.44288814
78936471,0.057894398,-0.110782355,0.44288814
78957481,0.054950133,-0.101919286,0.44601068
78979479,0.054950133,-0.09896492,0.44601068
79000471,0.04611734,-0.09305622,0.45225567
79022986,0.049061604,-0.09010186,0.4491332
79046880,0.04611734,-0.08419314,0.46162322
79069477,0.04611734,-0.07828443,0.4553782
79092470,0.043173075,-0.07237572,0.4553782
79113469,0.04022881,-0.069421366,0.4585007
79136470,0.037284546,-0.069421366,0.46474573
79157477,0.03434028,-0.063512646,0.47099075
79179470,0.03434028,-0.06055829,0.46474573
79199686,0.031396016,-0.057603933,0.46786827
79222718,0.02845175,-0.054649577,0.4585007
79245470,0.02845175,-0.054649577,0.46786827
79267472,0.025507485,-0.05169522,0.46162322
79287691,0.025507485,-0.045786504,0.46162322
79311702,0.022563221,-0.05169522,0.46474573
79334847,0.022563221,-0.045786504,0.4772358
79356197,0.022563221,-0.04874086,0.46474573
79377470,0.019618956,-0.045786504,0.46786827
79399515,0.016674692,-0.045786504,0.47099075
79422479,0.016674692,-0.04283215,0.47411326
79443477,0.016674692,-0.03987779,0.46162322
79465480,0.013730426,-0.03101472,0.47411326
79487471,0.013730426,-0.036923435,0.46786827
79508924,0.007841896,-0.03101472,0.4834808
79530477,0.013730426,-0.03396908,0.47411326
79551470,0.010786162,-0.028060364,0.47099075
79573470,0.010786162,-0.03101472,0.4803583
79594482,0.007841896,-0.028060364,0.47411326
79614494,0.010786162,-0.03101472,0.4772358
79635470,0.016674692,-0.03101472,0.46786827
79658476,0.016674692,-0.036923435,0.4772358
79678482,0.019618956,-0.036923435,0.46786827
79698485,0.022563221,-0.05169522,0.46786827
79718484,0.031396016,-0.063512646,0.46786827
79738478,0.037284546,-0.07533007,0.46786827
79758478,0.04611734,-0.09601057,0.4491332
79780996,0.05200587,-0.10487364,0.45225567
79803470,0.060838666,-0.12259979,0.44288814
79824471,0.0667272,-0.13737157,0.4303981
79844998,0.07261572,-0.15509772,0.4303981
79867488,0.07555999,-0.17282385,0.42103055
79889480,0.084392786,-0.19055,0.41790804
79911480,0.084392786,-0.20532179,0.40854052
79932910,0.08733705,-0.22009356,0.39605048
79954488,0.08733705,-0.23191099,0.39605048
79976510,0.09028131,-0.24668278,0.39292797
79996510,0.084392786,-0.2585002,0.37107038
80017509,0.08733705,-0.2703176,0.37107038
80037845,0.08733705,-0.27622634,0.36482534
80060479,0.084392786,-0.28804377,0.35858032
80082480,0.07850425,-0.2909981,0.3523353
80104470,0.07555999,-0.29690683,0.34609026
80126260,0.06967146,-0.2998612,0.34921277
80146492,0.060838666,-0.29690683,0.34921277
80168479,0.057894398,-0.2909981,0.3554578
80189785,0.05200587,-0.273272,0.37107038
80210486,0.049061604,-0.25554585,0.3773154
80232470,0.043173075,-0.24372841,0.39917296
80254261,0.04022881,-0.22600228,0.39292797
80275469,0.037284546,-0.2171392,0.39917296
80295471,0.03434028,-0.20827614,0.405418
80316477,0.022563221,-0.20236742,0.405418
80337470,0.022563221,-0.20236742,0.40229547
80359469,0.016674692,-0.19941306,0.41790804
80380476,0.013730426,-0.19941306,0.41166303
80403471,0.007841896,-0.19941306,0.40854052
80423471,-0.0009908976,-0.19941306,0.41478556
80444480,-0.0009908976,-0.20236742,0.405418
80467477,-0.009823692,-0.20532179,0.40854052
80489470,-0.012767957,-0.21418484,0.405418
80512478,-0.01571222,-0.21418484,0.40229547
80533629,-0.021600751,-0.22304791,0.40229547
80556470,-0.021600751,-0.22600228,0.38980544
80579470,-0.030433545,-0.22895662,0.39292797
80599471,-0.033377808,-0.23191099,0.39292797
80619470,-0.033377808,-0.2378197,0.39292797
80639471,-0.036322076,-0.2378197,0.39292797
80659470,-0.042210605,-0.2378197,0.38668293
80680476,-0.042210605,-0.23486535,0.38356042
80702559,-0.04515487,-0.24077407,0.38356042
80723474,-0.042210605,-0.24077407,0.38356042
80744478,-0.0510434,-0.24077407,0.38356042
80766491,-0.0510434,-0.24372841,0.38043788
80788478,-0.053987663,-0.24372841,0.38043788
80808470,-0.056931928,-0.24077407,0.38043788
80830489,-0.059876192,-0.24372841,0.36794785
80850493,-0.056931928,-0.24372841,0.3741929
80872016,-0.059876192,-0.24668278,0.3741929
80895085,-0.065764725,-0.24963713,0.38356042
80916477,-0.062820464,-0.24963713,0.3773154
80937470,-0.065764725,-0.24963713,0.3741929
80959475,-0.068708986,-0.2525915,0.36482534
80980477,-0.065764725,-0.24963713,0.3741929
81002492,-0.071653254,-0.2525915,0.3741929
81024469,-0.071653254,-0.2585002,0.37107038
81045469,-0.071653254,-0.25554585,0.36794785
81066552,-0.074597515,-0.25554585,0.36794785
81088470,-0.074597515,-0.2585002,0.3554578
81110575,-0.074597515,-0.2585002,0.36794785
81131510,-0.08048605,-0.26145455,0.36482534
81152512,-0.08048605,-0.26440892,0.36482534
81173511,-0.07754178,-0.2585002,0.35858032
81196471,-0.068708986,-0.2585002,0.36170286
81218480,-0.065764725,-0.26145455,0.36794785
81240349,-0.059876192,-0.26440892,0.38668293
81262623,-0.062820464,-0.26440892,0.38980544
81284477,-0.048099134,-0.2585002,0.39605048
81305469,-0.065764725,-0.26440892,0.38668293
