timestamp,time_utc_usec,lat,lon,alt,alt_ellipsoid,s_variance_m_s,c_variance_rad,eph,epv,hdop,vdop,noise_per_ms,jamming_indicator,vel_m_s,vel_n_m_s,vel_e_m_s,vel_d_m_s,cog_rad,timestamp_time_relative,fix_type,vel_ned_valid,satellites_used
1059991480,1528824121000099,325150607,-1169559167,40498,6394,0.303,0.75204575,0.638,1.01,0.61,1.1,83,4,0.027,-0.024,0.013,0.039,3.7971466,0,4,1,20
1060196510,1528824121200099,325150608,-1169559166,40483,6379,0.201,0.7520531,0.63600004,1.008,0.61,1.1,83,4,0.018000001,0.009000001,-0.015000001,0.009000001,3.7971466,0,4,1,20
1060391480,1528824121400099,325150608,-1169559167,40461,6357,0.24700001,0.75206196,0.634,1.0070001,0.61,1.1,83,4,0.041,-0.001,-0.041,0.066,3.7971466,0,4,1,20
1060592493,1528824121600099,325150608,-1169559167,40446,6342,0.26700002,0.75207174,0.63100004,1.0040001,0.61,1.1,83,4,0.022000002,-0.003,-0.022000002,0.11100001,3.7971466,0,4,1,20
1060792497,1528824121800099,325150608,-1169559167,40410,6305,0.24800001,0.75208086,0.63100004,1.0040001,0.61,1.1,83,4,0.033,0.015000001,-0.029000001,0.07,3.7971466,0,4,1,20
1060992480,1528824122000099,325150608,-1169559166,40411,6306,0.28300002,0.7520911,0.63100004,1.003,0.61,1.1,83,4,0.059000004,-0.058000002,0.004,0.046000004,3.7971466,0,4,1,20
1061191341,1528824122200099,325150606,-1169559163,40573,6469,0.266,0.67593825,0.63100004,1.0040001,0.61,1.1,83,1,0.29000002,-0.186,0.22200002,-1.429,2.9515939,0,4,1,20
1061392481,1528824122400099,325150603,-1169559154,40949,6845,0.263,0.35006887,0.63000005,1.0040001,0.61,1.1,83,1,0.56200004,-0.21400002,0.52000004,-1.8470001,2.1703565,0,4,1,20
1061589780,1528824122600098,325150599,-1169559144,41331,7227,0.26700002,0.40489927,0.63100004,1.005,0.61,1.1,83,1,0.47300002,-0.25300002,0.4,-1.8470001,2.154655,0,4,1,20
1061790480,1528824122800098,325150597,-1169559136,41709,7605,0.279,0.5833225,0.632,1.008,0.61,1.1,83,1,0.367,-0.072000004,0.36,-1.8840001,2.0294194,0,4,1,20
1061986482,1528824123000098,325150595,-1169559130,42064,7960,0.286,0.58340997,0.634,1.0120001,0.61,1.1,83,1,0.20600002,-0.12200001,0.16600001,-1.8500001,2.0294194,0,4,1,20
1062194536,1528824123200098,325150594,-1169559126,42423,8319,0.30200002,0.5835021,0.637,1.018,0.61,1.1,110,3,0.192,-0.021000002,0.19100001,-1.9530001,2.0294194,0,4,1,20
1062394481,1528824123400098,325150595,-1169559123,42806,8702,0.344,0.5835941,0.643,1.029,0.61,1.1,110,3,0.094000004,0.059000004,0.07300001,-1.9530001,2.0294194,0,4,1,20
1062596496,1528824123600098,325150595,-1169559120,43213,9109,0.33200002,0.5836843,0.65000004,1.036,0.61,1.1,110,3,0.23500001,-0.085,0.21900001,-1.909,2.0294194,0,4,1,20
1062791535,1528824123800098,325150594,-1169559116,43617,9513,0.335,0.5837808,0.65500003,1.044,0.61,1.1,110,3,0.126,0.010000001,0.126,-2.049,2.0294194,0,4,1,20
1062998599,1528824124000098,325150594,-1169559114,44007,9902,0.33400002,0.5838758,0.66,1.052,0.61,1.1,110,3,0.025,0.001,0.025,-2.022,2.0294194,0,4,1,20
1063198550,1528824124200098,325150595,-1169559113,44385,10281,0.33100003,0.58397,0.66400003,1.059,0.61,1.1,125,4,0.087000005,0.009000001,0.087000005,-2.003,2.0294194,0,4,1,20
1063396532,1528824124400098,325150596,-1169559114,44781,10677,0.337,0.584073,0.669,1.067,0.61,1.1,125,4,0.15400001,0.1,-0.117000006,-2.1910002,2.0294194,0,4,1,20
1063591480,1528824124600098,325150598,-1169559116,45178,11073,0.335,0.5841746,0.674,1.075,0.61,1.1,125,4,0.186,0.13700001,-0.126,-2.1560001,2.0294194,0,4,1,20
1063809517,1528824124800098,325150601,-1169559120,45592,11488,0.337,0.58427775,0.67800003,1.082,0.61,1.1,125,4,0.24700001,0.117000006,-0.21800001,-2.183,2.0294194,0,4,1,20
1063999699,1528824125000098,325150603,-1169559123,46047,11942,0.335,0.58438015,0.68200004,1.088,0.61,1.1,125,4,0.16600001,0.10300001,-0.13000001,-2.1750002,2.0294194,0,4,1,20
1064205590,1528824125200098,325150605,-1169559127,46444,12340,0.31500003,0.5844856,0.684,1.0910001,0.61,1.1,116,4,0.246,0.15900001,-0.18800001,-2.2350001,2.0294194,0,4,1,20
1064401523,1528824125400098,325150608,-1169559130,46826,12722,0.31300002,0.5845903,0.68600005,1.0940001,0.61,1.1,116,4,0.22900002,0.14,-0.18100001,-2.2210002,2.0294194,0,4,1,20
1064597513,1528824125600098,325150611,-1169559133,47234,13130,0.312,0.58470064,0.68700004,1.098,0.61,1.1,116,4,0.142,0.127,-0.064,-2.3470001,2.0294194,0,4,1,20
1064798477,1528824125800098,325150613,-1169559134,47677,13573,0.312,0.5848127,0.689,1.1,0.61,1.1,116,4,0.074,0.072000004,0.017,-2.39,2.0294194,0,4,1,20
1065011480,1528824126000098,325150615,-1169559135,48119,14014,0.314,0.5849245,0.69000006,1.103,0.61,1.1,116,4,0.13900001,0.09900001,-0.097,-2.3790002,2.0294194,0,4,1,20
1065201820,1528824126200098,325150617,-1169559137,48576,14471,0.316,0.585042,0.69200003,1.1060001,0.61,1.1,108,5,0.120000005,0.106000006,-0.057000004,-2.505,2.0294194,0,4,1,20
1065398480,1528824126400098,325150619,-1169559139,49099,14995,0.31,0.5851651,0.69200003,1.1060001,0.61,1.1,108,5,0.13100001,0.106000006,-0.07700001,-2.6220002,2.0294194,0,4,1,20
1065599479,1528824126600098,325150621,-1169559142,49618,15514,0.31100002,0.5852977,0.69200003,1.1060001,0.61,1.1,108,5,0.22700001,0.16800001,-0.15200001,-2.8200002,2.0294194,0,4,1,20
1065803200,1528824126800098,325150623,-1169559146,50172,16068,0.30400002,0.5854361,0.69100004,1.1060001,0.61,1.1,108,5,0.13800001,0.112,-0.081,-2.953,2.0294194,0,4,1,20
1066000485,1528824127000098,325150624,-1169559149,50772,16668,0.3,0.58558184,0.69100004,1.105,0.61,1.1,108,5,0.101,0.066,-0.076000005,-3.1100001,2.0294194,0,4,1,20
1066196503,1528824127200098,325150624,-1169559152,51384,17280,0.298,0.5857347,0.69000006,1.1040001,0.61,1.1,108,5,0.056,-0.020000001,-0.053000003,-3.2630002,2.0294194,0,4,1,20
1066401602,1528824127400098,325150622,-1169559153,52011,17907,0.293,0.5858808,0.688,1.102,0.61,1.1,108,5,0.11000001,-0.11000001,-0.0050000004,-3.121,2.0294194,0,4,1,20
1066603987,1528824127600098,325150620,-1169559155,52644,18540,0.29200003,0.58603233,0.68700004,1.1010001,0.61,1.1,108,5,0.13100001,-0.091000006,-0.094000004,-3.2370002,2.0294194,0,4,1,20
1066802481,1528824127800098,325150617,-1169559159,53284,19179,0.282,0.5861819,0.683,1.097,0.61,1.1,108,5,0.231,-0.14400001,-0.18,-3.187,2.0294194,0,4,1,20
1067009519,1528824128000098,325150615,-1169559163,53869,19764,0.286,0.5863271,0.68100005,1.0940001,0.61,1.1,108,5,0.16600001,-0.069000006,-0.15100001,-3.1020002,2.0294194,0,4,1,20
1067202489,1528824128200098,325150614,-1169559166,54466,20362,0.277,0.58647686,0.67600006,1.0890001,0.61,1.1,101,10,0.108,-0.020000001,-0.106000006,-3.2020001,2.0294194,0,4,1,20
1067399480,1528824128400098,325150613,-1169559169,55136,21032,0.275,0.5866217,0.67200005,1.085,0.61,1.1,101,10,0.07300001,-0.023000002,-0.069000006,-3.095,2.0294194,0,4,1,20
1067600478,1528824128600098,325150612,-1169559171,55804,21699,0.28,0.58677024,0.67,1.082,0.61,1.1,101,10,0.054,-0.053000003,-0.014,-3.18,2.0294194,0,4,1,20
1067800549,1528824128800098,325150610,-1169559171,56491,22387,0.27600002,0.5869207,0.666,1.0780001,0.61,1.1,101,10,0.079,-0.065000005,0.045,-3.219,2.0294194,0,4,1,20
1068003223,1528824129000098,325150609,-1169559170,57165,23061,0.282,0.5870696,0.66400003,1.075,0.61,1.1,101,10,0.15400001,-0.10700001,0.11000001,-3.1840003,2.0294194,0,4,1,20
1068201520,1528824129200098,325150607,-1169559168,57839,23735,0.27800003,0.5872219,0.66,1.072,0.61,1.1,101,4,0.11000001,-0.065000005,0.089,-3.2600002,2.0294194,0,4,1,20
1068401521,1528824129400098,325150607,-1169559167,58476,24372,0.28,0.5873727,0.657,1.069,0.61,1.1,101,4,0.105000004,0.019000001,0.10300001,-3.226,2.0294194,0,4,1,20
1068597551,1528824129600098,325150607,-1169559166,59124,25019,0.28500003,0.5875237,0.65400004,1.067,0.61,1.1,101,4,0.018000001,0.002,0.018000001,-3.2340002,2.0294194,0,4,1,20
1068790486,1528824129800098,325150606,-1169559165,59772,25668,0.286,0.58767813,0.651,1.065,0.61,1.1,101,4,0.068,0.007,0.068,-3.3100002,2.0294194,0,4,1,20
1069000482,1528824130000098,325150606,-1169559163,60430,26326,0.286,0.58782893,0.64900005,1.0630001,0.61,1.1,101,4,0.07300001,0.009000001,0.072000004,-3.2310002,2.0294194,0,4,1,20
1069196482,1528824130200098,325150606,-1169559161,61080,26975,0.28500003,0.58798134,0.647,1.062,0.61,1.1,101,9,0.11400001,0.047000002,0.104,-3.2670002,2.0294194,0,4,1,20
1069397594,1528824130400098,325150607,-1169559158,61737,27633,0.284,0.5881309,0.64400005,1.0600001,0.61,1.1,101,9,0.126,0.047000002,0.117000006,-3.2040002,2.0294194,0,4,1,20
1069597512,1528824130600098,325150609,-1169559155,62357,28252,0.28300002,0.58826894,0.642,1.059,0.61,1.1,101,9,0.13800001,0.117000006,0.074,-2.959,2.0294194,0,4,1,20
1069797623,1528824130800098,325150611,-1169559153,62928,28824,0.28300002,0.58838224,0.64000005,1.0580001,0.61,1.1,101,9,0.075,0.068,0.032,-2.4320002,2.0294194,0,4,1,20
1070001516,1528824131000098,325150613,-1169559152,63385,29280,0.28500003,0.58847195,0.63900006,1.057,0.61,1.1,101,9,0.142,0.142,-0.0050000004,-1.9200001,2.0294194,0,4,1,20
1070200549,1528824131200098,325150615,-1169559152,63789,29684,0.287,0.58854645,0.637,1.056,0.61,1.1,100,18,0.16900001,0.126,-0.113000005,-1.588,2.0294194,0,4,1,20
1070399527,1528824131400098,325150618,-1169559153,64115,30011,0.29000002,0.5886107,0.63500005,1.0550001,0.61,1.1,100,18,0.163,0.12100001,-0.11000001,-1.3720001,2.0294194,0,4,1,20
1070601555,1528824131600098,325150620,-1169559154,64329,30224,0.291,0.5886548,0.634,1.0550001,0.61,1.1,100,18,0.060000002,0.058000002,-0.013,-0.94600004,2.0294194,0,4,1,20
1070795529,1528824131800098,325150623,-1169559154,64485,30380,0.29900002,0.5886838,0.633,1.0530001,0.61,1.1,100,18,0.22600001,0.22500001,0.021000002,-0.578,2.0294194,0,4,1,20
1071018480,1528824132000098,325150630,-1169559152,64562,30458,0.263,0.36879224,0.63100004,1.051,0.61,1.1,100,18,0.52900004,0.528,0.039,-0.347,0.6255885,0,4,1,20
1071202485,1528824132200098,325150642,-1169559151,64635,30531,0.22900002,0.29282433,0.63100004,1.0530001,0.61,1.1,100,17,0.757,0.75500005,0.054,-0.16000001,0.28587094,0,4,1,20
1071388478,1528824132400098,325150660,-1169559149,64672,30567,0.216,0.18742304,0.63100004,1.0550001,0.61,1.1,100,17,1.1810001,1.1750001,0.117000006,-0.102000006,0.15369596,0,4,1,20
1071596478,1528824132600098,325150685,-1169559145,64688,30583,0.22000001,0.14829695,0.632,1.057,0.61,1.1,100,17,1.526,1.5090001,0.22900002,-0.012,0.15197034,0,4,1,20
1071796117,1528824132800098,325150717,-1169559138,64681,30576,0.21300001,0.10758156,0.632,1.057,0.61,1.1,100,17,1.988,1.9560001,0.35300002,0.14400001,0.1693828,0,4,1,20
1071998479,1528824133000098,325150756,-1169559129,64615,30511,0.194,0.08554993,0.63100004,1.056,0.61,1.1,100,17,2.3370001,2.2930002,0.45000002,0.34300002,0.1843099,0,4,1,20
1072196127,1528824133200098,325150804,-1169559118,64589,30485,0.22500001,0.07688018,0.63100004,1.0580001,0.61,1.1,100,7,3.032,2.979,0.564,0.36200002,0.1859163,0,4,1,20
1072398479,1528824133400098,325150860,-1169559105,64542,30437,0.20300001,0.06672498,0.63100004,1.0580001,0.61,1.1,100,7,3.285,3.2310002,0.591,0.363,0.18304488,0,4,1,20
1072598537,1528824133600098,325150921,-1169559089,64598,30493,0.216,0.051978696,0.63000005,1.0550001,0.61,1.1,100,7,3.8380003,3.7810001,0.65800005,0.397,0.17617492,0,4,1,20
1072797912,1528824133800098,325150993,-1169559072,64548,30443,0.193,0.04511222,0.629,1.052,0.61,1.1,100,7,4.2850003,4.21,0.79700005,0.4,0.18259372,0,4,1,20
1072991527,1528824134000097,325151070,-1169559054,64519,30415,0.18200001,0.03991114,0.625,1.047,0.61,1.1,100,7,4.4550004,4.3820004,0.8,0.30100003,0.1814329,0,4,1,20
1073190480,1528824134200097,325151152,-1169559037,64483,30378,0.33100003,0.070146,0.629,1.0550001,0.61,1.1,72,2,4.73,4.669,0.757,0.28300002,0.17574504,0,4,1,20
1073390718,1528824134400097,325151237,-1169559020,64416,30312,0.34,0.071342595,0.63900006,1.0660001,0.61,1.1,72,2,4.84,4.776,0.78800005,0.272,0.16962191,0,4,1,20
1073599649,1528824134600097,325151324,-1169559003,64378,30274,0.294,0.05793655,0.648,1.0760001,0.61,1.1,72,2,4.9030004,4.8360004,0.80700004,0.21900001,0.16698873,0,4,1,20
1073795475,1528824134800097,325151412,-1169558986,64368,30263,0.28,0.055453643,0.65400004,1.085,0.61,1.1,72,2,4.971,4.9100003,0.77900004,0.22800002,0.16173372,0,4,1,20
1073996484,1528824135000097,325151502,-1169558969,64396,30292,0.27400002,0.054444846,0.65900004,1.092,0.61,1.1,72,2,5.0270004,4.9620004,0.80600005,0.21300001,0.16133456,0,4,1,20
1074193517,1528824135200097,325151591,-1169558950,64425,30321,0.26900002,0.052931644,0.66400003,1.0990001,0.61,1.1,72,3,4.999,4.9290004,0.83300006,0.34800002,0.16459641,0,4,1,20
1074391379,1528824135400097,325151680,-1169558931,64415,30310,0.27400002,0.053579334,0.669,1.1060001,0.61,1.1,72,3,5.019,4.9570003,0.78400004,0.33100003,0.16058162,0,4,1,20
1074593595,1528824135600097,325151769,-1169558913,64413,30309,0.261,0.051461205,0.67300004,1.1110001,0.61,1.1,72,3,5.109,5.05,0.77800006,0.349,0.15639493,0,4,1,20
1074793531,1528824135800097,325151859,-1169558895,64372,30267,0.23300001,0.042250056,0.67300004,1.1120001,0.61,1.1,72,3,5.0540004,5.0,0.73200005,0.41000003,0.14948133,0,4,1,20
1074994499,1528824136000097,325151950,-1169558879,64327,30222,0.216,0.041840952,0.67200005,1.1120001,0.61,1.1,72,3,5.0680003,5.0210004,0.688,0.291,0.14230995,0,4,1,20
1075194512,1528824136200097,325152040,-1169558864,64301,30197,0.223,0.042410973,0.671,1.1120001,0.61,1.1,72,3,5.037,5.0010004,0.606,0.305,0.13077018,0,4,1,20
1075390532,1528824136400097,325152130,-1169558851,64308,30204,0.22000001,0.04199419,0.67,1.1110001,0.61,1.1,72,3,5.0410004,5.0070004,0.587,0.21200001,0.12315688,0,4,1,20
1075591480,1528824136600097,325152220,-1169558838,64313,30209,0.22000001,0.041249633,0.66800004,1.1110001,0.61,1.1,72,3,5.111,5.0740004,0.61200005,0.063,0.12141906,0,4,1,20
1075795477,1528824136800097,325152311,-1169558824,64320,30216,0.20500001,0.038941085,0.666,1.107,0.61,1.1,72,3,5.102,5.063,0.625,0.12200001,0.12219486,0,4,1,20
1075995480,1528824137000097,325152400,-1169558811,64433,30329,0.194,0.03504586,0.66300005,1.0960001,0.61,1.1,72,3,5.0800004,5.0480003,0.573,0.061000004,0.11676758,0,4,1,20
1076192505,1528824137200097,325152489,-1169558799,64594,30489,0.16100001,0.030245157,0.65000004,1.0780001,0.61,1.1,72,3,4.999,4.9610004,0.614,0.059000004,0.12069998,0,4,1,20
1076397514,1528824137400097,325152580,-1169558784,64694,30590,0.172,0.031540193,0.63900006,1.064,0.61,1.1,72,3,5.1260004,5.09,0.59900004,-0.048,0.11873038,0,4,1,20
1076596477,1528824137600097,325152671,-1169558770,64734,30630,0.16800001,0.03207025,0.629,1.051,0.61,1.1,72,3,5.0230002,4.998,0.5,0.001,0.10826329,0,4,1,20
1076793809,1528824137800097,325152760,-1169558756,64728,30624,0.19700001,0.03652206,0.625,1.044,0.61,1.1,72,3,5.0010004,4.979,0.46600002,-0.017,0.100890495,0,4,1,20
1077006481,1528824138000097,325152849,-1169558744,64742,30638,0.15900001,0.032357007,0.61600006,1.031,0.61,1.1,72,3,5.0090003,4.9890003,0.45600003,0.125,0.094981335,0,4,1,20
1077190483,1528824138200097,325152938,-1169558730,64745,30641,0.19600001,0.037008483,0.61200005,1.0250001,0.61,1.1,77,2,4.991,4.964,0.514,0.068,0.099031195,0,4,1,20
1077389523,1528824138400097,325153028,-1169558716,64766,30662,0.20300001,0.041443363,0.611,1.0220001,0.61,1.1,77,2,4.973,4.947,0.505,0.035,0.10037947,0,4,1,20
1077589525,1528824138600097,325153117,-1169558702,64757,30653,0.20300001,0.038872495,0.61,1.019,0.61,1.1,77,2,4.9820004,4.9570003,0.50600004,0.048,0.1011954,0,4,1,20
1077786484,1528824138800097,325153206,-1169558689,64751,30647,0.20500001,0.038936373,0.60800004,1.016,0.61,1.1,77,2,4.8640003,4.842,0.45900002,-0.009000001,0.097542435,0,4,1,20
1077991531,1528824139000097,325153294,-1169558677,64800,30697,0.21200001,0.040823247,0.60700005,1.013,0.61,1.1,77,2,4.9370003,4.918,0.43500003,-0.185,0.09276354,0,4,1,20
1078190485,1528824139200097,325153384,-1169558666,64817,30713,0.208,0.04031274,0.606,1.0120001,0.61,1.1,77,5,4.9680004,4.9480004,0.437,-0.215,0.090261444,0,4,1,20
1078388480,1528824139400097,325153472,-1169558657,64828,30724,0.24100001,0.043620836,0.606,1.013,0.61,1.1,77,5,4.885,4.8700004,0.38300002,-0.16000001,0.08438527,0,4,1,20
1078591653,1528824139600097,325153561,-1169558648,64848,30744,0.21900001,0.042464558,0.606,1.0120001,0.61,1.1,77,5,4.966,4.951,0.38300002,-0.10700001,0.08046281,0,4,1,20
1078790482,1528824139800097,325153649,-1169558640,64849,30745,0.23600002,0.043356594,0.606,1.014,0.61,1.1,77,5,4.9170003,4.901,0.39000002,-0.172,0.07989855,0,4,1,20
1078992401,1528824140000097,325153738,-1169558631,64882,30778,0.24100001,0.04974694,0.60800004,1.0170001,0.61,1.1,77,5,4.9150004,4.8980002,0.411,-0.20700002,0.081696585,0,4,1,20
1079194482,1528824140200097,325153826,-1169558621,64943,30839,0.246,0.048430614,0.611,1.0220001,0.61,1.1,82,3,4.8700004,4.853,0.41200003,-0.132,0.08333371,0,4,1,20
1079390481,1528824140400097,325153914,-1169558611,64988,30884,0.22100002,0.041539356,0.61200005,1.0220001,0.61,1.1,82,3,4.9240003,4.9030004,0.45700002,-0.060000002,0.08914915,0,4,1,20
1079590480,1528824140600097,325154002,-1169558600,65007,30903,0.22000001,0.04166066,0.61200005,1.0220001,0.61,1.1,82,3,4.938,4.919,0.43800002,0.0050000004,0.088971645,0,4,1,20
1079786486,1528824140800097,325154091,-1169558588,65026,30922,0.21300001,0.04083058,0.61300004,1.0220001,0.61,1.1,82,3,4.9290004,4.9080005,0.45700002,-0.155,0.09114109,0,4,1,20
1079992483,1528824141000097,325154178,-1169558576,65021,30917,0.209,0.03638732,0.611,1.018,0.61,1.1,82,3,4.9150004,4.887,0.528,-0.026,0.10089975,0,4,1,20
1080202485,1528824141200097,325154266,-1169558564,65019,30915,0.29700002,0.058877632,0.615,1.026,0.61,1.1,83,2,4.8760004,4.8440003,0.55200005,0.052,0.1048503,0,4,1,20
1080391481,1528824141400097,325154354,-1169558554,65008,30904,0.163,0.030313749,0.60800004,1.0150001,0.61,1.1,83,2,4.9540005,4.925,0.541,0.024,0.10854429,0,4,1,20
1080593658,1528824141600097,325154443,-1169558541,65028,30924,0.231,0.045682944,0.60800004,1.018,0.61,1.1,83,2,4.9560003,4.92,0.595,-0.05,0.1128364,0,4,1,20
1080792531,1528824141800097,325154530,-1169558529,65023,30919,0.24000001,0.047469288,0.611,1.0220001,0.61,1.1,83,2,4.787,4.7520003,0.578,0.001,0.11702554,0,4,1,20
1080993514,1528824142000097,325154616,-1169558516,65044,30941,0.23700002,0.048438992,0.61300004,1.026,0.61,1.1,83,2,4.747,4.7070003,0.61200005,-0.045,0.12336876,0,4,1,20
1081189822,1528824142200097,325154698,-1169558502,65028,30925,0.23300001,0.051942915,0.61600006,1.029,0.61,1.1,82,9,4.431,4.395,0.564,-0.035,0.12547205,0,4,1,20
1081390478,1528824142400097,325154775,-1169558490,64991,30887,0.231,0.05313026,0.61700004,1.0300001,0.61,1.1,82,9,4.157,4.124,0.522,-0.019000001,0.12570262,0,4,1,20
1081594477,1528824142600097,325154846,-1169558478,64979,30875,0.18,0.04948078,0.614,1.0250001,0.61,1.1,82,9,3.867,3.8400002,0.453,-0.053000003,0.12118326,0,4,1,20
1081795507,1528824142800097,325154912,-1169558467,64981,30878,0.179,0.05272011,0.609,1.019,0.61,1.1,82,9,3.482,3.453,0.446,-0.025,0.124678634,0,4,1,20
1081995532,1528824143000097,325154970,-1169558458,64993,30890,0.209,0.0638588,0.606,1.016,0.61,1.1,82,9,2.966,2.9490001,0.316,-0.266,0.11720706,0,4,1,20
1082192479,1528824143200097,325155019,-1169558453,65033,30929,0.22900002,0.1091953,0.60700005,1.018,0.61,1.1,88,6,2.3460002,2.341,0.15300001,-0.25800002,0.10366086,0,4,1,20
1082392484,1528824143400097,325155055,-1169558452,65040,30936,0.28100002,0.17252631,0.611,1.0250001,0.61,1.1,88,6,1.6380001,1.6330001,-0.126,-0.083000004,0.051648825,0,4,1,20
1082583480,1528824143600097,325155080,-1169558455,65035,30932,0.24700001,0.21576719,0.61600006,1.0320001,0.61,1.1,88,6,1.1910001,1.1830001,-0.143,0.082,6.2675242,0,4,1,20
1082788479,1528824143800097,325155099,-1169558458,64985,30881,0.26700002,0.34749836,0.62100005,1.042,0.61,1.1,88,6,0.832,0.82100004,-0.13700001,0.09200001,6.2259383,0,4,1,20
1083001511,1528824144000097,325155111,-1169558464,64975,30871,0.25,0.46722794,0.62600005,1.051,0.61,1.1,88,6,0.588,0.499,-0.312,0.087000005,6.047307,0,4,1,20
1083189527,1528824144200097,325155119,-1169558474,64933,30829,0.245,0.46939564,0.63100004,1.0610001,0.61,1.1,88,2,0.625,0.30200002,-0.54700005,0.215,5.6341076,0,4,1,20
1083389521,1528824144400097,325155123,-1169558490,64875,30772,0.25500003,0.3704372,0.63600004,1.0710001,0.61,1.1,88,2,0.767,0.030000001,-0.76600003,0.34300002,5.0898857,0,4,1,20
1083593614,1528824144600097,325155124,-1169558513,64816,30713,0.254,0.20609422,0.64100003,1.079,0.61,1.1,88,2,1.2830001,-0.039,-1.2830001,0.24800001,4.7783074,0,4,1,20
1083793993,1528824144800096,325155123,-1169558544,64696,30593,0.263,0.17171246,0.64500004,1.09,0.61,1.1,88,2,1.5860001,-0.068,-1.5840001,0.30600002,4.7141404,0,4,1,20
1083995480,1528824145000096,325155122,-1169558583,64598,30495,0.254,0.13146867,0.64900005,1.0960001,0.61,1.1,88,2,1.9710001,-0.178,-1.963,0.337,4.655948,0,4,1,20
1084191528,1528824145200096,325155120,-1169558631,64460,30356,0.25100002,0.10352542,0.65300006,1.103,0.61,1.1,88,2,2.4350002,-0.11800001,-2.4320002,0.601,4.6609344,0,4,1,20
1084391479,1528824145400096,325155119,-1169558692,64346,30242,0.238,0.085635625,0.65500003,1.11,0.61,1.1,88,2,3.0270002,-0.15400001,-3.0230002,0.57900006,4.6611886,0,4,1,20
1084598941,1528824145600096,325155118,-1169558761,64236,30132,0.25500003,0.080345705,0.65800005,1.118,0.61,1.1,88,2,3.367,-0.019000001,-3.3660002,0.514,4.685733,0,4,1,20
1084792340,1528824145800096,325155121,-1169558842,64107,30004,0.231,0.06848095,0.661,1.1220001,0.61,1.1,88,2,3.8460002,0.049000002,-3.8450003,0.53900003,4.7088456,0,4,1,20
1084997508,1528824146000096,325155124,-1169558933,63971,29867,0.22200002,0.057947546,0.66200006,1.125,0.61,1.1,88,2,4.306,-0.060000002,-4.306,0.379,4.7026014,0,4,1,20
1085196503,1528824146200096,325155125,-1169559027,63874,29770,0.259,0.063542195,0.666,1.1340001,0.61,1.1,88,4,4.421,0.044000003,-4.421,0.418,4.7118716,0,4,1,20
1085396130,1528824146400096,325155127,-1169559127,63799,29695,0.22800002,0.054159656,0.66800004,1.1400001,0.61,1.1,88,4,4.8230004,-0.016,-4.8230004,0.32200003,4.710181,0,4,1,20
1085596154,1528824146600096,325155128,-1169559230,63720,29616,0.23700002,0.057106994,0.67,1.1450001,0.61,1.1,88,4,4.7000003,0.07,-4.6990004,0.317,4.7186456,0,4,1,20
1085794510,1528824146800096,325155129,-1169559333,63638,29535,0.23700002,0.0542656,0.67300004,1.149,0.61,1.1,88,4,4.875,-0.035,-4.875,0.384,4.711323,0,4,1,20
1085998482,1528824147000096,325155130,-1169559438,63575,29472,0.24200001,0.056863695,0.67600006,1.154,0.61,1.1,88,4,4.9280005,0.093,-4.927,0.277,4.721264,0,4,1,20
1086189525,1528824147200096,325155133,-1169559546,63533,29429,0.24900001,0.054983802,0.679,1.1600001,0.61,1.1,88,3,5.0680003,0.15400001,-5.0660005,0.335,4.732793,0,4,1,20
1086395490,1528824147400096,325155134,-1169559654,63402,29298,0.25100002,0.0553484,0.68200004,1.167,0.61,1.1,88,3,5.0990005,0.002,-5.0990005,0.55200005,4.722365,0,4,1,20
1086599481,1528824147600096,325155134,-1169559762,63195,29091,0.22800002,0.054585516,0.684,1.167,0.61,1.1,88,3,5.0070004,0.071,-5.006,0.573,4.7246184,0,4,1,20
1086799479,1528824147800096,325155137,-1169559869,63102,28999,0.24400002,0.057364255,0.68600005,1.1730001,0.61,1.1,88,3,4.9620004,0.192,-4.958,0.50100005,4.737755,0,4,1,20
1087002402,1528824148000096,325155140,-1169559976,62981,28878,0.24300002,0.055972006,0.689,1.1780001,0.61,1.1,88,3,5.012,0.109000005,-5.011,0.652,4.7358007,0,4,1,20
1087204530,1528824148200096,325155142,-1169560082,62843,28739,0.23200001,0.054906134,0.69100004,1.179,0.61,1.1,88,3,4.9370003,0.132,-4.9350004,0.64100003,4.737571,0,4,1,20
1087402702,1528824148400096,325155143,-1169560188,62744,28640,0.231,0.053490497,0.69200003,1.1800001,0.61,1.1,88,3,4.921,0.037,-4.921,0.42800003,4.728132,0,4,1,20
1087595355,1528824148600096,325155146,-1169560293,62687,28583,0.23200001,0.05708378,0.693,1.182,0.61,1.1,88,3,4.833,0.209,-4.829,0.38000003,4.7416544,0,4,1,20
1087797512,1528824148800096,325155149,-1169560399,62613,28509,0.24800001,0.057945624,0.69600004,1.187,0.61,1.1,88,3,5.0150003,0.177,-5.012,0.43800002,4.7447023,0,4,1,20
1087996480,1528824149000096,325155152,-1169560506,62529,28425,0.22900002,0.055506527,0.698,1.187,0.61,1.1,88,3,4.967,0.112,-4.966,0.367,4.739416,0,4,1,20
1088193523,1528824149200096,325155154,-1169560613,62457,28353,0.22900002,0.056238692,0.69900006,1.1880001,0.61,1.1,88,2,4.931,0.17500001,-4.9280005,0.32200003,4.7437825,0,4,1,20
1088396124,1528824149400096,325155157,-1169560720,62362,28259,0.23900001,0.056224383,0.70100003,1.1910001,0.61,1.1,88,2,4.991,0.179,-4.9880004,0.358,4.7460985,0,4,1,20
1088598483,1528824149600096,325155160,-1169560826,62301,28197,0.238,0.058125917,0.703,1.194,0.61,1.1,88,2,4.9220004,0.238,-4.9160004,0.30800003,4.7535095,0,4,1,20
1088790483,1528824149800096,325155164,-1169560932,62228,28124,0.231,0.058394,0.70400006,1.194,0.61,1.1,88,2,4.921,0.17,-4.918,0.286,4.750085,0,4,1,20
1089014477,1528824150000096,325155168,-1169561038,62197,28093,0.23200001,0.057087973,0.70600003,1.195,0.61,1.1,88,2,4.9020004,0.16800001,-4.899,0.19700001,4.748225,0,4,1,20
1089195482,1528824150200096,325155169,-1169561144,62173,28069,0.24300002,0.055960312,0.708,1.1980001,0.61,1.1,88,3,4.841,0.125,-4.839,0.13800001,4.7429643,0,4,1,20
1089392476,1528824150400096,325155172,-1169561249,62165,28062,0.23600002,0.05686911,0.71000004,1.199,0.61,1.1,88,3,4.8700004,0.086,-4.8700004,0.085,4.736368,0,4,1,20
1089595478,1528824150600096,325155173,-1169561354,62172,28068,0.238,0.05680767,0.712,1.2010001,0.61,1.1,88,3,4.875,0.049000002,-4.875,-0.081,4.729122,0,4,1,20
1089795361,1528824150800096,325155174,-1169561459,62204,28100,0.24300002,0.058045983,0.71400005,1.2040001,0.61,1.1,88,3,4.881,0.063,-4.881,-0.14400001,4.727225,0,4,1,20
1089997511,1528824151000096,325155176,-1169561564,62226,28122,0.23600002,0.057157785,0.716,1.2040001,0.61,1.1,88,3,4.8890004,0.124000005,-4.887,-0.120000005,4.732734,0,4,1,20
1090196514,1528824151200096,325155178,-1169561668,62223,28119,0.22800002,0.057270706,0.717,1.2030001,0.61,1.1,88,5,4.7700005,0.209,-4.7660003,-0.13900001,4.744893,0,4,1,20
1090397515,1528824151400096,325155181,-1169561772,62285,28181,0.261,0.059487972,0.71900004,1.2080001,0.61,1.1,88,5,4.9090004,0.201,-4.905,-0.147,4.7490945,0,4,1,20
1090594484,1528824151600096,325155186,-1169561880,62365,28261,0.24700001,0.05798734,0.72200006,1.212,0.61,1.1,88,5,5.0270004,0.23700002,-5.0210004,-0.268,4.7547054,0,4,1,20
1090796032,1528824151800096,325155190,-1169561988,62437,28333,0.24100001,0.05669248,0.72400004,1.215,0.61,1.1,88,5,4.9900002,0.23900001,-4.984,-0.209,4.7576623,0,4,1,20
1090999485,1528824152000096,325155194,-1169562096,62480,28376,0.23,0.05400659,0.725,1.215,0.61,1.1,88,5,4.973,0.33,-4.9630003,-0.17,4.7691574,0,4,1,20
1091195482,1528824152200096,325155199,-1169562202,62494,28390,0.256,0.05751261,0.726,1.22,0.61,1.1,89,8,4.9360003,0.28300002,-4.9280005,-0.18800001,4.7694664,0,4,1,20
1091389520,1528824152400096,325155204,-1169562309,62547,28443,0.245,0.0568719,0.72800004,1.223,0.61,1.1,89,8,4.965,0.38900003,-4.9500003,-0.042000003,4.780685,0,4,1,20
1091595480,1528824152600096,325155209,-1169562417,62537,28433,0.24400002,0.056403454,0.73,1.225,0.61,1.1,89,8,4.9700003,0.287,-4.9620004,0.051000003,4.775201,0,4,1,20
1091795551,1528824152800096,325155214,-1169562524,62478,28374,0.25500003,0.05870397,0.73300004,1.23,0.61,1.1,89,8,5.0290003,0.37500003,-5.0150003,-0.001,4.781103,0,4,1,20
1091995530,1528824153000096,325155220,-1169562631,62435,28331,0.24000001,0.05529447,0.735,1.233,0.61,1.1,89,8,5.0070004,0.294,-4.998,0.08800001,4.7755885,0,4,1,20
1092198732,1528824153200096,325155224,-1169562737,62386,28282,0.23400001,0.05391566,0.73700005,1.2360001,0.61,1.1,88,5,4.964,0.26700002,-4.9560003,0.081,4.77057,0,4,1,20
1092398627,1528824153400096,325155229,-1169562842,62340,28236,0.23700002,0.05455585,0.73800004,1.24,0.61,1.1,88,5,4.919,0.24400002,-4.913,0.162,4.766194,0,4,1,20
1092598762,1528824153600096,325155233,-1169562949,62348,28244,0.23600002,0.05682181,0.739,1.2420001,0.61,1.1,88,5,5.0140004,0.26200002,-5.0070004,0.135,4.7654676,0,4,1,20
1092797552,1528824153800096,325155238,-1169563058,62335,28231,0.23300001,0.056235902,0.739,1.243,0.61,1.1,88,5,5.0200005,0.33900002,-5.0080004,0.067,4.77311,0,4,1,20
1092997510,1528824154000096,325155244,-1169563166,62357,28253,0.23300001,0.056186333,0.74,1.245,0.61,1.1,88,5,5.038,0.36600003,-5.025,0.040000003,4.7793956,0,4,1,20
1093196482,1528824154200096,325155250,-1169563274,62346,28242,0.23900001,0.05780949,0.74200004,1.2470001,0.61,1.1,89,6,5.0340004,0.27,-5.0270004,0.109000005,4.772602,0,4,1,20
1093397516,1528824154400096,325155255,-1169563383,62358,28254,0.224,0.056427363,0.74200004,1.25,0.61,1.1,89,6,5.098,0.29700002,-5.089,0.017,4.7716265,0,4,1,20
1093597524,1528824154600096,325155260,-1169563494,62356,28252,0.209,0.054162275,0.74,1.2490001,0.61,1.1,89,6,5.064,0.26200002,-5.057,-0.041,4.767533,0,4,1,20
1093800351,1528824154800096,325155265,-1169563605,62390,28286,0.22200002,0.054133303,0.74,1.2470001,0.61,1.1,89,6,5.0930004,0.30200002,-5.084,0.057000004,4.7697353,0,4,1,20
1093990529,1528824155000096,325155269,-1169563716,62402,28298,0.231,0.053566072,0.739,1.248,0.61,1.1,89,6,5.1480002,0.21900001,-5.143,0.109000005,4.76193,0,4,1,20
1094201574,1528824155200096,325155273,-1169563827,62391,28287,0.23500001,0.05540722,0.74,1.248,0.61,1.1,89,8,5.1540003,0.24900001,-5.1470003,0.13800001,4.7613077,0,4,1,20
1094398478,1528824155400096,325155277,-1169563937,62371,28267,0.24000001,0.05628704,0.74200004,1.2490001,0.61,1.1,89,8,5.0930004,0.147,-5.091,0.074,4.751038,0,4,1,20
1094599478,1528824155600096,325155280,-1169564046,62363,28259,0.23300001,0.054650445,0.74300003,1.248,0.61,1.1,89,8,5.0660005,0.117000006,-5.065,0.108,4.7426805,0,4,1,20
1094791540,1528824155800095,325155281,-1169564157,62389,28285,0.246,0.051593326,0.74300003,1.251,0.61,1.1,89,8,5.149,0.18400002,-5.1460004,0.187,4.745731,0,4,1,20
1095010499,1528824156000095,325155285,-1169564266,62361,28256,0.23300001,0.05866662,0.744,1.253,0.61,1.1,89,8,4.997,0.18,-4.9940004,0.22800002,4.7469997,0,4,1,20
1095192479,1528824156200095,325155289,-1169564374,62322,28218,0.22500001,0.055570755,0.74500006,1.253,0.61,1.1,89,6,5.0160003,0.27400002,-5.0080004,0.21000001,4.7579055,0,4,1,20
1095388481,1528824156400095,325155292,-1169564483,62273,28169,0.24200001,0.052748907,0.74500006,1.2540001,0.61,1.1,89,6,5.0730004,0.194,-5.0690002,0.268,4.753976,0,4,1,20
1095588979,1528824156600095,325155297,-1169564591,62226,28121,0.23,0.056170974,0.74600005,1.2550001,0.61,1.1,89,6,4.972,0.328,-4.9620004,0.381,4.7659698,0,4,1,20
1095789612,1528824156800095,325155302,-1169564700,62147,28043,0.21300001,0.050447516,0.74500006,1.2550001,0.61,1.1,89,6,5.1580005,0.21200001,-5.1530004,0.34500003,4.7588606,0,4,1,20
1095989594,1528824157000095,325155307,-1169564810,62122,28017,0.23,0.054778725,0.74600005,1.256,0.61,1.1,89,6,5.078,0.287,-5.07,0.23700002,4.763751,0,4,1,20
1096192280,1528824157200095,325155311,-1169564920,62078,27974,0.22700001,0.053835377,0.74600005,1.2540001,0.61,1.1,89,8,5.1320004,0.25,-5.1260004,0.164,4.7623796,0,4,1,20
1096393523,1528824157400095,325155314,-1169565032,62087,27982,0.24300002,0.05252481,0.74700004,1.2570001,0.61,1.1,89,8,5.2380004,0.085,-5.2370005,0.116000004,4.7443266,0,4,1,20
1096586480,1528824157600095,325155314,-1169565145,62124,28020,0.238,0.05183104,0.74700004,1.258,0.61,1.1,89,8,5.1990004,0.172,-5.196,0.029000001,4.7449064,0,4,1,20
1096786483,1528824157800095,325155317,-1169565256,62138,28034,0.22000001,0.05466336,0.74700004,1.2590001,0.61,1.1,89,8,5.1270003,0.17300001,-5.124,-0.042000003,4.7455134,0,4,1,20
1096991526,1528824158000095,325155320,-1169565366,62140,28036,0.22200002,0.054655332,0.74600005,1.2600001,0.61,1.1,89,8,5.1460004,0.14400001,-5.144,0.045,4.7428236,0,4,1,20
1097198483,1528824158200095,325155321,-1169565477,62167,28063,0.223,0.05400258,0.74600005,1.2620001,0.61,1.1,89,7,5.1480002,0.041,-5.1480002,-0.038000003,4.7309575,0,4,1,20
1097386482,1528824158400095,325155322,-1169565587,62169,28064,0.23600002,0.053679343,0.74700004,1.263,0.61,1.1,89,7,5.1860003,0.17300001,-5.183,-0.068,4.73872,0,4,1,20
1097584481,1528824158600095,325155324,-1169565698,62211,28107,0.24900001,0.05469844,0.749,1.2670001,0.61,1.1,89,7,5.1590004,0.067,-5.1580005,0.124000005,4.7318535,0,4,1,20
1097784481,1528824158800095,325155326,-1169565808,62218,28114,0.261,0.054849762,0.75200003,1.2720001,0.61,1.1,89,7,5.1940002,0.128,-5.1920004,0.040000003,4.734544,0,4,1,20
1097986479,1528824159000095,325155328,-1169565917,62231,28126,0.223,0.05562661,0.753,1.273,0.61,1.1,89,7,5.097,0.15400001,-5.0940003,-0.119,4.7387276,0,4,1,20
1098189540,1528824159200095,325155332,-1169566026,62256,28151,0.26500002,0.060577583,0.75600004,1.2820001,0.61,1.1,103,7,5.155,0.25500003,-5.149,-0.054,4.749823,0,4,1,20
1098396182,1528824159400095,325155331,-1169566136,62221,28116,0.17300001,0.038468625,0.74300003,1.266,0.61,1.1,103,7,5.124,0.12200001,-5.122,-0.059000004,4.7399774,0,4,1,20
1098595495,1528824159600095,325155329,-1169566246,62206,28101,0.17300001,0.039126787,0.72900003,1.2520001,0.61,1.1,103,7,5.039,0.149,-5.037,0.0,4.7410192,0,4,1,20
1098795482,1528824159800095,325155330,-1169566356,62242,28137,0.178,0.03859551,0.716,1.24,0.61,1.1,103,7,5.1410003,0.20700002,-5.137,0.009000001,4.7473693,0,4,1,20
1098995479,1528824160000095,325155333,-1169566464,62239,28135,0.18300001,0.048059035,0.711,1.235,0.61,1.1,103,7,5.1060004,0.263,-5.1000004,0.022000002,4.7545404,0,4,1,20
1099195482,1528824160200095,325155336,-1169566572,62214,28110,0.18900001,0.05041924,0.70600003,1.23,0.61,1.1,103,6,5.038,0.22900002,-5.0330005,0.062000003,4.756193,0,4,1,20
1099387489,1528824160400095,325155339,-1169566679,62225,28120,0.18800001,0.048321184,0.70100003,1.2240001,0.61,1.1,103,6,5.058,0.22500001,-5.0530005,-0.016,4.7565694,0,4,1,20
1099591478,1528824160600095,325155341,-1169566785,62261,28156,0.19100001,0.048929952,0.697,1.2190001,0.61,1.1,103,6,4.9900002,0.133,-4.9880004,-0.402,4.74738,0,4,1,20
1099795480,1528824160800095,325155343,-1169566890,62325,28221,0.19100001,0.04998867,0.693,1.215,0.61,1.1,103,6,4.9620004,0.14600001,-4.96,-0.29700002,4.744461,0,4,1,20
1099995481,1528824161000095,325155345,-1169566995,62395,28290,0.192,0.0455962,0.689,1.21,0.61,1.1,103,6,5.0160003,0.105000004,-5.0150003,-0.4,4.738043,0,4,1,20
1100192481,1528824161200095,325155346,-1169567102,62466,28362,0.19100001,0.0463713,0.68500006,1.205,0.61,1.1,103,5,5.0660005,0.16000001,-5.064,-0.393,4.7411776,0,4,1,20
1100396479,1528824161400095,325155348,-1169567209,62535,28431,0.19800001,0.047132615,0.683,1.2010001,0.61,1.1,103,5,4.9870005,0.13800001,-4.985,-0.324,4.7406116,0,4,1,20
1100596476,1528824161600095,325155349,-1169567315,62556,28452,0.18400002,0.042888846,0.67800003,1.195,0.61,1.1,103,5,5.019,0.085,-5.018,-0.155,4.7341146,0,4,1,20
1100791547,1528824161800095,325155348,-1169567422,62574,28470,0.194,0.04389939,0.675,1.19,0.61,1.1,103,5,4.985,0.042000003,-4.985,-0.16900001,4.727195,0,4,1,20
1101013701,1528824162000095,325155348,-1169567528,62615,28510,0.20700002,0.045466524,0.67300004,1.187,0.61,1.1,103,5,4.98,0.126,-4.979,-0.21900001,4.732601,0,4,1,20
1101196221,1528824162200095,325155349,-1169567635,62617,28513,0.21000001,0.047505416,0.671,1.1850001,0.61,1.1,103,11,4.9820004,0.11100001,-4.9810004,-0.115,4.73366,0,4,1,20
1101393673,1528824162400095,325155349,-1169567739,62639,28535,0.202,0.049335744,0.669,1.1810001,0.61,1.1,103,11,4.769,0.08800001,-4.769,-0.16700001,4.732264,0,4,1,20
1101595481,1528824162600095,325155351,-1169567837,62709,28605,0.19500001,0.05064631,0.666,1.1780001,0.61,1.1,103,11,4.4940004,0.18200001,-4.4900002,-0.172,4.742808,0,4,1,20
1101794533,1528824162800095,325155352,-1169567931,62746,28642,0.193,0.054135222,0.66400003,1.172,0.61,1.1,103,11,4.2260003,0.095000006,-4.2250004,-0.164,4.7389507,0,4,1,20
1101989527,1528824163000095,325155352,-1169568018,62773,28669,0.19700001,0.05967193,0.661,1.169,0.61,1.1,103,11,3.9090002,0.156,-3.9060001,-0.082,4.7451777,0,4,1,20
1102194537,1528824163200095,325155354,-1169568098,62830,28725,0.193,0.06542873,0.65900004,1.164,0.61,1.1,102,11,3.5820003,0.155,-3.578,-0.12900001,4.7500978,0,4,1,20
1102395534,1528824163400095,325155358,-1169568166,62846,28742,0.21300001,0.0868886,0.65900004,1.161,0.61,1.1,102,11,2.841,0.321,-2.822,-0.23300001,4.778072,0,4,1,20
1102596509,1528824163600095,325155363,-1169568218,62864,28759,0.21200001,0.108346544,0.65900004,1.159,0.61,1.1,102,11,2.176,0.26500002,-2.1590002,-0.11000001,4.800393,0,4,1,20
1102795478,1528824163800095,325155367,-1169568254,62895,28790,0.22000001,0.18742462,0.66,1.156,0.61,1.1,102,11,1.317,0.24300002,-1.2950001,-0.20700002,4.8249207,0,4,1,20
1102998869,1528824164000095,325155370,-1169568277,62953,28849,0.21000001,0.2680124,0.65900004,1.151,0.61,1.1,102,11,0.83500004,0.172,-0.81700003,-0.16600001,4.856033,0,4,1,20
1103196510,1528824164200095,325155374,-1169568291,63019,28915,0.22800002,0.40622395,0.657,1.144,0.61,1.1,102,11,0.48900002,0.33200002,-0.35900003,-0.135,5.039146,0,4,1,20
1103392506,1528824164400095,325155378,-1169568296,63065,28961,0.19500001,0.56243634,0.651,1.138,0.61,1.1,102,11,0.33200002,0.326,-0.063,-0.0050000004,5.4006305,0,4,1,20
1103596710,1528824164600095,325155385,-1169568295,63073,28968,0.20300001,0.44841152,0.64500004,1.1320001,0.61,1.1,102,11,0.439,0.41900003,0.13000001,-0.082,6.123726,0,4,1,20
1103793516,1528824164800095,325155395,-1169568290,63118,29014,0.21300001,0.27852923,0.64000005,1.1270001,0.61,1.1,102,11,0.72400004,0.656,0.30400002,-0.272,0.2688018,0,4,1,20
1103997521,1528824165000095,325155409,-1169568282,63229,29124,0.24300002,0.22604683,0.638,1.126,0.61,1.1,102,11,1.011,0.9250001,0.409,-0.402,0.3580862,0,4,1,20
1104205714,1528824165200095,325155430,-1169568271,63354,29249,0.24000001,0.15616316,0.638,1.1240001,0.61,1.1,102,16,1.437,1.309,0.59400004,-0.60700005,0.40427372,0,4,1,20
1104394478,1528824165400095,325155458,-1169568257,63470,29365,0.23300001,0.10456703,0.637,1.121,0.61,1.1,102,16,1.8410001,1.7580001,0.54700005,-0.52500004,0.33322346,0,4,1,20
1104586509,1528824165600095,325155494,-1169568246,63557,29452,0.24400002,0.1081289,0.637,1.1220001,0.61,1.1,102,16,2.332,2.286,0.46,-0.565,0.26769596,0,4,1,20
1104791482,1528824165800095,325155539,-1169568236,63663,29558,0.246,0.08733261,0.638,1.1220001,0.61,1.1,102,16,2.6920002,2.6650002,0.38200003,-0.58400005,0.19137621,0,4,1,20
1104995582,1528824166000095,325155592,-1169568224,63817,29712,0.23300001,0.06529067,0.638,1.121,0.61,1.1,102,16,3.2310002,3.1680002,0.633,-0.56600004,0.19520581,0,4,1,20
1105195489,1528824166200095,325155653,-1169568210,63941,29837,0.23200001,0.056110937,0.637,1.1190001,0.61,1.1,95,7,3.6350002,3.5870001,0.586,-0.523,0.17576495,0,4,1,20
1105396510,1528824166400095,325155721,-1169568198,64065,29960,0.21000001,0.047738068,0.634,1.118,0.61,1.1,95,7,4.1210003,4.104,0.367,-0.62200004,0.12403705,0,4,1,20
1105599483,1528824166600095,325155798,-1169568190,64228,30124,0.21800001,0.050278045,0.633,1.118,0.61,1.1,95,7,4.3910003,4.374,0.38300002,-0.72800004,0.10576537,0,4,1,20
1105798483,1528824166800094,325155879,-1169568183,64420,30315,0.21000001,0.047607865,0.63100004,1.116,0.61,1.1,95,7,4.6610003,4.651,0.294,-0.809,0.08223031,0,4,1,20
1105996544,1528824167000094,325155964,-1169568177,64624,30519,0.20500001,0.043989975,0.628,1.1140001,0.61,1.1,95,7,4.7910004,4.788,0.16700001,-0.947,0.05531751,0,4,1,20
1106197520,1528824167200094,325156053,-1169568173,64844,30740,0.21000001,0.04267993,0.62600005,1.1120001,0.61,1.1,95,19,4.964,4.9610004,0.179,-1.0830001,0.044798758,0,4,1,20
1106400371,1528824167400094,325156142,-1169568171,65021,30916,0.20600002,0.042187747,0.624,1.1110001,0.61,1.1,95,19,4.9900002,4.9900002,0.027,-0.89900005,0.02348323,0,4,1,20
1106597604,1528824167600094,325156233,-1169568169,65195,31091,0.20400001,0.041970804,0.62200004,1.1090001,0.61,1.1,95,19,5.0160003,5.0160003,0.055000003,-0.808,0.016745212,0,4,1,20
1106801252,1528824167800094,325156324,-1169568168,65326,31222,0.20300001,0.0418132,0.62,1.108,0.61,1.1,95,19,5.057,5.057,0.024,-0.697,0.01031891,0,4,1,20
1107018114,1528824168000094,325156415,-1169568167,65440,31336,0.19600001,0.03919503,0.61800003,1.1040001,0.61,1.1,95,19,5.0870004,5.0870004,0.025,-0.66700006,0.007279419,0,4,1,20
1107201955,1528824168200094,325156509,-1169568166,65602,31497,0.19500001,0.038072437,0.61600006,1.1010001,0.61,1.1,95,16,5.209,5.209,0.035,-0.61200005,0.0069652596,0,4,1,20
1107399482,1528824168400094,325156604,-1169568165,65777,31673,0.19700001,0.03888995,0.614,1.098,0.61,1.1,95,16,5.2240005,5.2240005,0.046000004,-0.712,0.007905992,0,4,1,20
1107597521,1528824168600094,325156697,-1169568164,65890,31786,0.20300001,0.041412473,0.61300004,1.097,0.61,1.1,95,16,5.1390004,5.138,0.069000006,-0.62700003,0.010769379,0,4,1,20
1107796477,1528824168800094,325156791,-1169568162,66018,31914,0.20600002,0.041030243,0.611,1.097,0.61,1.1,95,16,5.1850004,5.1850004,0.044000003,-0.643,0.009538398,0,4,1,20
1107998578,1528824169000094,325156886,-1169568163,66178,32073,0.201,0.03849847,0.61,1.0960001,0.61,1.1,95,16,5.3780003,5.3770003,-0.10300001,-0.601,6.2763615,0,4,1,20
1108196481,1528824169200094,325156983,-1169568165,66231,32127,0.19800001,0.038763586,0.609,1.095,0.61,1.1,95,14,5.328,5.327,-0.098000005,-0.35700002,6.2701006,0,4,1,20
1108396529,1528824169400094,325157079,-1169568167,66290,32186,0.19700001,0.038751893,0.60800004,1.0940001,0.61,1.1,95,14,5.335,5.335,-0.055000003,-0.30900002,6.271642,0,4,1,20
1108596508,1528824169600094,325157176,-1169568168,66328,32224,0.19600001,0.039065354,0.606,1.093,0.61,1.1,95,14,5.2920003,5.2920003,-0.056,-0.19600001,6.27212,0,4,1,20
1108794625,1528824169800094,325157272,-1169568168,66320,32215,0.18200001,0.035534203,0.60400003,1.088,0.61,1.1,95,14,5.302,5.302,-0.034,-0.015000001,6.2748485,0,4,1,20
1108997522,1528824170000094,325157367,-1169568168,66312,32208,0.36,0.06918275,0.609,1.097,0.61,1.1,95,14,5.255,5.254,0.1,0.179,6.2815485,0,4,1,20
1109200489,1528824170200094,325157463,-1169568166,66282,32178,0.388,0.07269017,0.623,1.11,0.61,1.1,85,5,5.3370004,5.3370004,0.041,0.080000006,0.0029241245,0,4,1,20
1109405515,1528824170400094,325157560,-1169568163,66253,32149,0.15900001,0.031181177,0.624,1.095,0.61,1.1,85,5,5.3320003,5.3310003,0.109000005,0.076000005,0.017786475,0,4,1,20
1109605515,1528824170600094,325157657,-1169568160,66171,32067,0.14500001,0.029780552,0.611,1.0810001,0.61,1.1,85,5,5.288,5.2860003,0.158,0.29500002,0.024917541,0,4,1,20
1109805553,1528824170800094,325157753,-1169568156,66112,32008,0.14600001,0.031196536,0.606,1.067,0.61,1.1,85,5,5.2700005,5.268,0.155,0.31,0.027384738,0,4,1,20
1110005518,1528824171000094,325157849,-1169568152,66022,31918,0.15,0.029059906,0.59800005,1.054,0.61,1.1,85,5,5.3380003,5.3370004,0.141,0.305,0.026842639,0,4,1,20
1110203484,1528824171200094,325157945,-1169568149,65978,31874,0.143,0.03285704,0.59000003,1.042,0.61,1.1,85,6,5.242,5.2390003,0.179,0.289,0.030629305,0,4,1,20
1110395481,1528824171400094,325158039,-1169568145,65890,31786,0.15400001,0.03299405,0.582,1.033,0.61,1.1,85,6,5.1190004,5.1150002,0.22100002,0.209,0.037640292,0,4,1,20
1110605525,1528824171600094,325158133,-1169568139,65790,31686,0.15,0.03553473,0.57600003,1.0250001,0.61,1.1,85,6,5.2780004,5.269,0.30800003,0.335,0.04851544,0,4,1,20
1110798479,1528824171800094,325158229,-1169568134,65726,31622,0.16700001,0.039859828,0.574,1.0220001,0.61,1.1,85,6,5.195,5.189,0.25100002,0.171,0.04846552,0,4,1,20
1111000514,1528824172000094,325158323,-1169568128,65658,31554,0.15900001,0.034502715,0.569,1.014,0.61,1.1,85,6,5.2050004,5.1990004,0.23200001,0.17600001,0.046146676,0,4,1,20
1111198626,1528824172200094,325158417,-1169568123,65575,31471,0.15400001,0.030909255,0.56100005,1.006,0.61,1.1,90,5,5.222,5.2170005,0.23500001,0.21900001,0.045478564,0,4,1,20
1111398481,1528824172400094,325158510,-1169568117,65507,31403,0.179,0.035436116,0.559,1.001,0.61,1.1,90,5,5.0800004,5.071,0.29000002,0.18400002,0.051253337,0,4,1,20
1111596477,1528824172600094,325158602,-1169568110,65418,31314,0.15200001,0.028672267,0.55,0.99000007,0.61,1.1,90,5,5.163,5.156,0.26700002,0.171,0.05152945,0,4,1,20
1111796477,1528824172800094,325158693,-1169568103,65310,31206,0.15100001,0.029823313,0.54200006,0.98,0.61,1.1,90,5,5.0820003,5.072,0.32700002,0.30100003,0.05861339,0,4,1,20
1111997514,1528824173000094,325158785,-1169568097,65254,31150,0.15200001,0.029747564,0.535,0.97,0.61,1.1,90,5,5.1190004,5.111,0.273,0.09900001,0.055664133,0,4,1,20
1112196182,1528824173200094,325158877,-1169568091,65190,31086,0.15900001,0.03150127,0.528,0.96400005,0.61,1.1,91,6,5.0800004,5.0730004,0.26700002,0.09,0.05396523,0,4,1,20
1112396204,1528824173400094,325158968,-1169568085,65119,31015,0.16700001,0.0360215,0.52500004,0.96000004,0.61,1.1,91,6,5.051,5.046,0.22900002,0.105000004,0.049752526,0,4,1,20
1112595481,1528824173600094,325159059,-1169568079,65100,30996,0.17500001,0.03881961,0.52400005,0.95800006,0.61,1.1,91,6,5.0020003,4.9960003,0.252,0.010000001,0.050065987,0,4,1,20
1112795480,1528824173800094,325159150,-1169568075,65087,30983,0.18,0.039716534,0.523,0.957,0.61,1.1,91,6,5.0530005,5.05,0.16800001,-0.054,0.041159574,0,4,1,20
1112999479,1528824174000094,325159241,-1169568073,65067,30963,0.18300001,0.04008672,0.522,0.957,0.61,1.1,91,6,4.972,4.971,0.126,-0.2,0.032650396,0,4,1,20
1113195484,1528824174200094,325159330,-1169568070,65041,30937,0.17600001,0.038424294,0.521,0.95500004,0.61,1.1,91,5,4.984,4.9820004,0.142,-0.11800001,0.030346038,0,4,1,20
1113396480,1528824174400094,325159420,-1169568068,65046,30942,0.178,0.03937201,0.52000004,0.95400006,0.61,1.1,91,5,4.9870005,4.985,0.141,-0.156,0.029277548,0,4,1,20
1113598479,1528824174600094,325159509,-1169568067,65021,30917,0.171,0.034907803,0.51600003,0.952,0.61,1.1,91,5,5.032,5.031,0.13700001,-0.102000006,0.028066639,0,4,1,20
1113796505,1528824174800094,325159600,-1169568066,65005,30901,0.17500001,0.035903342,0.513,0.95100003,0.61,1.1,91,5,5.0530005,5.051,0.148,-0.017,0.028694432,0,4,1,20
1113997606,1528824175000094,325159690,-1169568063,64972,30869,0.177,0.038873367,0.512,0.95000005,0.61,1.1,91,5,4.926,4.9230003,0.17300001,0.0,0.03198525,0,4,1,20
1114193512,1528824175200094,325159779,-1169568060,64959,30856,0.179,0.04171703,0.512,0.95000005,0.61,1.1,91,6,4.972,4.9690003,0.18300001,-0.026,0.034397993,0,4,1,20
1114401575,1528824175400094,325159868,-1169568056,64951,30847,0.16900001,0.037563324,0.51100004,0.94600004,0.61,1.1,91,6,5.0090003,5.0070004,0.120000005,-0.029000001,0.028250247,0,4,1,20
1114590513,1528824175600094,325159958,-1169568052,64933,30830,0.16800001,0.036686644,0.51000005,0.94200003,0.61,1.1,91,6,4.999,4.997,0.123,-0.059000004,0.026274709,0,4,1,20
1114800301,1528824175800094,325160048,-1169568049,64896,30792,0.18,0.040568955,0.509,0.94200003,0.61,1.1,91,6,4.9820004,4.9810004,0.097,0.003,0.022943923,0,4,1,20
1114991482,1528824176000094,325160138,-1169568046,64869,30765,0.16900001,0.036666397,0.509,0.93900007,0.61,1.1,91,6,5.056,5.0550003,0.115,-0.012,0.022822099,0,4,1,20
1115190480,1528824176200094,325160228,-1169568042,64852,30748,0.17300001,0.03737657,0.508,0.93700004,0.61,1.1,91,8,4.9960003,4.9950004,0.091000006,-0.05,0.020326452,0,4,1,20
1115394510,1528824176400094,325160319,-1169568039,64833,30730,0.178,0.039036557,0.508,0.93600005,0.61,1.1,91,8,5.0010004,5.0,0.091000006,0.011000001,0.019216424,0,4,1,20
1115586531,1528824176600094,325160409,-1169568036,64810,30706,0.223,0.047512572,0.51100004,0.94000006,0.61,1.1,91,8,4.934,4.933,0.112,0.14,0.020787219,0,4,1,20
1115792480,1528824176800094,325160498,-1169568031,64761,30658,0.164,0.033976324,0.51000005,0.934,0.61,1.1,91,8,4.9880004,4.986,0.14600001,0.097,0.026565306,0,4,1,20
1115995480,1528824177000094,325160587,-1169568027,64678,30574,0.13900001,0.030770328,0.505,0.92700005,0.61,1.1,91,8,4.9950004,4.993,0.125,0.193,0.025646215,0,4,1,20
1116194508,1528824177200094,325160678,-1169568023,64621,30518,0.16800001,0.038907576,0.504,0.92600006,0.64,1.17,91,4,4.9870005,4.986,0.085,0.094000004,0.02184035,0,4,1,19
1116392480,1528824177400094,325160768,-1169568020,64584,30480,0.178,0.03913272,0.505,0.92600006,0.64,1.17,91,4,5.0280004,5.026,0.113000005,0.165,0.0222327,0,4,1,19
1116593511,1528824177600094,325160859,-1169568017,64516,30413,0.18800001,0.039041616,0.50600004,0.92600006,0.61,1.1,91,4,5.0660005,5.0660005,0.058000002,0.192,0.016391782,0,4,1,20
1116797518,1528824177800094,325160950,-1169568013,64429,30325,0.15100001,0.030924615,0.503,0.919,0.61,1.1,91,4,5.071,5.0690002,0.126,0.17600001,0.021895677,0,4,1,20
1117000374,1528824178000094,325161041,-1169568011,64340,30236,0.14,0.029252414,0.497,0.9110001,0.61,1.1,91,4,5.0470004,5.0470004,0.0050000004,0.29000002,0.009501921,0,4,1,20
1117197518,1528824178200093,325161134,-1169568008,64282,30178,0.16700001,0.033185516,0.49500003,0.90900004,0.61,1.1,91,8,5.168,5.1670003,0.11400001,0.172,0.015872024,0,4,1,20
1117401616,1528824178400093,325161228,-1169568007,64215,30111,0.13900001,0.029255208,0.49,0.90200007,0.61,1.1,91,8,5.142,5.1410003,0.106000006,0.22600001,0.018838733,0,4,1,20
1117603479,1528824178600093,325161321,-1169568004,64147,30044,0.215,0.051700313,0.492,0.90700006,0.61,1.1,91,8,5.09,5.0880003,0.136,0.26900002,0.02119545,0,4,1,20
1117791479,1528824178800093,325161414,-1169568000,64069,29965,0.21100001,0.039002348,0.49600002,0.91,0.61,1.1,91,8,5.21,5.209,0.112,0.344,0.02142636,0,4,1,20
1117995313,1528824179000093,325161508,-1169567997,63940,29836,0.179,0.037294716,0.497,0.9110001,0.61,1.1,91,8,5.216,5.214,0.14,0.43300003,0.024517337,0,4,1,20
1118183477,1528824179200093,325161603,-1169567993,63831,29728,0.187,0.037283897,0.49800003,0.91300005,0.61,1.1,91,8,5.3180003,5.315,0.17500001,0.42200002,0.029129019,0,4,1,20
1118389512,1528824179400093,325161699,-1169567986,63688,29585,0.17600001,0.03548551,0.499,0.91200006,0.61,1.1,91,13,5.229,5.2190003,0.326,0.43600002,0.04813653,0,4,1,20
1118593682,1528824179600093,325161793,-1169567980,63603,29500,0.177,0.035499297,0.5,0.91200006,0.61,1.1,91,13,5.208,5.2050004,0.18100001,0.36900002,0.040802654,0,4,1,20
1118794480,1528824179800093,325161887,-1169567976,63509,29406,0.194,0.03886464,0.50100005,0.91400003,0.61,1.1,91,13,5.144,5.142,0.15400001,0.333,0.03536264,0,4,1,20
1119009514,1528824180000093,325161981,-1169567973,63425,29322,0.19000001,0.038391307,0.50200003,0.91700006,0.61,1.1,91,13,5.2370005,5.235,0.142,0.158,0.030882029,0,4,1,20
1119191510,1528824180200093,325162075,-1169567968,63366,29263,0.186,0.037585836,0.503,0.91800004,0.61,1.1,91,8,5.1850004,5.1800003,0.223,0.17500001,0.03765181,0,4,1,20
1119395478,1528824180400093,325162168,-1169567964,63303,29200,0.18800001,0.038110133,0.504,0.92,0.61,1.1,91,8,5.1990004,5.197,0.120000005,0.095000006,0.029749833,0,4,1,20
1119595511,1528824180600093,325162262,-1169567962,63267,29164,0.187,0.037784632,0.505,0.92200005,0.61,1.1,91,8,5.181,5.181,0.09200001,-0.043,0.02314062,0,4,1,20
1119792481,1528824180800093,325162356,-1169567960,63265,29162,0.16900001,0.036977068,0.50600004,0.92100006,0.61,1.1,91,8,5.195,5.195,0.093,-0.053000003,0.020267636,0,4,1,20
1119994541,1528824181000093,325162449,-1169567957,63275,29171,0.34800002,0.06685169,0.512,0.93200004,0.61,1.1,91,8,5.1780005,5.177,0.13900001,-0.069000006,0.022020468,0,4,1,20
1120188567,1528824181200093,325162544,-1169567954,63313,29210,0.35900003,0.06739065,0.526,0.94600004,0.61,1.1,78,2,5.275,5.2730002,0.133,-0.31100002,0.02363036,0,4,1,20
1120388692,1528824181400093,325162639,-1169567952,63387,29284,0.342,0.060277037,0.53900003,0.961,0.61,1.1,78,2,5.2510004,5.2510004,0.042000003,-0.337,0.014694275,0,4,1,20
1120589519,1528824181600093,325162734,-1169567951,63426,29322,0.33,0.057728156,0.55,0.97400004,0.61,1.1,78,2,5.295,5.295,0.060000002,-0.273,0.012904963,0,4,1,20
1120788478,1528824181800093,325162829,-1169567949,63466,29363,0.29700002,0.05808665,0.56,0.98600006,0.61,1.1,78,2,5.2570004,5.256,0.094000004,-0.22500001,0.015436738,0,4,1,20
1120985607,1528824182000093,325162924,-1169567948,63548,29445,0.323,0.06081303,0.569,1.0,0.61,1.1,78,2,5.203,5.203,0.007,-0.36,0.008446346,0,4,1,20
1121184342,1528824182200093,325163019,-1169567947,63589,29486,0.319,0.05839749,0.57900006,1.013,0.61,1.1,78,2,5.2630005,5.262,-0.012,-0.32700002,0.0026408576,0,4,1,20
1121389516,1528824182400093,325163113,-1169567948,63667,29563,0.323,0.058461197,0.588,1.0250001,0.61,1.1,78,3,5.188,5.1870003,-0.08400001,-0.34100002,6.276058,0,4,1,20
1121591479,1528824182600093,325163207,-1169567947,63713,29610,0.30100003,0.059466507,0.596,1.036,0.61,1.1,78,3,5.1670003,5.1660004,0.11400001,-0.27,0.0078222165,0,4,1,20
1121790478,1528824182800093,325163300,-1169567945,63718,29615,0.272,0.046430815,0.60300004,1.041,0.61,1.1,78,3,5.175,5.175,0.07300001,-0.354,0.011874172,0,4,1,20
1121990555,1528824183000093,325163394,-1169567944,63754,29651,0.25500003,0.047803517,0.606,1.046,0.61,1.1,78,3,5.2250004,5.2250004,0.074,-0.263,0.013088747,0,4,1,20
1122186481,1528824183200093,325163488,-1169567943,63806,29703,0.25800002,0.04523422,0.61,1.0500001,0.61,1.1,78,3,5.2130003,5.2130003,0.045,-0.39100003,0.010563954,0,4,1,20
1122387480,1528824183400093,325163581,-1169567940,63824,29721,0.246,0.04946961,0.61300004,1.057,0.61,1.1,78,3,5.1650004,5.164,0.101,-0.25500003,0.014967768,0,4,1,20
1122587481,1528824183600093,325163675,-1169567940,63882,29779,0.287,0.050379623,0.61800003,1.064,0.61,1.1,78,3,5.184,5.184,-0.016,-0.388,0.0056578335,0,4,1,20
1122787478,1528824183800093,325163769,-1169567939,63936,29833,0.257,0.050405454,0.62200004,1.072,0.61,1.1,78,3,5.209,5.208,0.063,-0.39800003,0.009071174,0,4,1,20
1122988480,1528824184000093,325163862,-1169567937,63945,29842,0.263,0.048914593,0.62600005,1.077,0.61,1.1,78,3,5.129,5.1280003,0.061000004,-0.22100002,0.010622248,0,4,1,20
1123187477,1528824184200093,325163955,-1169567935,63937,29834,0.264,0.04844161,0.63000005,1.082,0.61,1.1,78,3,5.189,5.188,0.049000002,-0.115,0.009984504,0,4,1,20
1123388483,1528824184400093,325164048,-1169567934,63882,29779,0.259,0.047638062,0.633,1.085,0.61,1.1,78,3,5.1610003,5.1600003,0.096,-0.10300001,0.014623589,0,4,1,20
1123587479,1528824184600093,325164140,-1169567933,63835,29732,0.24700001,0.047349732,0.63600004,1.088,0.61,1.1,78,3,5.15,5.15,0.030000001,-0.078,0.009893398,0,4,1,20
1123784478,1528824184800093,325164231,-1169567932,63780,29677,0.245,0.04914812,0.638,1.0910001,0.61,1.1,78,3,5.0420003,5.0420003,0.080000006,0.062000003,0.012986471,0,4,1,20
1123988476,1528824185000093,325164318,-1169567928,63653,29550,0.24200001,0.045487814,0.63900006,1.09,0.61,1.1,78,3,4.7240005,4.721,0.164,0.26700002,0.025195746,0,4,1,20
1124188544,1528824185200093,325164400,-1169567925,63571,29468,0.24800001,0.051287197,0.64100003,1.092,0.61,1.1,79,2,4.484,4.4810004,0.16000001,0.128,0.03015667,0,4,1,20
1124384343,1528824185400093,325164477,-1169567921,63440,29337,0.24300002,0.0536769,0.642,1.0910001,0.61,1.1,79,2,4.125,4.122,0.15200001,0.177,0.0334721,0,4,1,20
1124589523,1528824185600093,325164548,-1169567917,63362,29259,0.245,0.05708221,0.642,1.0910001,0.61,1.1,79,2,3.841,3.8390002,0.113000005,0.109000005,0.031533733,0,4,1,20
1124785518,1528824185800093,325164609,-1169567912,63300,29197,0.23900001,0.068663865,0.643,1.0890001,0.61,1.1,79,2,3.1780002,3.167,0.261,0.015000001,0.05284176,0,4,1,20
1124994420,1528824186000093,325164658,-1169567908,63214,29111,0.261,0.09425214,0.64400005,1.088,0.61,1.1,79,2,2.394,2.3890002,0.158,0.091000006,0.057477877,0,4,1,20
1125183478,1528824186200093,325164695,-1169567905,63142,29039,0.261,0.1614721,0.647,1.092,0.61,1.1,79,2,1.672,1.6620001,0.18300001,0.14500001,0.07084675,0,4,1,20
1125386484,1528824186400093,325164719,-1169567902,63050,28947,0.209,0.1815666,0.647,1.093,0.61,1.1,78,2,1.077,1.054,0.223,0.347,0.13172069,0,4,1,20
1125586482,1528824186600093,325164736,-1169567898,62932,28829,0.231,0.23886593,0.646,1.097,0.61,1.1,78,2,0.83100003,0.78900003,0.261,0.208,0.20060395,0,4,1,20
1125789686,1528824186800093,325164747,-1169567892,62845,28742,0.22200002,0.39635587,0.64500004,1.0990001,0.61,1.1,78,2,0.53000003,0.374,0.37600002,0.162,0.35724583,0,4,1,20
1125991480,1528824187000093,325164751,-1169567884,62767,28664,0.19900002,0.45307052,0.64400005,1.103,0.61,1.1,78,2,0.537,0.059000004,0.53400004,0.119,0.83551574,0,4,1,20
1126187479,1528824187200093,325164751,-1169567871,62700,28597,0.19500001,0.3763743,0.64400005,1.1060001,0.61,1.1,79,3,0.707,-0.064,0.70400006,0.063,1.3241602,0,4,1,20
1126387478,1528824187400093,325164747,-1169567852,62665,28562,0.193,0.20306608,0.643,1.108,0.61,1.1,79,3,1.176,-0.294,1.139,-0.039,1.711172,0,4,1,20
1126583480,1528824187600093,325164741,-1169567825,62644,28541,0.209,0.16449797,0.643,1.1090001,0.61,1.1,79,3,1.4790001,-0.349,1.437,-0.081,1.770365,0,4,1,20
1126787471,1528824187800093,325164734,-1169567789,62612,28509,0.21400002,0.12942767,0.643,1.113,0.61,1.1,79,3,1.9010001,-0.41200003,1.8560001,-0.158,1.7821263,0,4,1,20
1126986707,1528824188000093,325164725,-1169567744,62591,28489,0.21400002,0.10988872,0.64500004,1.1170001,0.61,1.1,79,3,2.411,-0.55,2.348,-0.135,1.7931651,0,4,1,20
1127184689,1528824188200093,325164715,-1169567688,62570,28467,0.21300001,0.09183782,0.647,1.121,0.61,1.1,79,3,2.855,-0.526,2.8060002,-0.13800001,1.7712367,0,4,1,20
1127384529,1528824188400093,325164704,-1169567623,62548,28445,0.215,0.07674387,0.648,1.1240001,0.61,1.1,79,2,3.265,-0.637,3.2020001,-0.113000005,1.7688389,0,4,1,20
1127587308,1528824188600093,325164692,-1169567549,62523,28420,0.23,0.06734597,0.65000004,1.1290001,0.61,1.1,79,2,3.772,-0.661,3.7140002,-0.120000005,1.7562633,0,4,1,20
1127787994,1528824188800093,325164679,-1169567465,62499,28396,0.216,0.06048543,0.652,1.133,0.61,1.1,79,2,4.202,-0.66,4.15,-0.14500001,1.7405446,0,4,1,20
1127988176,1528824189000093,325164666,-1169567372,62476,28373,0.193,0.055307385,0.64900005,1.136,0.61,1.1,79,2,4.486,-0.646,4.439,-0.22100002,1.7263678,0,4,1,20
1128190480,1528824189200093,325164654,-1169567275,62467,28364,0.216,0.055196732,0.65000004,1.139,0.61,1.1,79,3,4.59,-0.588,4.552,-0.15,1.7122298,0,4,1,20
1128393573,1528824189400093,325164643,-1169567176,62461,28358,0.215,0.054006767,0.651,1.1420001,0.61,1.1,79,3,4.682,-0.59900004,4.643,-0.27400002,1.7052994,0,4,1,20
1128593082,1528824189600093,325164631,-1169567073,62483,28380,0.19600001,0.05387255,0.64900005,1.146,0.61,1.1,79,3,4.7920003,-0.48600003,4.767,-0.33100003,1.6881095,0,4,1,20
1128787542,1528824189800093,325164621,-1169566970,62483,28380,0.216,0.054429486,0.65000004,1.149,0.61,1.1,79,3,4.8840003,-0.499,4.8580003,-0.27,1.6803266,0,4,1,20
1128990479,1528824190000092,325164611,-1169566865,62518,28415,0.208,0.05288609,0.652,1.1520001,0.61,1.1,79,3,4.874,-0.47300002,4.8510003,-0.22700001,1.6736828,0,4,1,20
1129187484,1528824190200092,325164601,-1169566760,62576,28473,0.19600001,0.049888838,0.652,1.1550001,0.61,1.1,79,3,5.0200005,-0.425,5.0020003,-0.193,1.6636322,0,4,1,20
1129383552,1528824190400092,325164592,-1169566653,62606,28503,0.19600001,0.049738564,0.652,1.1570001,0.61,1.1,79,3,5.0230002,-0.40600002,5.006,-0.261,1.6573342,0,4,1,20
1129586482,1528824190600092,325164583,-1169566547,62633,28530,0.19600001,0.04980803,0.652,1.159,0.61,1.1,79,3,5.005,-0.372,4.991,-0.22600001,1.6509202,0,4,1,20
1129787681,1528824190800092,325164575,-1169566441,62618,28515,0.192,0.049658105,0.652,1.1600001,0.61,1.1,79,3,4.9630003,-0.33,4.952,-0.08400001,1.6437511,0,4,1,20
1129987299,1528824191000092,325164568,-1169566336,62654,28551,0.194,0.053467635,0.652,1.161,0.61,1.1,79,3,4.867,-0.23700002,4.8620005,-0.117000006,1.6318607,0,4,1,20
1130187230,1528824191200092,325164562,-1169566234,62678,28575,0.19600001,0.05647728,0.65300006,1.1630001,0.61,1.1,79,2,4.655,-0.23400001,4.649,-0.096,1.6264949,0,4,1,20
1130386480,1528824191400092,325164557,-1169566136,62694,28591,0.18900001,0.05751837,0.65300006,1.1620001,0.61,1.1,79,2,4.4490004,-0.208,4.4440002,0.054,1.6219767,0,4,1,20
1130585530,1528824191600092,325164552,-1169566044,62734,28631,0.18300001,0.05908672,0.651,1.1600001,0.61,1.1,79,2,4.1150002,-0.075,4.1140003,0.044000003,1.6054236,0,4,1,20
1130785627,1528824191800092,325164549,-1169565959,62732,28629,0.19900002,0.06854466,0.651,1.159,0.61,1.1,79,2,3.7680001,-0.066,3.7670002,0.16600001,1.597889,0,4,1,20
1130998561,1528824192000092,325164544,-1169565884,62734,28632,0.208,0.085829176,0.651,1.161,0.61,1.1,79,2,3.0890002,-0.27800003,3.0760002,-0.15100001,1.6229534,0,4,1,20
