timestamp,magnetometer_ga[0],magnetometer_ga[1],magnetometer_ga[2]
155093640,0.25165442,-0.039993767,0.37221813
155114640,0.24867187,-0.039993767,0.3753476
155137947,0.22779398,-0.048770558,0.38160667
155160646,0.23375909,-0.039993767,0.40351325
155183689,0.22481142,-0.039993767,0.40664276
155205640,0.22779398,-0.05169616,0.40664276
155227648,0.23375909,-0.037068173,0.42229035
155248639,0.2397242,-0.042919364,0.40664276
155271678,0.24270676,-0.04584496,0.40351325
155292688,0.23674165,-0.039993767,0.40038374
155314061,0.23674165,-0.039993767,0.4160313
155336642,0.23375909,-0.048770558,0.40351325
155359154,0.2397242,-0.042919364,0.40351325
155383071,0.23077653,-0.04584496,0.4129018
155407136,0.2397242,-0.042919364,0.4129018
155431090,0.2397242,-0.05169616,0.40664276
155455069,0.23077653,-0.042919364,0.40664276
155479124,0.24270676,-0.04584496,0.4097723
155503062,0.2397242,-0.05169616,0.40038374
155525641,0.23674165,-0.039993767,0.40351325
155547642,0.2397242,-0.042919364,0.40664276
155569646,0.2397242,-0.039993767,0.4129018
155591639,0.23674165,-0.048770558,0.40664276
155615087,0.23674165,-0.05169616,0.40664276
155639099,0.23375909,-0.042919364,0.40038374
155663144,0.2397242,-0.04584496,0.40664276
155687153,0.23674165,-0.048770558,0.39725423
155711082,0.23077653,-0.042919364,0.40038374
155735110,0.24270676,-0.042919364,0.4097723
155756641,0.23375909,-0.037068173,0.40351325
155777642,0.24568932,-0.042919364,0.41916084
155799097,0.23375909,-0.042919364,0.4129018
155823045,0.22779398,-0.039993767,0.40351325
155847134,0.23375909,-0.037068173,0.4160313
155871118,0.22779398,-0.04584496,0.40038374
155895076,0.22481142,-0.034142572,0.40351325
155917692,0.23674165,-0.034142572,0.4097723
155940639,0.22182886,-0.031216977,0.39725423
155962645,0.22481142,-0.037068173,0.40038374
155984646,0.22779398,-0.025365783,0.40351325
156007970,0.22779398,-0.022440186,0.40351325
156031843,0.23077653,-0.02829138,0.4129018
156055913,0.22182886,-0.02829138,0.4160313
156079827,0.23375909,-0.022440186,0.40038374
156102649,0.23077653,-0.02829138,0.4097723
156125686,0.23375909,-0.022440186,0.40351325
156148322,0.2188463,-0.019514589,0.40038374
156170671,0.22182886,-0.013663395,0.3909952
156193688,0.22182886,-0.016588992,0.40038374
156215866,0.23375909,-0.016588992,0.4160313
156239963,0.22481142,-0.013663395,0.3909952
156263904,0.22779398,-0.007812201,0.40664276
156286677,0.23375909,-0.013663395,0.4097723
156309640,0.22779398,-0.007812201,0.4097723
156332533,0.22182886,-0.010737799,0.40038374
156353638,0.23077653,-0.010737799,0.40351325
156375842,0.22481142,-0.0048866044,0.39412472
156399842,0.23077653,-0.007812201,0.40351325
156421688,0.22481142,-0.0048866044,0.40038374
156444690,0.22779398,-0.0019610072,0.40038374
156465682,0.22779398,-0.010737799,0.39725423
156488696,0.22779398,-0.0048866044,0.40664276
156511933,0.23077653,-0.0048866044,0.4129018
156535928,0.22779398,-0.013663395,0.3909952
156559943,0.22481142,-0.0048866044,0.40038374
156583834,0.23077653,-0.007812201,0.40664276
156606674,0.22481142,-0.013663395,0.3909952
156629725,0.23674165,-0.0048866044,0.40664276
156652641,0.23375909,-0.007812201,0.40351325
156674671,0.23077653,-0.0019610072,0.40038374
156697694,0.22779398,-0.007812201,0.40038374
156720639,0.22481142,-0.007812201,0.40038374
156743906,0.22481142,-0.010737799,0.40038374
156766675,0.22779398,-0.007812201,0.39412472
156789186,0.23375909,-0.013663395,0.40351325
156811639,0.23375909,-0.016588992,0.39725423
156834720,0.23375909,-0.013663395,0.40351325
156855714,0.23375909,-0.0048866044,0.40351325
156878688,0.23375909,-0.016588992,0.39412472
156901244,0.2397242,-0.010737799,0.39725423
156923646,0.2397242,-0.010737799,0.40038374
156946679,0.23375909,-0.013663395,0.40351325
156968807,0.22481142,-0.010737799,0.40038374
156990639,0.23674165,-0.016588992,0.40664276
157011646,0.23375909,-0.016588992,0.3878657
157034738,0.23077653,-0.013663395,0.3878657
157057686,0.23674165,-0.016588992,0.3909952
157079684,0.2397242,-0.019514589,0.3878657
157102724,0.24270676,-0.010737799,0.39725423
157123691,0.23375909,-0.016588992,0.39725423
157146638,0.24867187,-0.016588992,0.39412472
157168642,0.24568932,-0.007812201,0.39412472
157190717,0.25165442,-0.016588992,0.38160667
157211650,0.26358467,-0.013663395,0.3753476
157234686,0.25761953,-0.013663395,0.37221813
157256726,0.2755149,-0.019514589,0.37221813
157278707,0.27849743,-0.010737799,0.37847716
157299651,0.29042765,-0.013663395,0.35970008
157322719,0.29937533,-0.016588992,0.35657057
157344683,0.2963928,-0.016588992,0.34092298
157366726,0.31130555,-0.019514589,0.34092298
157389648,0.31727067,-0.022440186,0.32840493
157411678,0.32323578,-0.007812201,0.32840493
157434672,0.32621837,-0.007812201,0.32840493
157456726,0.3292009,-0.016588992,0.31275737
157478728,0.33814856,-0.013663395,0.31588688
157499676,0.3292009,-0.007812201,0.30336884
157522724,0.3441137,-0.007812201,0.30962786
157544647,0.3441137,0.0009645897,0.31275737
157566676,0.3441137,-0.0048866044,0.29085076
157587646,0.3441137,0.0009645897,0.2939803
157608647,0.35306135,0.0009645897,0.2971098
157630683,0.35306135,-0.0019610072,0.28146222
157652647,0.35902646,0.0009645897,0.29085076
157675697,0.36200902,-0.0019610072,0.28459176
157697638,0.35604393,-0.0019610072,0.27207372
157719647,0.35902646,-0.007812201,0.28146222
157742322,0.36200902,-0.0048866044,0.28146222
157764695,0.3649916,-0.007812201,0.28146222
157787641,0.3649916,-0.010737799,0.27833274
157809650,0.3709567,-0.022440186,0.26268518
157832639,0.3769218,-0.022440186,0.2658147
157854069,0.36797413,-0.022440186,0.25955567
157876646,0.3709567,-0.025365783,0.2658147
157899640,0.36797413,-0.02829138,0.25642613
157921646,0.37393928,-0.037068173,0.25642613
157943691,0.37990436,-0.031216977,0.23764907
157964678,0.38288692,-0.034142572,0.23451954
157987647,0.3858695,-0.034142572,0.23451954
158009646,0.3858695,-0.039993767,0.23764907
158033646,0.3858695,-0.037068173,0.23139003
158054639,0.38288692,-0.039993767,0.2220015
158076647,0.3858695,-0.042919364,0.225131
158099649,0.3918346,-0.042919364,0.22826052
158121646,0.38885203,-0.039993767,0.21887198
158142646,0.3977997,-0.039993767,0.21261296
158162640,0.3977997,-0.039993767,0.20322442
158184646,0.40078226,-0.039993767,0.20322442
158206723,0.40078226,-0.039993767,0.19383587
158227677,0.40078226,-0.042919364,0.1969654
158248641,0.4037648,-0.042919364,0.1969654
158270733,0.4037648,-0.04584496,0.1969654
158293986,0.40078226,-0.04584496,0.20009491
158316477,0.40078226,-0.048770558,0.20635393
158339680,0.39481717,-0.05169616,0.20948344
158361533,0.39481717,-0.048770558,0.21574245
158383527,0.39481717,-0.05169616,0.21574245
158405517,0.3977997,-0.05169616,0.20948344
158427161,0.3977997,-0.05754735,0.20322442
158448532,0.40078226,-0.05754735,0.20635393
158471649,0.4037648,-0.05754735,0.20009491
158493640,0.40078226,-0.05754735,0.19070637
158515889,0.4037648,-0.05754735,0.19070637
158539917,0.4037648,-0.05754735,0.19383587
158563193,0.4037648,-0.060472947,0.19383587
158587243,0.4037648,-0.05754735,0.18757685
158611687,0.40674737,-0.05754735,0.19070637
158631688,0.4037648,-0.05754735,0.19070637
158653645,0.4037648,-0.060472947,0.19070637
158676516,0.40078226,-0.05754735,0.19070637
158699909,0.40674737,-0.060472947,0.1969654
158723907,0.4037648,-0.060472947,0.19070637
158747650,0.4037648,-0.060472947,0.19070637
158771687,0.4037648,-0.060472947,0.19070637
158792650,0.4037648,-0.060472947,0.19070637
158813698,0.40078226,-0.060472947,0.19383587
158835935,0.4037648,-0.060472947,0.19070637
158860489,0.4037648,-0.060472947,0.19070637
158883980,0.40078226,-0.060472947,0.19070637
158907991,0.40078226,-0.06339855,0.19383587
158931949,0.40674737,-0.06339855,0.19383587
158956569,0.4037648,-0.06339855,0.19383587
158979956,0.4037648,-0.06339855,0.19070637
159002634,0.4037648,-0.06339855,0.19383587
159026638,0.4037648,-0.06339855,0.1969654
159048701,0.40078226,-0.066324145,0.19383587
159071866,0.4037648,-0.066324145,0.19070637
159094512,0.40078226,-0.066324145,0.19070637
159116334,0.40078226,-0.066324145,0.19383587
159137583,0.4037648,-0.066324145,0.19070637
159160740,0.3977997,-0.06339855,0.19070637
159184726,0.4037648,-0.06339855,0.19383587
159208786,0.40078226,-0.066324145,0.19070637
159232736,0.4037648,-0.06339855,0.1969654
159254476,0.40078226,-0.066324145,0.1969654
159277166,0.4037648,-0.06339855,0.1969654
159300381,0.40078226,-0.06339855,0.20009491
159322555,0.40078226,-0.066324145,0.1969654
159345488,0.40078226,-0.06339855,0.19383587
159368694,0.4037648,-0.06339855,0.1969654
159392681,0.4037648,-0.060472947,0.1969654
159416739,0.4037648,-0.06339855,0.19070637
159440667,0.40078226,-0.060472947,0.19383587
159463865,0.40078226,-0.06339855,0.1969654
159486510,0.40078226,-0.060472947,0.19383587
159509244,0.40078226,-0.060472947,0.1969654
159532676,0.40078226,-0.060472947,0.19383587
159556451,0.3977997,-0.060472947,0.19070637
159578701,0.40078226,-0.060472947,0.19070637
159600734,0.4037648,-0.05754735,0.20009491
159624732,0.4037648,-0.060472947,0.1969654
159648673,0.4037648,-0.060472947,0.20009491
159671858,0.40078226,-0.05754735,0.20322442
159694510,0.40078226,-0.060472947,0.20009491
159717250,0.40078226,-0.060472947,0.1969654
159740740,0.40078226,-0.060472947,0.19383587
159764371,0.40078226,-0.05754735,0.20009491
159786691,0.40078226,-0.05754735,0.1969654
159808741,0.40078226,-0.05754735,0.19383587
159832790,0.40078226,-0.05754735,0.1969654
159855646,0.40078226,-0.05754735,0.19070637
159878723,0.4037648,-0.05754735,0.19383587
159901146,0.4037648,-0.05754735,0.20009491
159923639,0.40078226,-0.05754735,0.1969654
159946715,0.40078226,-0.054621752,0.1969654
159967639,0.40078226,-0.054621752,0.1969654
159989646,0.4037648,-0.054621752,0.1969654
160011647,0.40078226,-0.05169616,0.19383587
160034732,0.4037648,-0.05169616,0.1969654
160055648,0.4037648,-0.05169616,0.1969654
160077684,0.4037648,-0.05169616,0.20009491
160099648,0.40078226,-0.04584496,0.19070637
160121639,0.40078226,-0.04584496,0.1969654
160144700,0.4037648,-0.042919364,0.19070637
160166639,0.4037648,-0.042919364,0.18444735
160189120,0.40078226,-0.037068173,0.1969654
160211692,0.4037648,-0.037068173,0.19070637
160233686,0.4037648,-0.034142572,0.19070637
160255640,0.4037648,-0.031216977,0.19070637
160278679,0.4037648,-0.031216977,0.19383587
160299729,0.40674737,-0.031216977,0.20322442
160321639,0.40674737,-0.02829138,0.19383587
160344728,0.4037648,-0.025365783,0.19070637
160365684,0.4037648,-0.022440186,0.19070637
160386718,0.4037648,-0.022440186,0.19070637
160407685,0.4037648,-0.019514589,0.19383587
160430667,0.4037648,-0.016588992,0.19070637
160453253,0.4037648,-0.013663395,0.19070637
160475640,0.4037648,-0.013663395,0.19070637
160498671,0.4037648,-0.013663395,0.18757685
160519646,0.4037648,-0.010737799,0.18757685
160542677,0.40078226,-0.010737799,0.18757685
160563646,0.4037648,-0.010737799,0.18757685
160585640,0.4037648,-0.007812201,0.19383587
160608794,0.40078226,-0.007812201,0.19383587
160632640,0.3977997,-0.007812201,0.19070637
160654673,0.40078226,-0.010737799,0.20009491
160674675,0.40078226,-0.007812201,0.1969654
160696638,0.3977997,-0.0048866044,0.20322442
160718705,0.3977997,-0.007812201,0.20635393
160739676,0.3977997,-0.0048866044,0.1969654
160761642,0.3977997,-0.0048866044,0.20322442
160783646,0.40078226,-0.0048866044,0.20009491
160806204,0.40078226,-0.0019610072,0.1969654
160828638,0.40078226,-0.0019610072,0.19383587
160851647,0.4037648,-0.0019610072,0.19070637
160872691,0.40078226,-0.0019610072,0.1969654
160894680,0.40078226,-0.0048866044,0.1969654
160916639,0.4037648,-0.0048866044,0.18757685
160939649,0.4037648,-0.007812201,0.19070637
160960694,0.4037648,-0.007812201,0.19383587
160982671,0.40078226,-0.013663395,0.19070637
161004646,0.3977997,-0.013663395,0.19383587
161026672,0.3977997,-0.016588992,0.20009491
161048649,0.3977997,-0.019514589,0.1969654
161070733,0.3977997,-0.022440186,0.20635393
161091678,0.39481717,-0.025365783,0.21261296
161113645,0.39481717,-0.02829138,0.20948344
161135689,0.39481717,-0.031216977,0.225131
161158017,0.38885203,-0.031216977,0.225131
161180647,0.3858695,-0.037068173,0.2220015
161203648,0.38288692,-0.039993767,0.23139003
161224639,0.3769218,-0.042919364,0.23139003
161246645,0.3769218,-0.048770558,0.24390809
161268638,0.3709567,-0.054621752,0.2501671
161291646,0.36797413,-0.054621752,0.2501671
161312646,0.3649916,-0.060472947,0.26268518
161334672,0.36200902,-0.066324145,0.26894417
161355639,0.36200902,-0.06924974,0.27520323
161375661,0.36200902,-0.07217533,0.26894417
161398811,0.36200902,-0.07510093,0.27207372
161421951,0.36200902,-0.07510093,0.27520323
161444480,0.36200902,-0.07510093,0.27207372
161467715,0.36200902,-0.078026526,0.26894417
161489643,0.36200902,-0.07510093,0.27520323
161511690,0.3649916,-0.07510093,0.26268518
161535063,0.36797413,-0.066324145,0.25955567
161556647,0.3709567,-0.060472947,0.24703759
161577645,0.3769218,-0.054621752,0.23451954
161599096,0.37990436,-0.05169616,0.23451954
161623186,0.3858695,-0.042919364,0.22826052
161643682,0.38885203,-0.037068173,0.21887198
161665647,0.3918346,-0.031216977,0.21887198
161687646,0.39481717,-0.025365783,0.20948344
161709649,0.3977997,-0.022440186,0.20635393
161731559,0.3977997,-0.016588992,0.20322442
161752638,0.40078226,-0.013663395,0.1969654
161775082,0.40078226,-0.010737799,0.19070637
161799073,0.40078226,-0.007812201,0.19383587
161823079,0.40078226,-0.0048866044,0.19383587
161843681,0.4037648,-0.0048866044,0.19383587
161864677,0.4037648,-0.0048866044,0.19070637
161887704,0.40078226,-0.0019610072,0.19070637
161908639,0.40078226,-0.0048866044,0.19383587
161929638,0.4037648,-0.0019610072,0.19070637
161951034,0.4037648,-0.0019610072,0.19070637
161975088,0.4037648,0.0009645897,0.19383587
161999081,0.4037648,0.0009645897,0.19070637
162023090,0.4037648,0.0009645897,0.19070637
162045691,0.4037648,0.0009645897,0.18757685
162068639,0.4037648,0.0009645897,0.19070637
162090639,0.4037648,0.0009645897,0.1969654
162112682,0.40078226,0.0038901868,0.19383587
162136764,0.3977997,0.0068157837,0.19383587
162159857,0.40078226,0.0068157837,0.19070637
162182642,0.40078226,0.0068157837,0.18757685
162205215,0.40078226,0.009741381,0.19070637
162228433,0.40078226,0.009741381,0.18757685
162250638,0.3977997,0.012666977,0.19070637
162272766,0.40078226,0.012666977,0.19383587
162296728,0.40078226,0.015592574,0.19383587
162320804,0.40078226,0.018518172,0.18757685
162344081,0.40078226,0.02144377,0.19070637
162366486,0.40078226,0.024369365,0.19070637
162389313,0.3977997,0.02144377,0.18757685
162412493,0.3977997,0.024369365,0.19070637
162433486,0.3977997,0.027294962,0.19070637
162456955,0.3977997,0.03022056,0.19070637
162480695,0.40078226,0.033146154,0.18757685
162504711,0.3977997,0.036071755,0.19383587
162528710,0.39481717,0.038997352,0.20009491
162552748,0.3918346,0.044848546,0.18444735
162573517,0.39481717,0.04777414,0.1969654
162594692,0.3918346,0.05069974,0.1969654
162617480,0.3918346,0.05655093,0.1969654
162640736,0.38885203,0.059476532,0.1969654
162664758,0.38885203,0.06532773,0.19383587
162688786,0.3858695,0.07117891,0.20322442
162712858,0.38288692,0.07410451,0.20009491
162736862,0.38288692,0.07995571,0.20322442
162759833,0.3769218,0.0858069,0.20322442
162782667,0.3769218,0.088732496,0.20009491
162805640,0.37393928,0.09165809,0.20322442
162828538,0.3769218,0.09165809,0.20635393
162850673,0.37393928,0.097509295,0.20635393
162872754,0.3709567,0.10336048,0.20635393
162896726,0.3709567,0.10628608,0.21261296
162920708,0.36797413,0.10921168,0.21261296
162941982,0.3649916,0.11213728,0.21261296
162965162,0.3649916,0.11506287,0.20635393
162986705,0.3649916,0.11798847,0.20635393
163009522,0.3649916,0.11798847,0.20635393
163032646,0.3649916,0.120914064,0.20635393
163054676,0.3649916,0.120914064,0.20322442
163077271,0.36200902,0.12383967,0.20635393
163099675,0.3649916,0.12383967,0.20635393
163122639,0.3649916,0.12676525,0.20009491
163144645,0.36200902,0.12676525,0.20009491
163165649,0.36200902,0.12676525,0.1969654
163185646,0.35902646,0.12969086,0.20322442
163207646,0.36200902,0.12969086,0.20322442
163229638,0.35902646,0.12969086,0.20322442
163250648,0.35604393,0.12969086,0.21261296
163271657,0.35604393,0.13261646,0.21887198
163294774,0.35306135,0.13261646,0.21261296
163318225,0.35306135,0.13261646,0.21887198
163341279,0.35306135,0.13554205,0.22826052
163363517,0.3441137,0.13554205,0.21887198
163386712,0.34113112,0.13846765,0.2220015
163408644,0.3441137,0.14139324,0.225131
163430719,0.34113112,0.14139324,0.225131
163453177,0.3441137,0.14431885,0.23451954
163475638,0.3441137,0.14431885,0.2220015
163498678,0.3441137,0.14724444,0.22826052
163519677,0.34113112,0.15017003,0.22826052
163541646,0.3441137,0.15309563,0.23451954
163562666,0.34113112,0.15309563,0.2220015
163583644,0.3441137,0.15309563,0.23451954
163606515,0.3441137,0.15309563,0.21887198
163629263,0.3441137,0.15309563,0.23451954
163651557,0.34113112,0.15309563,0.23139003
163674677,0.34113112,0.15309563,0.225131
163696717,0.34113112,0.15309563,0.2220015
163718088,0.34113112,0.15309563,0.225131
163740638,0.34113112,0.15602122,0.23139003
163763348,0.3441137,0.15602122,0.22826052
163787645,0.3441137,0.15602122,0.225131
163809638,0.34113112,0.15602122,0.23451954
163832639,0.34113112,0.15602122,0.23139003
163854669,0.34113112,0.15602122,0.225131
163876642,0.3441137,0.15602122,0.225131
163899641,0.3441137,0.15602122,0.22826052
163920639,0.3441137,0.15309563,0.225131
163942718,0.34113112,0.15602122,0.23451954
163963676,0.33814856,0.15894683,0.23451954
163985641,0.33814856,0.15602122,0.23451954
164007639,0.33516604,0.15894683,0.23451954
164030127,0.33516604,0.15602122,0.23451954
164052688,0.33516604,0.15602122,0.2501671
164075638,0.3292009,0.15309563,0.24390809
164096638,0.3292009,0.15309563,0.24390809
164118645,0.32323578,0.15017003,0.25642613
164140639,0.32025322,0.15017003,0.26268518
164163662,0.32025322,0.15017003,0.25955567
164184644,0.31727067,0.14724444,0.2658147
164206645,0.31130555,0.14724444,0.2658147
164227639,0.308323,0.14431885,0.27207372
164249638,0.30534047,0.14724444,0.27520323
164271687,0.29937533,0.14431885,0.28772128
164293984,0.2963928,0.14139324,0.28459176
164316638,0.2934102,0.14139324,0.29085076
164338766,0.28446257,0.14139324,0.2971098
164361640,0.28147998,0.14139324,0.2971098
164383690,0.2755149,0.14139324,0.30649835
164405906,0.2725323,0.14139324,0.31275737
164426716,0.26358467,0.14139324,0.31588688
164448647,0.25761953,0.14139324,0.32527545
164469963,0.25165442,0.14139324,0.3221459
164492640,0.24568932,0.14139324,0.32840493
164515639,0.24270676,0.14139324,0.334664
164537640,0.23375909,0.14431885,0.34092298
164559079,0.22779398,0.14724444,0.34092298
164583067,0.22481142,0.15017003,0.33153445
164607173,0.2188463,0.15602122,0.334664
164631062,0.2188463,0.15894683,0.32527545
164655153,0.2128812,0.16772363,0.33153445
164679212,0.20393352,0.17650041,0.32840493
164700639,0.20393352,0.1823516,0.32527545
164721639,0.19796841,0.1882028,0.32527545
164743647,0.19796841,0.19112839,0.32840493
164763641,0.1920033,0.194054,0.31588688
164784699,0.19498585,0.194054,0.32527545
164807142,0.18902074,0.1969796,0.33153445
164831055,0.18603818,0.19990519,0.32527545
164855095,0.18305562,0.19990519,0.32527545
164879205,0.18603818,0.20283079,0.32527545
164903224,0.18603818,0.20283079,0.32527545
164927642,0.18007307,0.20868197,0.3221459
164951647,0.18305562,0.21160758,0.32527545
164975091,0.17709051,0.21160758,0.31588688
164999093,0.18007307,0.21160758,0.32527545
165023141,0.17410795,0.21453317,0.3190164
165047148,0.17709051,0.21453317,0.3221459
165071095,0.17709051,0.21453317,0.32527545
165095112,0.17709051,0.21453317,0.3221459
165116690,0.17709051,0.21453317,0.3221459
165137647,0.17410795,0.21453317,0.32840493
165159840,0.1711254,0.21745877,0.3190164
165184702,0.17709051,0.21745877,0.32527545
165208737,0.17709051,0.21745877,0.3221459
165231834,0.1711254,0.22038436,0.3190164
165255888,0.1711254,0.21745877,0.31588688
165279910,0.17410795,0.22038436,0.32527545
165301646,0.17410795,0.22038436,0.31588688
165322648,0.17410795,0.22038436,0.31588688
165346643,0.17410795,0.22038436,0.3190164
165369643,0.17410795,0.22038436,0.31275737
165391871,0.17410795,0.22038436,0.31588688
165415985,0.17410795,0.22038436,0.3190164
165439863,0.1711254,0.22330996,0.30962786
165463854,0.17410795,0.22038436,0.3221459
165487934,0.17709051,0.22038436,0.31588688
165509639,0.17709051,0.22038436,0.3221459
165530677,0.17709051,0.22038436,0.31588688
165554664,0.17410795,0.22038436,0.3190164
165578677,0.18007307,0.22038436,0.31588688
165601639,0.18007307,0.22038436,0.31588688
165623926,0.17709051,0.22038436,0.31588688
165647956,0.18007307,0.21745877,0.32527545
165670720,0.18007307,0.22038436,0.3190164
165693638,0.18007307,0.22038436,0.31588688
165716316,0.18007307,0.22038436,0.3190164
165737646,0.18007307,0.22038436,0.31588688
165759895,0.17709051,0.22038436,0.30962786
165783853,0.18007307,0.21745877,0.30962786
165806711,0.18007307,0.22038436,0.31588688
165829641,0.18305562,0.22038436,0.30962786
165852473,0.18305562,0.22038436,0.3190164
165874662,0.18305562,0.21745877,0.31275737
165897642,0.18305562,0.22038436,0.31588688
165918671,0.18305562,0.22038436,0.3190164
165941641,0.18305562,0.22038436,0.31588688
165964315,0.18603818,0.22038436,0.30962786
165986725,0.18603818,0.22038436,0.30649835
166008680,0.18603818,0.22038436,0.31588688
166029639,0.18305562,0.22038436,0.31275737
166049648,0.18305562,0.22038436,0.3190164
166070960,0.18305562,0.22330996,0.30336884
166094112,0.18603818,0.22038436,0.31275737
166117323,0.18603818,0.22038436,0.31275737
166138685,0.18305562,0.22038436,0.31275737
166161484,0.18305562,0.22038436,0.31275737
166184646,0.18603818,0.22038436,0.30962786
166206142,0.18603818,0.22330996,0.31275737
166229931,0.18603818,0.22038436,0.30962786
166253236,0.18603818,0.22330996,0.30962786
166275646,0.18603818,0.21745877,0.3190164
166298733,0.18603818,0.21453317,0.3221459
166320697,0.18305562,0.21160758,0.3221459
166342726,0.18305562,0.20868197,0.3190164
166363657,0.18603818,0.20868197,0.3221459
166386634,0.18603818,0.20575637,0.3190164
166408681,0.18305562,0.20283079,0.32527545
166430030,0.18603818,0.19990519,0.32840493
166453233,0.18603818,0.19990519,0.32527545
166475524,0.18305562,0.19990519,0.33153445
166498674,0.18603818,0.194054,0.32527545
166520646,0.18305562,0.194054,0.32840493
166542674,0.18007307,0.19112839,0.33153445
166565141,0.18305562,0.1882028,0.3377935
166587639,0.18007307,0.1852772,0.334664
166609677,0.18007307,0.1823516,0.3377935
166632692,0.17709051,0.179426,0.34718204
166654675,0.17709051,0.17650041,0.3440525
166677374,0.17410795,0.17357482,0.35031155
166699640,0.17410795,0.17357482,0.34718204
166722682,0.16814284,0.17064922,0.34718204
166745640,0.16516028,0.17064922,0.35657057
166768640,0.16516028,0.16772363,0.35344103
166790665,0.15919517,0.16772363,0.3628296
166811647,0.16217773,0.16772363,0.35657057
166832650,0.15919517,0.16772363,0.35657057
166853647,0.15621261,0.16772363,0.35657057
166875648,0.15621261,0.16772363,0.35657057
166898216,0.15323006,0.16772363,0.3628296
166919647,0.1502475,0.16772363,0.36595908
166941646,0.1502475,0.16479802,0.36908862
166964694,0.14428239,0.16187242,0.36595908
166986681,0.14129983,0.16187242,0.37221813
167008639,0.13831727,0.15602122,0.3753476
167029647,0.13533473,0.15017003,0.38160667
167051695,0.13235216,0.14724444,0.38160667
167073939,0.12638704,0.14139324,0.38473618
167096644,0.12340449,0.13846765,0.3878657
167118714,0.114456825,0.13554205,0.3909952
167141648,0.114456825,0.13261646,0.40038374
167162679,0.11147427,0.12676525,0.39725423
167182674,0.108491704,0.12383967,0.40351325
167204647,0.09954404,0.120914064,0.40038374
167226122,0.09954404,0.11798847,0.40038374
167248638,0.096561484,0.11213728,0.40664276
167270726,0.096561484,0.11213728,0.4129018
167292642,0.09059636,0.10628608,0.4160313
167314638,0.087613806,0.10336048,0.4160313
167336638,0.08463126,0.097509295,0.4129018
167359649,0.0816487,0.0945837,0.41916084
167381692,0.07568358,0.09165809,0.41916084
167403649,0.07270102,0.088732496,0.41916084
167425934,0.07270102,0.0858069,0.4160313
167448689,0.06971847,0.07995571,0.41916084
167471646,0.066735916,0.07703011,0.41916084
167492646,0.06375336,0.07410451,0.41916084
167514669,0.05778824,0.06825332,0.4160313
167536638,0.054805685,0.06240212,0.42229035
167558769,0.051823128,0.053625334,0.42541984
167581638,0.045858014,0.05069974,0.42854935
167603639,0.0398929,0.044848546,0.42541984
167625925,0.03094523,0.038997352,0.42541984
167648688,0.033927787,0.033146154,0.42854935
167671696,0.027962673,0.027294962,0.42854935
167695698,0.019015005,0.02144377,0.4348084
167719730,0.016032446,0.012666977,0.4379379
167743690,0.016032446,0.009741381,0.44106743
167763678,0.01304989,0.0068157837,0.44106743
167784677,0.019015005,0.0009645897,0.44106743
167807696,0.010067334,0.0038901868,0.4348084
167831729,0.021997562,0.0038901868,0.4379379
167855697,0.024980117,0.0009645897,0.44106743
167879704,0.021997562,0.0068157837,0.4379379
167903706,0.027962673,0.009741381,0.4379379
167923895,0.0398929,0.015592574,0.4316789
167947567,0.036910344,0.018518172,0.42854935
167968729,0.042875458,0.024369365,0.4316789
167989687,0.045858014,0.03022056,0.42854935
168012639,0.045858014,0.033146154,0.42541984
168033646,0.045858014,0.041922946,0.42229035
168055915,0.04884057,0.05069974,0.41916084
168079915,0.045858014,0.06240212,0.4160313
168103935,0.042875458,0.07410451,0.42229035
168127967,0.042875458,0.07995571,0.4129018
168152532,0.0398929,0.088732496,0.42229035
168175048,0.0398929,0.0945837,0.42229035
168197688,0.0398929,0.097509295,0.42229035
168220647,0.0398929,0.097509295,0.4160313
168241645,0.036910344,0.100434884,0.4160313
168263920,0.036910344,0.100434884,0.42541984
168286511,0.033927787,0.100434884,0.41916084
168309278,0.033927787,0.10336048,0.42541984
168332731,0.033927787,0.10336048,0.4160313
168356371,0.03094523,0.10628608,0.4160313
168378632,0.027962673,0.10628608,0.42229035
168400719,0.03094523,0.10628608,0.42229035
168424795,0.033927787,0.10628608,0.4129018
168448764,0.033927787,0.10628608,0.41916084
168471931,0.033927787,0.10628608,0.41916084
168494476,0.036910344,0.10336048,0.42229035
168517640,0.033927787,0.10336048,0.42541984
168540438,0.03094523,0.10336048,0.41916084
168562670,0.033927787,0.10628608,0.4160313
168584656,0.03094523,0.10336048,0.4160313
168605495,0.027962673,0.10628608,0.4160313
168628358,0.033927787,0.10628608,0.4160313
168650674,0.03094523,0.10628608,0.42541984
168672727,0.03094523,0.10628608,0.41916084
168695908,0.027962673,0.10628608,0.42229035
168719852,0.03094523,0.10628608,0.42229035
168743859,0.033927787,0.10628608,0.42229035
168767984,0.033927787,0.10628608,0.42229035
168792029,0.033927787,0.10628608,0.4160313
168815984,0.03094523,0.10628608,0.4160313
168840013,0.033927787,0.10628608,0.41916084
168863841,0.027962673,0.10628608,0.41916084
168887838,0.027962673,0.10628608,0.42229035
168911916,0.03094523,0.10628608,0.42541984
168933647,0.027962673,0.10628608,0.41916084
168954666,0.033927787,0.10921168,0.41916084
168977735,0.036910344,0.10921168,0.4129018
169000642,0.033927787,0.10921168,0.4129018
169023878,0.036910344,0.10921168,0.4160313
169047906,0.0398929,0.10921168,0.4097723
169071954,0.036910344,0.10921168,0.4129018
169095962,0.036910344,0.10921168,0.4160313
169117646,0.03094523,0.10921168,0.4160313
169139639,0.03094523,0.10628608,0.41916084
169161731,0.027962673,0.10628608,0.41916084
169184691,0.024980117,0.10921168,0.41916084
169206675,0.024980117,0.10628608,0.41916084
169229147,0.021997562,0.10921168,0.41916084
169251638,0.019015005,0.11213728,0.42229035
169274671,0.021997562,0.10921168,0.4160313
169296646,0.019015005,0.10921168,0.4160313
169317639,0.019015005,0.10921168,0.4160313
169337638,0.021997562,0.11213728,0.4129018
169359646,0.021997562,0.11506287,0.4160313
169381639,0.024980117,0.11213728,0.4160313
169402637,0.024980117,0.11506287,0.4129018
169422866,0.027962673,0.11506287,0.41916084
169446871,0.033927787,0.11506287,0.4129018
169470036,0.042875458,0.11506287,0.4160313
169493164,0.0398929,0.11506287,0.4129018
169515638,0.045858014,0.11506287,0.4160313
169539681,0.042875458,0.11213728,0.42229035
169563638,0.042875458,0.11213728,0.40664276
169586665,0.036910344,0.11213728,0.42229035
169608719,0.036910344,0.11213728,0.41916084
169630679,0.033927787,0.10921168,0.41916084
169653277,0.03094523,0.10921168,0.42229035
169675638,0.033927787,0.10921168,0.41916084
169698679,0.027962673,0.10921168,0.4160313
169719646,0.027962673,0.10921168,0.4160313
169742771,0.021997562,0.10921168,0.42229035
169763717,0.019015005,0.10628608,0.4160313
169785638,0.019015005,0.10628608,0.41916084
169808647,0.019015005,0.10336048,0.42229035
169830722,0.019015005,0.10921168,0.42229035
169851639,0.019015005,0.10628608,0.42229035
169872719,0.021997562,0.10628608,0.42541984
169894667,0.019015005,0.10628608,0.42229035
169917167,0.019015005,0.10628608,0.42229035
169938676,0.016032446,0.10336048,0.41916084
169960639,0.019015005,0.10336048,0.42229035
169983697,0.016032446,0.10336048,0.42229035
170004639,0.019015005,0.10628608,0.41916084
170026671,0.016032446,0.10336048,0.4160313
170047696,0.019015005,0.10336048,0.4160313
170069646,0.016032446,0.10628608,0.42541984
170091646,0.016032446,0.10336048,0.42229035
170114130,0.016032446,0.10628608,0.41916084
170136642,0.019015005,0.10628608,0.4129018
170158671,0.016032446,0.10921168,0.41916084
170180686,0.019015005,0.10628608,0.42229035
170202148,0.019015005,0.10628608,0.41916084
170224700,0.019015005,0.10628608,0.42229035
170247688,0.019015005,0.10628608,0.42541984
170269645,0.019015005,0.10628608,0.41916084
170290770,0.021997562,0.10921168,0.41916084
170313960,0.021997562,0.11213728,0.4129018
170336482,0.021997562,0.11506287,0.4160313
170359688,0.019015005,0.12383967,0.4129018
170381638,0.021997562,0.13261646,0.40038374
170403638,0.024980117,0.14431885,0.39725423
170425924,0.024980117,0.15602122,0.3909952
170448642,0.021997562,0.17064922,0.38160667
170470784,0.021997562,0.1852772,0.37847716
170493638,0.027962673,0.19990519,0.3753476
170515642,0.021997562,0.20868197,0.3628296
170537953,0.021997562,0.21745877,0.3628296
170560646,0.021997562,0.22916116,0.35344103
170583703,0.019015005,0.23793794,0.34092298
170605652,0.016032446,0.24671473,0.33153445
170626666,0.016032446,0.24964035,0.33153445
170646667,0.01304989,0.25841713,0.3190164
170668638,0.01304989,0.2642683,0.32527545
170690680,0.01304989,0.27011952,0.30336884
170711640,0.01304989,0.2759707,0.30649835
170733638,0.01304989,0.2818219,0.2971098
170754810,0.01304989,0.2876731,0.2971098
170778087,0.016032446,0.2905987,0.2939803
170800523,0.016032446,0.2905987,0.28772128
170823649,0.019015005,0.2935243,0.28459176
170847231,0.016032446,0.29644987,0.28459176
170867703,0.021997562,0.29644987,0.28146222
170888678,0.024980117,0.30230108,0.28459176
170909677,0.021997562,0.2993755,0.27833274
170931858,0.024980117,0.30230108,0.27520323
170955578,0.021997562,0.2993755,0.28146222
170977697,0.027962673,0.2993755,0.28146222
171000639,0.033927787,0.29644987,0.29085076
171023085,0.036910344,0.2876731,0.29085076
171047140,0.0398929,0.2818219,0.2971098
171068688,0.045858014,0.2671939,0.3190164
171089647,0.04884057,0.25549152,0.3221459
171109639,0.051823128,0.24086353,0.34092298
171131558,0.054805685,0.23208676,0.35031155
171151639,0.05778824,0.22038436,0.35657057
171175078,0.0607708,0.20868197,0.35970008
171196336,0.0607708,0.19990519,0.36595908
171220254,0.066735916,0.194054,0.3753476
171243514,0.0607708,0.1882028,0.37221813
171265688,0.06375336,0.1823516,0.3753476
171288640,0.06375336,0.1823516,0.38473618
171311045,0.066735916,0.179426,0.37847716
171333640,0.06971847,0.179426,0.37847716
171355640,0.066735916,0.17650041,0.37847716
171376688,0.066735916,0.17357482,0.37847716
171399055,0.066735916,0.16479802,0.3878657
171423736,0.06375336,0.15894683,0.38473618
171444383,0.06375336,0.15602122,0.3909952
171466639,0.066735916,0.15017003,0.40038374
171488638,0.05778824,0.14724444,0.40351325
171510639,0.0607708,0.14431885,0.40038374
171533639,0.05778824,0.14139324,0.40351325
171554646,0.051823128,0.13846765,0.40038374
171575909,0.051823128,0.13554205,0.40664276
171599925,0.04884057,0.12969086,0.40664276
171623839,0.045858014,0.12676525,0.4129018
171647856,0.042875458,0.12383967,0.4129018
171671852,0.042875458,0.11506287,0.4129018
171695994,0.036910344,0.10628608,0.41916084
171720001,0.033927787,0.100434884,0.42541984
171743848,0.03094523,0.0945837,0.41916084
171767829,0.03094523,0.088732496,0.42541984
171791823,0.027962673,0.08288131,0.4160313
171814676,0.024980117,0.07995571,0.4129018
171837238,0.027962673,0.08288131,0.42229035
171861131,0.033927787,0.08288131,0.4160313
171884329,0.027962673,0.08288131,0.4160313
171906664,0.027962673,0.08288131,0.41916084
171929647,0.027962673,0.08288131,0.4160313
171951917,0.03094523,0.08288131,0.4160313
171973640,0.027962673,0.08288131,0.4160313
171994674,0.03094523,0.08288131,0.4129018
172017691,0.027962673,0.0858069,0.4160313
172040648,0.027962673,0.0858069,0.4160313
172063897,0.027962673,0.08288131,0.4160313
172087957,0.027962673,0.08288131,0.4160313
172111894,0.027962673,0.08288131,0.4160313
172135893,0.03094523,0.08288131,0.4160313
172158672,0.027962673,0.08288131,0.4160313
172180650,0.024980117,0.08288131,0.4129018
172201646,0.03094523,0.08288131,0.41916084
172223839,0.027962673,0.08288131,0.41916084
172247844,0.027962673,0.08288131,0.4160313
172271919,0.027962673,0.08288131,0.41916084
172295691,0.027962673,0.08288131,0.4160313
172318676,0.03094523,0.07995571,0.41916084
172341307,0.024980117,0.07995571,0.4160313
172363640,0.021997562,0.07410451,0.42541984
172386723,0.021997562,0.06825332,0.42854935
172408646,0.021997562,0.06240212,0.42229035
172430723,0.019015005,0.05655093,0.42541984
172453131,0.021997562,0.05069974,0.4316789
172475649,0.021997562,0.04777414,0.42854935
172498665,0.016032446,0.038997352,0.42854935
172520705,0.016032446,0.036071755,0.4316789
172542724,0.016032446,0.03022056,0.42541984
172563762,0.01304989,0.027294962,0.4348084
172586737,0.01304989,0.02144377,0.4348084
172608647,0.016032446,0.015592574,0.4348084
172630651,0.01304989,0.009741381,0.4348084
172651686,0.010067334,0.0068157837,0.4379379
172674648,0.010067334,0.0038901868,0.4379379
172696652,0.010067334,0.0009645897,0.44419694
172718677,0.010067334,-0.0019610072,0.4348084
172739690,0.010067334,-0.0019610072,0.4379379
172761651,0.010067334,-0.0048866044,0.4379379
172784687,0.010067334,-0.007812201,0.4379379
172805639,0.010067334,-0.007812201,0.4379379
172825638,0.01304989,-0.007812201,0.4379379
172847017,0.0041022203,-0.007812201,0.44732645
172869290,0.007084777,-0.007812201,0.44106743
172891528,0.010067334,-0.007812201,0.4348084
172914664,0.010067334,-0.007812201,0.44106743
172936648,0.016032446,-0.007812201,0.4348084
172958143,0.01304989,-0.007812201,0.44106743
172981294,0.010067334,-0.010737799,0.4379379
173003641,0.010067334,-0.016588992,0.4379379
173027647,0.007084777,-0.025365783,0.44732645
173049646,0.0041022203,-0.034142572,0.45045593
173072692,0.0041022203,-0.039993767,0.44732645
173094675,0.0011196638,-0.04584496,0.45045593
173117356,0.0011196638,-0.048770558,0.45045593
173139646,0.0011196638,-0.05169616,0.44732645
173162668,0.0041022203,-0.054621752,0.44419694
173185646,0.007084777,-0.060472947,0.44732645
173207678,0.007084777,-0.06339855,0.44732645
173230037,0.0041022203,-0.06924974,0.45045593
173252638,0.0041022203,-0.078026526,0.44732645
173275639,0.0041022203,-0.08095213,0.45045593
173297638,0.0041022203,-0.089728914,0.44732645
173318675,0.0041022203,-0.098505706,0.44106743
173339655,0.010067334,-0.1043569,0.44732645
173361643,0.0041022203,-0.1102081,0.45045593
173384639,0.010067334,-0.11605929,0.45045593
173406665,0.007084777,-0.12483609,0.44106743
173427646,0.01304989,-0.13068728,0.44419694
173449646,0.01304989,-0.13946407,0.44106743
173471653,0.016032446,-0.14531526,0.4348084
173494212,0.019015005,-0.15116645,0.42854935
173516727,0.019015005,-0.15701765,0.4348084
173539687,0.024980117,-0.15994325,0.4316789
173561638,0.027962673,-0.16579443,0.4348084
173583639,0.027962673,-0.17164563,0.42541984
173606076,0.03094523,-0.17457123,0.4316789
173628645,0.036910344,-0.18042243,0.4316789
173651649,0.042875458,-0.18334803,0.42541984
173673649,0.045858014,-0.18627362,0.42229035
173694646,0.04884057,-0.18919921,0.42229035
173716638,0.051823128,-0.1921248,0.42229035
173739666,0.054805685,-0.19797601,0.41916084
173761649,0.054805685,-0.2009016,0.42541984
173783650,0.0607708,-0.20675279,0.42229035
173804688,0.06375336,-0.2096784,0.4160313
173827689,0.06375336,-0.212604,0.4129018
173848678,0.06971847,-0.21845518,0.40664276
173870061,0.07568358,-0.22430637,0.40038374
173892688,0.07568358,-0.23015757,0.40351325
173914680,0.078666136,-0.23308317,0.40038374
173937648,0.08463126,-0.23600876,0.39725423
173958668,0.087613806,-0.23600876,0.39725423
173979638,0.09059636,-0.24185996,0.39412472
174001646,0.09357892,-0.24185996,0.3909952
174024639,0.09954404,-0.24478556,0.3878657
174045656,0.10550915,-0.24771115,0.3878657
174067647,0.10550915,-0.25063676,0.38160667
174089641,0.114456825,-0.25063676,0.38160667
174112639,0.12042193,-0.25356233,0.3753476
174134679,0.12042193,-0.25356233,0.3753476
174155639,0.12638704,-0.25648797,0.3753476
174177645,0.1293696,-0.25648797,0.3753476
174200649,0.13533473,-0.25648797,0.37221813
174222686,0.13831727,-0.25648797,0.3753476
174245646,0.13831727,-0.25648797,0.36908862
174267682,0.14428239,-0.25941354,0.36908862
174288685,0.14428239,-0.25648797,0.36595908
174310689,0.14428239,-0.25648797,0.37221813
174333690,0.14726494,-0.25356233,0.36908862
174358686,0.15323006,-0.25356233,0.3628296
174382680,0.15323006,-0.25356233,0.36908862
174403646,0.15323006,-0.25063676,0.36908862
174425640,0.15621261,-0.25063676,0.3753476
174448659,0.15621261,-0.24771115,0.37221813
174470682,0.15919517,-0.25063676,0.37221813
174493639,0.15621261,-0.24771115,0.36908862
174515689,0.15919517,-0.24478556,0.36908862
174537680,0.15919517,-0.24478556,0.36908862
174560700,0.16217773,-0.24478556,0.37221813
174582679,0.15919517,-0.24185996,0.37221813
174606680,0.16217773,-0.24478556,0.36908862
174630684,0.16217773,-0.24478556,0.37221813
174653638,0.16516028,-0.24185996,0.36908862
174675642,0.16516028,-0.24478556,0.36908862
174697639,0.16217773,-0.25063676,0.36908862
174720647,0.15919517,-0.25648797,0.36595908
174742646,0.16217773,-0.26526475,0.36595908
174765685,0.16217773,-0.26819032,0.35344103
174786771,0.15919517,-0.27404153,0.35031155
174809648,0.16516028,-0.27696714,0.34718204
174832694,0.16516028,-0.27696714,0.34092298
174854648,0.16814284,-0.2798927,0.3440525
174876649,0.16814284,-0.2798927,0.34092298
174899561,0.1711254,-0.2798927,0.35031155
174921696,0.1711254,-0.28281832,0.3377935
174943681,0.17410795,-0.28574392,0.33153445
174967696,0.17709051,-0.28574392,0.32527545
174991696,0.18305562,-0.28574392,0.33153445
175015744,0.18603818,-0.28574392,0.33153445
175035686,0.18902074,-0.28574392,0.32840493
175056678,0.1920033,-0.2886695,0.3221459
175079688,0.19498585,-0.28574392,0.32527545
175100640,0.19796841,-0.28574392,0.32527545
175121639,0.20095097,-0.2886695,0.31275737
175143093,0.20393352,-0.2886695,0.31588688
175165248,0.20691608,-0.28574392,0.30962786
175189168,0.20989864,-0.28574392,0.30962786
175213135,0.2128812,-0.2886695,0.30962786
175235575,0.21586375,-0.28574392,0.31275737
175258274,0.2188463,-0.28574392,0.31588688
175281638,0.22182886,-0.28574392,0.30962786
175304531,0.2188463,-0.28281832,0.31275737
175328584,0.22182886,-0.2798927,0.31275737
175351913,0.22481142,-0.27696714,0.30962786
175375085,0.22182886,-0.27404153,0.31588688
175397653,0.22779398,-0.27404153,0.32527545
175419680,0.22779398,-0.27404153,0.31588688
175441697,0.22779398,-0.27111593,0.31588688
175463937,0.22779398,-0.27404153,0.3190164
175488534,0.22481142,-0.27404153,0.3221459
175511650,0.22481142,-0.27111593,0.3190164
175535097,0.22481142,-0.27111593,0.31588688
175555649,0.22481142,-0.27111593,0.31588688
175577677,0.22779398,-0.26819032,0.31588688
175599971,0.22182886,-0.26819032,0.3190164
175624529,0.22182886,-0.26819032,0.32527545
175648487,0.2188463,-0.26819032,0.3221459
175672513,0.22182886,-0.26819032,0.32527545
175695922,0.21586375,-0.26819032,0.32527545
175720522,0.2128812,-0.26819032,0.32527545
175743996,0.2128812,-0.26819032,0.32527545
175767847,0.20691608,-0.26819032,0.32840493
175791846,0.20989864,-0.26819032,0.32840493
175815841,0.20989864,-0.26819032,0.32840493
175839882,0.20989864,-0.27111593,0.32840493
175860653,0.20393352,-0.27111593,0.32840493
175882646,0.20393352,-0.27111593,0.32840493
175905648,0.19796841,-0.27111593,0.32840493
175927925,0.19796841,-0.27404153,0.334664
175951935,0.20095097,-0.27404153,0.32527545
175975914,0.19796841,-0.27404153,0.334664
175999926,0.1920033,-0.27404153,0.32840493
176021641,0.1920033,-0.27404153,0.33153445
176042675,0.18902074,-0.27696714,0.32840493
176065692,0.18902074,-0.27696714,0.33153445
176087873,0.18902074,-0.2798927,0.334664
176111877,0.18902074,-0.27696714,0.3377935
176135929,0.18603818,-0.2798927,0.33153445
176159893,0.18603818,-0.28281832,0.3377935
176183908,0.18603818,-0.28281832,0.34092298
176207964,0.18305562,-0.28281832,0.33153445
176229639,0.17709051,-0.28281832,0.3377935
176250678,0.18007307,-0.28281832,0.33153445
176274676,0.18007307,-0.28281832,0.33153445
176298674,0.17709051,-0.28574392,0.3377935
176322717,0.17410795,-0.28574392,0.334664
176345645,0.1711254,-0.28574392,0.334664
176367844,0.1711254,-0.28574392,0.334664
176390724,0.1711254,-0.28574392,0.334664
176413641,0.1711254,-0.2886695,0.33153445
176434685,0.16814284,-0.2886695,0.334664
176457684,0.16814284,-0.2886695,0.34092298
176480651,0.16516028,-0.2886695,0.34092298
176503842,0.16814284,-0.2886695,0.3377935
176527982,0.16516028,-0.2886695,0.3377935
176551838,0.16217773,-0.2886695,0.334664
176574677,0.16217773,-0.2915951,0.33153445
176597642,0.16217773,-0.2886695,0.334664
176619646,0.15919517,-0.2915951,0.34092298
176641646,0.15919517,-0.2886695,0.3377935
176662667,0.16217773,-0.2886695,0.34092298
176682678,0.15919517,-0.2886695,0.3377935
176703639,0.15919517,-0.2915951,0.34092298
176725640,0.15621261,-0.2886695,0.34718204
176746678,0.15621261,-0.2886695,0.3440525
176768664,0.15621261,-0.2915951,0.34092298
176790284,0.15621261,-0.2915951,0.34092298
176814290,0.15621261,-0.2915951,0.3377935
176837428,0.15621261,-0.2915951,0.3377935
176859526,0.15621261,-0.2945207,0.3377935
176882773,0.15323006,-0.2945207,0.34092298
176905646,0.15323006,-0.2945207,0.34092298
176927647,0.15323006,-0.2945207,0.34092298
176950639,0.15323006,-0.2945207,0.34092298
176973285,0.15621261,-0.2945207,0.34092298
176995646,0.15323006,-0.2945207,0.3440525
177018638,0.15323006,-0.2945207,0.334664
177040656,0.15323006,-0.2945207,0.334664
177062666,0.15621261,-0.2915951,0.3377935
177083639,0.15621261,-0.2945207,0.3377935
177105639,0.1502475,-0.2915951,0.34092298
177128736,0.15323006,-0.2886695,0.3440525
177149639,0.15323006,-0.28574392,0.34092298
177171649,0.15323006,-0.28281832,0.34718204
177193681,0.15323006,-0.28281832,0.35031155
177216781,0.15621261,-0.2798927,0.35031155
177240817,0.15919517,-0.2798927,0.3440525
177264653,0.15621261,-0.28281832,0.35031155
177285639,0.15621261,-0.2798927,0.3440525
177307646,0.15621261,-0.2798927,0.34718204
177330681,0.15919517,-0.2798927,0.35344103
177352639,0.15919517,-0.28281832,0.35031155
177373649,0.15621261,-0.2798927,0.3440525
177393690,0.15621261,-0.2798927,0.3440525
177416645,0.15621261,-0.27696714,0.35657057
177437647,0.15621261,-0.27696714,0.3440525
177457647,0.15621261,-0.27696714,0.35344103
177479638,0.15621261,-0.2798927,0.35031155
177499739,0.15323006,-0.27696714,0.34718204
177522928,0.15323006,-0.27696714,0.35344103
177546234,0.15621261,-0.27696714,0.35344103
177568479,0.1502475,-0.27404153,0.35657057
177592644,0.15323006,-0.27696714,0.35970008
177614706,0.1502475,-0.27696714,0.35970008
177635684,0.1502475,-0.27404153,0.35657057
177656684,0.1502475,-0.27404153,0.35344103
177679638,0.14726494,-0.27404153,0.35657057
177700639,0.14726494,-0.27404153,0.35970008
177722682,0.14726494,-0.27404153,0.35970008
177744638,0.14726494,-0.27404153,0.35657057
177767639,0.14726494,-0.27404153,0.34718204
177787712,0.14428239,-0.27404153,0.35657057
177809946,0.14726494,-0.27404153,0.35657057
177832478,0.14726494,-0.27404153,0.3628296
177855662,0.14726494,-0.27111593,0.35657057
177877648,0.1502475,-0.27111593,0.35970008
177900687,0.14726494,-0.26819032,0.35970008
177922648,0.15323006,-0.26526475,0.35657057
177944649,0.14726494,-0.26233912,0.3628296
177967719,0.1502475,-0.26233912,0.36595908
177989638,0.1502475,-0.25941354,0.3628296
178013638,0.1502475,-0.25941354,0.36595908
178034639,0.1502475,-0.25941354,0.36908862
178055649,0.15621261,-0.25941354,0.36595908
178076639,0.15323006,-0.25941354,0.35970008
178098645,0.1502475,-0.25648797,0.3628296
178120639,0.15323006,-0.25941354,0.37221813
178143640,0.15621261,-0.25648797,0.36595908
178165639,0.15323006,-0.25356233,0.36595908
178186667,0.15323006,-0.25648797,0.36595908
178207640,0.15323006,-0.25648797,0.36595908
178228647,0.15621261,-0.25356233,0.36595908
178249931,0.15323006,-0.25648797,0.36595908
178271641,0.15621261,-0.25356233,0.36595908
178293685,0.15323006,-0.25356233,0.36595908
178314756,0.15919517,-0.25356233,0.36595908
178338022,0.15621261,-0.25356233,0.36908862
178360523,0.15919517,-0.25356233,0.36908862
178383112,0.15621261,-0.25356233,0.3753476
178407698,0.15621261,-0.25356233,0.3628296
178431697,0.15919517,-0.25356233,0.35970008
178455687,0.15919517,-0.25356233,0.36908862
178477690,0.16217773,-0.25356233,0.36595908
178500651,0.16217773,-0.25356233,0.36908862
178521647,0.16217773,-0.25063676,0.36595908
178544487,0.16217773,-0.25356233,0.36908862
178567239,0.15919517,-0.25063676,0.36595908
178591076,0.15919517,-0.25356233,0.37221813
178615090,0.15919517,-0.25356233,0.3628296
178639062,0.16217773,-0.25356233,0.36595908
178663073,0.15919517,-0.25063676,0.36908862
178687128,0.16516028,-0.25356233,0.36595908
178711166,0.16217773,-0.25356233,0.36908862
178735071,0.16217773,-0.25063676,0.3628296
178759093,0.16217773,-0.25063676,0.3628296
178783052,0.16217773,-0.25063676,0.36595908
178804646,0.16516028,-0.25063676,0.35657057
178825647,0.16217773,-0.24771115,0.36595908
178847648,0.16516028,-0.25063676,0.3628296
178871047,0.16814284,-0.25063676,0.35657057
178895080,0.16516028,-0.25063676,0.36595908
178919201,0.16217773,-0.25063676,0.37221813
178943062,0.16217773,-0.25063676,0.36908862
178965638,0.16516028,-0.25063676,0.3628296
178987699,0.16516028,-0.25063676,0.36908862
179009638,0.16516028,-0.25063676,0.36595908
179031924,0.16516028,-0.25063676,0.36908862
179055912,0.15919517,-0.24771115,0.36908862
179077684,0.16516028,-0.25063676,0.36908862
179100430,0.16217773,-0.25063676,0.35970008
179121678,0.16814284,-0.25063676,0.3628296
179144648,0.16516028,-0.24771115,0.3628296
179168001,0.16516028,-0.25063676,0.3628296
179191853,0.16516028,-0.25063676,0.3628296
179215836,0.16516028,-0.25063676,0.36595908
179239846,0.16516028,-0.25063676,0.36908862
179261639,0.16814284,-0.25063676,0.3628296
179284358,0.16814284,-0.25063676,0.3628296
179305679,0.16814284,-0.25356233,0.35970008
179326709,0.16814284,-0.25356233,0.3628296
179349639,0.17410795,-0.25356233,0.3628296
179372346,0.17410795,-0.25356233,0.35970008
179393688,0.17410795,-0.25063676,0.35657057
179415925,0.17410795,-0.25356233,0.35970008
179440687,0.17410795,-0.25356233,0.36595908
179463900,0.17709051,-0.25356233,0.35970008
179488706,0.18007307,-0.25648797,0.35970008
179509678,0.18007307,-0.25648797,0.35970008
179532639,0.18007307,-0.25941354,0.35344103
179554673,0.18007307,-0.25941354,0.34718204
179577688,0.18603818,-0.26233912,0.35031155
179600638,0.18305562,-0.26233912,0.35344103
179623837,0.18902074,-0.26526475,0.34092298
179647915,0.1920033,-0.26526475,0.34092298
179671847,0.1920033,-0.26819032,0.34092298
179694757,0.19498585,-0.26819032,0.334664
179717640,0.20095097,-0.27111593,0.3377935
179740369,0.19796841,-0.27404153,0.33153445
179762665,0.20095097,-0.27404153,0.32527545
179785687,0.20393352,-0.2798927,0.32840493
179808642,0.20691608,-0.2798927,0.32527545
179829643,0.20691608,-0.2798927,0.31588688
179850679,0.2128812,-0.2798927,0.31588688
179873687,0.2188463,-0.2798927,0.30962786
179895639,0.22182886,-0.28281832,0.31588688
179918718,0.22779398,-0.2798927,0.30649835
179939648,0.23077653,-0.2798927,0.30962786
179961639,0.23375909,-0.2798927,0.30336884
179983714,0.23674165,-0.2798927,0.2939803
180006720,0.24270676,-0.2798927,0.2971098
180029648,0.24270676,-0.2798927,0.2939803
180049670,0.24568932,-0.2798927,0.2939803
180071646,0.24867187,-0.28281832,0.2939803
180094662,0.25165442,-0.2798927,0.28772128
180117339,0.254637,-0.2798927,0.28772128
180139647,0.25761953,-0.27696714,0.28772128
180161642,0.2606021,-0.27696714,0.29085076
180183639,0.2606021,-0.2798927,0.28146222
180205646,0.2606021,-0.27696714,0.28146222
180226637,0.26358467,-0.27404153,0.28459176
180248641,0.26656723,-0.27404153,0.27520323
180270737,0.2755149,-0.27404153,0.27207372
180293275,0.2755149,-0.27404153,0.27833274
180315638,0.2725323,-0.27404153,0.27520323
180338667,0.27849743,-0.27111593,0.2658147
180360752,0.28147998,-0.26819032,0.26894417
180382678,0.28446257,-0.27111593,0.27207372
180405246,0.28446257,-0.26819032,0.26268518
180427647,0.28446257,-0.26819032,0.25955567
180450675,0.2934102,-0.26819032,0.25642613
180472699,0.2934102,-0.26526475,0.25955567
180494694,0.2934102,-0.26819032,0.25329664
180515681,0.2963928,-0.26819032,0.25642613
180537638,0.29937533,-0.26526475,0.25642613
180559648,0.29937533,-0.26526475,0.25329664
180582725,0.30235788,-0.26526475,0.2501671
180605170,0.30534047,-0.26233912,0.24077857
180626718,0.31130555,-0.26233912,0.24390809
180648647,0.308323,-0.26233912,0.2501671
180670678,0.31428814,-0.26233912,0.23451954
180693130,0.31727067,-0.25941354,0.24077857
180713639,0.32025322,-0.25941354,0.23139003
180735638,0.32323578,-0.25648797,0.23139003
180758675,0.32323578,-0.25356233,0.225131
180780698,0.33218345,-0.25356233,0.225131
180802102,0.33218345,-0.25063676,0.225131
180824501,0.33218345,-0.24478556,0.2220015
180847638,0.33516604,-0.24185996,0.21887198
180869545,0.33814856,-0.23893437,0.21887198
180891659,0.34113112,-0.23308317,0.21887198
180914898,0.3441137,-0.23015757,0.2220015
180938401,0.34709623,-0.22138077,0.21574245
180960487,0.3500788,-0.21552959,0.21574245
180982692,0.35306135,-0.2096784,0.21574245
181006517,0.35604393,-0.2009016,0.2220015
181029513,0.35604393,-0.19797601,0.225131
181052691,0.35902646,-0.18627362,0.23139003
181074672,0.35902646,-0.17749682,0.23451954
181096640,0.35604393,-0.16872004,0.24390809
181119639,0.36200902,-0.16286883,0.25642613
181140646,0.36200902,-0.15409206,0.24703759
181162677,0.35604393,-0.14824086,0.25955567
181184646,0.35902646,-0.14238966,0.25642613
181207639,0.35604393,-0.13361287,0.25955567
181228639,0.35604393,-0.12483609,0.2658147
181250727,0.35306135,-0.12191048,0.2658147
181271704,0.35604393,-0.11605929,0.27833274
181293645,0.35306135,-0.1102081,0.27833274
181315688,0.35604393,-0.1043569,0.27520323
181338073,0.35604393,-0.098505706,0.27207372
181360649,0.35604393,-0.09265451,0.27833274
181383681,0.35604393,-0.08387772,0.27520323
181404644,0.35902646,-0.08095213,0.27833274
181426645,0.35902646,-0.07510093,0.26894417
181448641,0.3649916,-0.06924974,0.2658147
181471639,0.3709567,-0.05754735,0.2501671
181492648,0.37393928,-0.05169616,0.23764907
181514672,0.38288692,-0.042919364,0.23764907
181535638,0.37990436,-0.034142572,0.23139003
181557638,0.3858695,-0.025365783,0.21887198
181579726,0.3918346,-0.016588992,0.20948344
181602048,0.3918346,-0.0048866044,0.20948344
181624647,0.3977997,0.0068157837,0.1969654
181647639,0.3977997,0.018518172,0.19383587
181669638,0.39481717,0.027294962,0.1969654
181691683,0.3977997,0.033146154,0.19383587
181712641,0.39481717,0.038997352,0.20322442
181735106,0.3918346,0.041922946,0.20009491
181759092,0.3918346,0.04777414,0.19070637
181779646,0.38885203,0.053625334,0.19383587
181801687,0.3918346,0.053625334,0.20009491
181823639,0.38885203,0.059476532,0.1969654
181847133,0.38885203,0.059476532,0.1969654
181868639,0.38885203,0.059476532,0.20635393
181891549,0.38885203,0.06240212,0.20009491
181911645,0.38288692,0.06240212,0.20322442
181935086,0.3858695,0.06825332,0.20009491
181956131,0.3858695,0.06532773,0.1969654
181977704,0.3858695,0.06825332,0.1969654
181999938,0.38288692,0.06532773,0.20635393
182023117,0.37990436,0.06825332,0.20322442
182044481,0.38288692,0.06532773,0.20948344
182067660,0.38288692,0.06532773,0.20322442
182089701,0.38288692,0.06532773,0.20635393
182113687,0.38288692,0.06240212,0.21261296
182136542,0.38288692,0.06240212,0.21261296
182160491,0.37990436,0.06240212,0.20635393
182183696,0.37990436,0.06532773,0.20948344
182207693,0.38288692,0.06240212,0.21574245
182231103,0.37990436,0.06240212,0.20635393
182255094,0.37990436,0.06240212,0.20948344
182279067,0.37990436,0.06240212,0.21574245
182303082,0.37990436,0.06240212,0.21887198
182327142,0.37990436,0.059476532,0.21574245
182349641,0.3769218,0.05655093,0.21887198
182372440,0.3769218,0.05655093,0.2220015
182394646,0.3769218,0.05655093,0.21887198
182418695,0.37393928,0.05655093,0.23139003
182440685,0.37393928,0.05655093,0.22826052
182463848,0.37393928,0.05655093,0.23451954
182488701,0.37393928,0.05655093,0.23139003
182511838,0.3709567,0.053625334,0.23139003
182535918,0.3709567,0.05655093,0.22826052
182559933,0.3709567,0.05655093,0.22826052
182581639,0.3709567,0.05655093,0.225131
182604311,0.36797413,0.059476532,0.225131
182625736,0.36797413,0.06240212,0.22826052
182648646,0.36797413,0.06240212,0.22826052
182672702,0.3709567,0.06240212,0.23451954
182694675,0.36797413,0.06532773,0.23139003
182717646,0.36797413,0.06532773,0.23451954
182738681,0.3649916,0.06532773,0.23451954
182761650,0.3649916,0.06532773,0.23451954
182784690,0.3649916,0.06825332,0.23451954
182807832,0.36200902,0.07117891,0.23451954
182831834,0.3649916,0.07117891,0.23451954
182855920,0.36200902,0.07117891,0.23764907
182879916,0.3649916,0.07410451,0.23139003
182902726,0.36200902,0.07410451,0.24077857
182925647,0.35604393,0.07703011,0.23764907
182948353,0.35902646,0.07703011,0.23451954
182969638,0.35902646,0.07995571,0.23451954
182991919,0.35902646,0.07995571,0.23764907
183014731,0.35306135,0.08288131,0.23764907
183037640,0.35604393,0.08288131,0.24390809
183060319,0.35604393,0.0858069,0.24077857
183081678,0.35306135,0.0858069,0.23451954
183104647,0.35306135,0.088732496,0.24390809
183125650,0.3500788,0.088732496,0.23764907
183148354,0.3500788,0.088732496,0.24390809
183170666,0.3500788,0.09165809,0.24077857
183193646,0.3500788,0.09165809,0.24390809
183215850,0.34709623,0.09165809,0.24390809
183238679,0.34709623,0.09165809,0.24703759
183259668,0.3441137,0.09165809,0.24077857
183282722,0.34709623,0.09165809,0.24703759
183303646,0.3500788,0.0945837,0.24703759
183326761,0.34709623,0.097509295,0.24077857
183347678,0.34709623,0.097509295,0.24077857
183368741,0.3441137,0.100434884,0.24390809
183390717,0.34709623,0.100434884,0.24390809
183413182,0.34709623,0.100434884,0.24077857
183435639,0.3500788,0.10336048,0.24077857
183458646,0.3500788,0.10336048,0.24077857
183479646,0.35306135,0.10628608,0.23764907
183502740,0.3500788,0.10921168,0.23451954
183525134,0.3500788,0.10921168,0.23451954
183546643,0.3500788,0.10921168,0.23451954
183567676,0.35306135,0.10921168,0.23451954
183589647,0.35306135,0.11213728,0.225131
183610698,0.35306135,0.11213728,0.23139003
183632686,0.35604393,0.11213728,0.2220015
183654649,0.35306135,0.11213728,0.225131
183677384,0.35306135,0.11506287,0.21887198
183699646,0.35306135,0.11213728,0.22826052
183722675,0.35604393,0.11506287,0.225131
183744751,0.35902646,0.11506287,0.2220015
183766675,0.35306135,0.11506287,0.2220015
183787646,0.35604393,0.11506287,0.21574245
183809646,0.35306135,0.11506287,0.2220015
183832723,0.35604393,0.11213728,0.2220015
183854687,0.35604393,0.11213728,0.2220015
183877342,0.35902646,0.11213728,0.2220015
183899694,0.35604393,0.11506287,0.21261296
183922714,0.35902646,0.11506287,0.21887198
183945691,0.35604393,0.11213728,0.2220015
183969738,0.35604393,0.11213728,0.21887198
183992691,0.35306135,0.11506287,0.21887198
184014685,0.35604393,0.11506287,0.22826052
184037170,0.35902646,0.11213728,0.21887198
184059646,0.35902646,0.11506287,0.21887198
184082667,0.35902646,0.11506287,0.21887198
184104641,0.35604393,0.11798847,0.21887198
184125639,0.35902646,0.11798847,0.21574245
184147640,0.35902646,0.11798847,0.21887198
184169641,0.35902646,0.120914064,0.21261296
184192688,0.35902646,0.120914064,0.21261296
184214683,0.35902646,0.12383967,0.20948344
184235640,0.35902646,0.12383967,0.20948344
184256696,0.35902646,0.12383967,0.20635393
184277639,0.36200902,0.12676525,0.20948344
184299639,0.36200902,0.12969086,0.20635393
184321639,0.36200902,0.13261646,0.1969654
184343677,0.35902646,0.12969086,0.1969654
184365644,0.36200902,0.13261646,0.1969654
184387639,0.36200902,0.13554205,0.1969654
184409639,0.3649916,0.13554205,0.19070637
184431638,0.36200902,0.13554205,0.20009491
184454680,0.3649916,0.13554205,0.19383587
184476649,0.3649916,0.13554205,0.19383587
184498739,0.3649916,0.13261646,0.1969654
184521639,0.36797413,0.13261646,0.18757685
184542678,0.36797413,0.13554205,0.18444735
184566677,0.36797413,0.13554205,0.18757685
184590740,0.3709567,0.13554205,0.17818831
184614741,0.3709567,0.13846765,0.17818831
184637687,0.3709567,0.14139324,0.17192928
184661701,0.3709567,0.14431885,0.16879977
184685696,0.3769218,0.14431885,0.17192928
184709639,0.3709567,0.14724444,0.16567026
184732021,0.37393928,0.14724444,0.16567026
184753679,0.3769218,0.15017003,0.16567026
184776639,0.37393928,0.15017003,0.16254073
184799104,0.3709567,0.15017003,0.15941124
184823093,0.37393928,0.15017003,0.16567026
184847153,0.37393928,0.15017003,0.15941124
184868648,0.37393928,0.15017003,0.16254073
184889648,0.37393928,0.15017003,0.16567026
184911728,0.3709567,0.15309563,0.17192928
184935649,0.3709567,0.15602122,0.15941124
184959668,0.3709567,0.15602122,0.16879977
184979641,0.3709567,0.15602122,0.16567026
185001647,0.36797413,0.15602122,0.16879977
185022515,0.36797413,0.15894683,0.16567026
185044365,0.3709567,0.15894683,0.17192928
185067712,0.36797413,0.16187242,0.1750588
185091566,0.36797413,0.15894683,0.1750588
185113646,0.3709567,0.15602122,0.16879977
185135948,0.36797413,0.15309563,0.16254073
185159938,0.36797413,0.15309563,0.17192928
185184116,0.3709567,0.15017003,0.1750588
185208005,0.3709567,0.14431885,0.17192928
185230515,0.3769218,0.14139324,0.1750588
185252452,0.3769218,0.13554205,0.17192928
185274516,0.3769218,0.13261646,0.17818831
185297651,0.37393928,0.12676525,0.18444735
185320004,0.37393928,0.12383967,0.18131782
185344490,0.37393928,0.11798847,0.19070637
185368490,0.37393928,0.11506287,0.18444735
185392486,0.3769218,0.11506287,0.17818831
185415914,0.3769218,0.11506287,0.18131782
185439073,0.3769218,0.11213728,0.18444735
185461677,0.37990436,0.11213728,0.18444735
185484691,0.37990436,0.10921168,0.18757685
185507636,0.3769218,0.10921168,0.18757685
185529647,0.37990436,0.11213728,0.18131782
185552530,0.37990436,0.10921168,0.18444735
185575908,0.37990436,0.10921168,0.18444735
185599912,0.37990436,0.11213728,0.18757685
185623994,0.37990436,0.11213728,0.18444735
185647131,0.3769218,0.10921168,0.19070637
185669646,0.3769218,0.11213728,0.17818831
185691646,0.37393928,0.11506287,0.18757685
185712738,0.37393928,0.11798847,0.18757685
185736731,0.3709567,0.11798847,0.20009491
185761537,0.36797413,0.120914064,0.19070637
185783908,0.36797413,0.12383967,0.19383587
185806639,0.3649916,0.12676525,0.19383587
185828652,0.36200902,0.12969086,0.20322442
185850639,0.36200902,0.13261646,0.20322442
185872742,0.35902646,0.13554205,0.1969654
185896762,0.35604393,0.14139324,0.20635393
185920732,0.35306135,0.14431885,0.20948344
185943862,0.3500788,0.15017003,0.225131
185966478,0.34709623,0.15309563,0.225131
185989185,0.3441137,0.15602122,0.22826052
186012440,0.33814856,0.16187242,0.2220015
186034550,0.33516604,0.16479802,0.22826052
186056735,0.33218345,0.16772363,0.23451954
186080670,0.32621837,0.17064922,0.23139003
186104742,0.32323578,0.17357482,0.23451954
186128795,0.31428814,0.179426,0.23451954
186151849,0.31130555,0.1823516,0.23764907
186174669,0.308323,0.1823516,0.24077857
