timestamp,magnetometer_ga[0],magnetometer_ga[1],magnetometer_ga[2]
1060164446,0.2270425,0.07113986,0.353289
1060188572,0.2120709,0.06814986,0.36549503
1060212455,0.2120709,0.077119835,0.38380408
1060236445,0.22105384,0.07412984,0.38075256
1060260445,0.21805952,0.07113986,0.37770107
1060282446,0.2120709,0.077119835,0.37464958
1060305754,0.22105384,0.077119835,0.37464958
1060330664,0.22105384,0.086089805,0.38380408
1060354772,0.22404817,0.07412984,0.36549503
1060378826,0.21805952,0.08010982,0.37770107
1060402619,0.22105384,0.07412984,0.38075256
1060424446,0.21805952,0.07113986,0.36549503
1060446445,0.2120709,0.07412984,0.38380408
1060468452,0.2120709,0.07412984,0.38380408
1060490536,0.21506521,0.08010982,0.3929586
1060512453,0.22105384,0.083099805,0.3868556
1060534164,0.22105384,0.083099805,0.3868556
1060554569,0.22404817,0.077119835,0.353289
1060576453,0.22105384,0.086089805,0.39601013
1060599370,0.22404817,0.08907979,0.3929586
1060622383,0.21805952,0.07412984,0.37770107
1060646367,0.21506521,0.07412984,0.37770107
1060667432,0.21805952,0.07412984,0.38075256
1060689336,0.2120709,0.08010982,0.3868556
1060714560,0.22105384,0.083099805,0.38075256
1060736493,0.22105384,0.08010982,0.34718597
1060762595,0.22105384,0.083099805,0.37464958
1060786559,0.22404817,0.086089805,0.37464958
1060810638,0.2120709,0.08010982,0.38990712
1060834805,0.21506521,0.083099805,0.3929586
1060856446,0.21506521,0.08010982,0.3563405
1060879244,0.2120709,0.092069775,0.38075256
1060902965,0.2120709,0.10402974,0.39601013
1060924501,0.21506521,0.110009715,0.38075256
1060947490,0.21506521,0.11598969,0.37159804
1060968545,0.22404817,0.118979685,0.353289
1060989536,0.2270425,0.118979685,0.3502375
1061012444,0.21506521,0.11598969,0.38075256
1061035375,0.2120709,0.110009715,0.37770107
1061057572,0.21506521,0.110009715,0.3929586
1061080445,0.21506521,0.101039745,0.37770107
1061102966,0.22404817,0.09505977,0.37159804
1061124489,0.22105384,0.09505977,0.38075256
1061145488,0.2270425,0.083099805,0.36549503
1061168445,0.22404817,0.08010982,0.38075256
1061191082,0.22105384,0.07113986,0.37159804
1061214967,0.22404817,0.07412984,0.38075256
1061239206,0.2270425,0.059179895,0.35939202
1061263501,0.22404817,0.07113986,0.37770107
1061286958,0.23003681,0.06515987,0.36854655
1061310964,0.23003681,0.059179895,0.3624435
1061332445,0.23303114,0.059179895,0.36549503
1061353488,0.23303114,0.056189906,0.36854655
1061376445,0.23901977,0.050209925,0.36549503
1061399278,0.23602545,0.059179895,0.38990712
1061421485,0.23303114,0.059179895,0.3868556
1061443922,0.23602545,0.050209925,0.3624435
1061467922,0.23602545,0.053199917,0.38075256
1061490447,0.24500841,0.050209925,0.36549503
1061513573,0.2420141,0.053199917,0.38990712
1061536087,0.2420141,0.047219936,0.36549503
1061557445,0.24500841,0.050209925,0.37464958
1061580013,0.23602545,0.050209925,0.36854655
1061604030,0.24500841,0.050209925,0.37770107
1061625546,0.23901977,0.04422995,0.37464958
1061648387,0.24500841,0.04422995,0.36549503
1061669532,0.2420141,0.04123996,0.3624435
1061691981,0.2420141,0.04123996,0.3624435
1061715993,0.23901977,0.047219936,0.37770107
1061739743,0.24800274,0.047219936,0.36854655
1061764023,0.2420141,0.04422995,0.36854655
1061787766,0.2420141,0.053199917,0.38075256
1061809570,0.2420141,0.04422995,0.37464958
1061832097,0.24500841,0.04422995,0.37159804
1061853514,0.23901977,0.03824997,0.3563405
1061875762,0.24500841,0.03824997,0.3563405
1061899755,0.23602545,0.04422995,0.37770107
1061923849,0.24500841,0.04422995,0.36549503
1061947841,0.24500841,0.04422995,0.3624435
1061970445,0.23901977,0.04422995,0.37159804
1061992993,0.24500841,0.04422995,0.37159804
1062015445,0.24800274,0.04123996,0.37464958
1062037557,0.24500841,0.04422995,0.37464958
1062060693,0.23901977,0.047219936,0.38380408
1062083452,0.23901977,0.050209925,0.38075256
1062106501,0.23901977,0.047219936,0.38380408
1062128940,0.2420141,0.04123996,0.36549503
1062150455,0.23901977,0.050209925,0.38380408
1062172723,0.23901977,0.04123996,0.3624435
1062196894,0.23901977,0.050209925,0.38075256
1062218455,0.2420141,0.04422995,0.37464958
1062240984,0.24800274,0.047219936,0.37464958
1062262537,0.2420141,0.047219936,0.36854655
1062283485,0.2420141,0.04422995,0.3624435
1062306501,0.23901977,0.050209925,0.38380408
1062328986,0.23901977,0.04422995,0.37770107
1062350498,0.23602545,0.04422995,0.37464958
1062372621,0.23602545,0.047219936,0.37770107
1062396722,0.23901977,0.047219936,0.37770107
1062420755,0.2420141,0.04123996,0.3563405
1062442453,0.2420141,0.047219936,0.37770107
1062465009,0.23303114,0.047219936,0.38075256
1062486493,0.23602545,0.050209925,0.3868556
1062507495,0.23602545,0.053199917,0.38380408
1062528540,0.23602545,0.050209925,0.38380408
1062552451,0.23303114,0.050209925,0.37770107
1062576452,0.23901977,0.050209925,0.37464958
1062600451,0.23303114,0.047219936,0.36549503
1062622445,0.23303114,0.047219936,0.36854655
1062644446,0.23003681,0.050209925,0.38075256
1062668453,0.23901977,0.047219936,0.38075256
1062690445,0.23602545,0.04422995,0.37464958
1062712444,0.23003681,0.047219936,0.3868556
1062734485,0.23003681,0.04422995,0.37464958
1062755490,0.23602545,0.047219936,0.37770107
1062777768,0.23901977,0.04422995,0.37770107
1062800445,0.23602545,0.04422995,0.38075256
1062822451,0.23602545,0.04422995,0.3868556
1062843502,0.23303114,0.04123996,0.36549503
1062865753,0.23602545,0.04422995,0.37159804
1062888444,0.23303114,0.04422995,0.38380408
1062912445,0.23602545,0.04123996,0.36549503
1062936452,0.23602545,0.050209925,0.3868556
1062960484,0.23602545,0.04422995,0.36854655
1062984452,0.23003681,0.047219936,0.38380408
1063008455,0.23901977,0.04123996,0.35939202
1063032445,0.23602545,0.03824997,0.36549503
1063054445,0.23901977,0.03824997,0.36549503
1063074493,0.23901977,0.04123996,0.35939202
1063094445,0.23901977,0.03824997,0.35939202
1063118294,0.23602545,0.03824997,0.36549503
1063140453,0.23602545,0.03525998,0.36549503
1063162533,0.23602545,0.04123996,0.3624435
1063184446,0.23602545,0.03824997,0.35939202
1063206380,0.23901977,0.03824997,0.3563405
1063227500,0.23602545,0.04123996,0.3624435
1063250729,0.23602545,0.04123996,0.35939202
1063272533,0.23901977,0.04123996,0.36549503
1063298625,0.23901977,0.04123996,0.3563405
1063320454,0.2420141,0.04422995,0.3563405
1063342445,0.2420141,0.04123996,0.3563405
1063362494,0.2420141,0.04123996,0.36549503
1063386571,0.23901977,0.03824997,0.3563405
1063410485,0.2420141,0.04123996,0.35939202
1063434622,0.23901977,0.04123996,0.35939202
1063459219,0.23901977,0.04422995,0.3624435
1063482620,0.2420141,0.04422995,0.35939202
1063506521,0.2420141,0.04123996,0.3563405
1063530498,0.2420141,0.04422995,0.3563405
1063554512,0.2420141,0.04123996,0.3563405
1063578687,0.2420141,0.04422995,0.3563405
1063600453,0.2420141,0.04123996,0.35939202
1063623591,0.2420141,0.04123996,0.35939202
1063648041,0.23901977,0.04422995,0.36549503
1063671473,0.23901977,0.04422995,0.35939202
1063692453,0.23901977,0.04422995,0.3563405
1063714967,0.23901977,0.04422995,0.353289
1063739114,0.23901977,0.047219936,0.3502375
1063763095,0.23901977,0.04422995,0.3563405
1063784445,0.23901977,0.047219936,0.3563405
1063807277,0.2420141,0.047219936,0.35939202
1063831295,0.23602545,0.047219936,0.35939202
1063855336,0.23901977,0.047219936,0.35939202
1063879497,0.23602545,0.047219936,0.35939202
1063903319,0.23602545,0.050209925,0.35939202
1063927401,0.23303114,0.050209925,0.35939202
1063951454,0.23003681,0.053199917,0.3624435
1063973554,0.23003681,0.050209925,0.3624435
1063996492,0.23303114,0.050209925,0.35939202
1064019454,0.23303114,0.050209925,0.3624435
1064041489,0.23003681,0.050209925,0.36549503
1064064452,0.23003681,0.050209925,0.35939202
1064087336,0.2270425,0.053199917,0.36549503
1064109488,0.2270425,0.053199917,0.3624435
1064132490,0.23003681,0.053199917,0.35939202
1064154444,0.23003681,0.053199917,0.3563405
1064177610,0.23003681,0.050209925,0.3624435
1064200453,0.23003681,0.053199917,0.35939202
1064222452,0.23003681,0.056189906,0.3563405
1064245478,0.23303114,0.056189906,0.35939202
1064267762,0.23003681,0.056189906,0.353289
1064291981,0.23003681,0.053199917,0.3624435
1064315762,0.2270425,0.053199917,0.35939202
1064337535,0.2270425,0.053199917,0.3624435
1064360137,0.23003681,0.050209925,0.35939202
1064381624,0.23003681,0.050209925,0.3624435
1064404454,0.2270425,0.050209925,0.3624435
1064427918,0.2270425,0.050209925,0.3624435
1064451913,0.2270425,0.053199917,0.36854655
1064475974,0.2270425,0.050209925,0.36549503
1064499896,0.23003681,0.050209925,0.3624435
1064522445,0.2270425,0.050209925,0.36549503
1064545618,0.2270425,0.047219936,0.3563405
1064568445,0.23303114,0.047219936,0.3624435
1064590452,0.23003681,0.047219936,0.3624435
1064613479,0.23303114,0.047219936,0.36549503
1064635760,0.23003681,0.047219936,0.3624435
1064659831,0.2270425,0.047219936,0.35939202
1064683914,0.23003681,0.047219936,0.36549503
1064704936,0.23303114,0.047219936,0.3624435
1064727444,0.23303114,0.04422995,0.3624435
1064749520,0.23003681,0.04422995,0.3624435
1064772563,0.23003681,0.04422995,0.36549503
1064796696,0.23003681,0.04422995,0.36549503
1064820792,0.2270425,0.04422995,0.36549503
1064844778,0.23003681,0.04123996,0.36549503
1064868726,0.23003681,0.04123996,0.36854655
1064890453,0.2270425,0.04422995,0.36549503
1064912933,0.23003681,0.04422995,0.36549503
1064934534,0.2270425,0.047219936,0.36549503
1064956711,0.23003681,0.047219936,0.35939202
1064979455,0.22404817,0.047219936,0.35939202
1065002451,0.2270425,0.047219936,0.35939202
1065024889,0.2270425,0.04422995,0.3624435
1065047445,0.22404817,0.04422995,0.37159804
1065070489,0.2270425,0.04422995,0.37159804
1065092730,0.2270425,0.04422995,0.36549503
1065115452,0.2270425,0.04422995,0.36549503
1065138543,0.2270425,0.04422995,0.36549503
1065159484,0.22404817,0.04422995,0.36549503
1065182444,0.2270425,0.04422995,0.36854655
1065204717,0.23003681,0.04422995,0.3624435
1065227453,0.23003681,0.047219936,0.36549503
1065250454,0.23003681,0.047219936,0.35939202
1065272444,0.23003681,0.04123996,0.3624435
1065294448,0.23003681,0.04422995,0.36854655
1065316445,0.2270425,0.04422995,0.36549503
1065340453,0.2270425,0.04123996,0.36854655
1065362454,0.2270425,0.04123996,0.36854655
1065384454,0.2270425,0.04422995,0.37464958
1065408450,0.2270425,0.04422995,0.37159804
1065432445,0.2270425,0.04422995,0.36549503
1065456445,0.22404817,0.04422995,0.36854655
1065480455,0.22404817,0.04422995,0.36854655
1065503463,0.22404817,0.04422995,0.37464958
1065525663,0.22404817,0.04422995,0.37464958
1065548453,0.22404817,0.04123996,0.37159804
1065572485,0.22404817,0.04422995,0.36854655
1065596451,0.22105384,0.04123996,0.36549503
1065619446,0.22105384,0.04422995,0.36854655
1065641496,0.21805952,0.04422995,0.36549503
1065664444,0.22105384,0.04422995,0.37159804
1065688445,0.22105384,0.04123996,0.37159804
1065711497,0.22105384,0.04422995,0.36549503
1065732444,0.22404817,0.04422995,0.36854655
1065755492,0.22105384,0.04422995,0.37159804
1065776492,0.22105384,0.04422995,0.37464958
1065800444,0.22105384,0.047219936,0.36854655
1065823295,0.22105384,0.047219936,0.37464958
1065847356,0.22105384,0.04422995,0.37159804
1065871407,0.22404817,0.04422995,0.37464958
1065895438,0.22105384,0.04422995,0.36549503
1065919491,0.22105384,0.04422995,0.36854655
1065941519,0.22105384,0.047219936,0.36854655
1065964444,0.22404817,0.047219936,0.37159804
1065987262,0.22105384,0.04422995,0.37159804
1066011259,0.22105384,0.047219936,0.3624435
1066035258,0.22105384,0.047219936,0.37464958
1066056445,0.22105384,0.04422995,0.37159804
1066077489,0.22404817,0.047219936,0.36549503
1066100489,0.22105384,0.047219936,0.35939202
1066123451,0.22105384,0.047219936,0.35939202
1066147142,0.22404817,0.04422995,0.35939202
1066171271,0.22404817,0.04422995,0.3624435
1066195296,0.22105384,0.04422995,0.36854655
1066217488,0.22105384,0.04123996,0.37159804
1066238456,0.2270425,0.04422995,0.36854655
1066261476,0.22404817,0.04422995,0.37159804
1066284039,0.22404817,0.04422995,0.36549503
1066305481,0.22404817,0.04123996,0.3624435
1066326456,0.22404817,0.04123996,0.36549503
1066349444,0.2270425,0.04123996,0.36549503
1066372083,0.22404817,0.04123996,0.36854655
1066396041,0.2270425,0.04422995,0.36549503
1066419931,0.2270425,0.047219936,0.36549503
1066443762,0.2270425,0.04422995,0.3624435
1066467919,0.23003681,0.047219936,0.36854655
1066491965,0.2270425,0.047219936,0.3624435
1066514453,0.2270425,0.047219936,0.35939202
1066537478,0.23003681,0.050209925,0.3563405
1066560126,0.23003681,0.047219936,0.3563405
1066582453,0.23003681,0.047219936,0.353289
1066605557,0.23303114,0.047219936,0.35939202
1066628008,0.23003681,0.050209925,0.36854655
1066651871,0.23303114,0.050209925,0.36549503
1066674446,0.23303114,0.047219936,0.3624435
1066697575,0.23303114,0.047219936,0.3563405
1066720137,0.23303114,0.050209925,0.35939202
1066741581,0.23602545,0.047219936,0.353289
1066763455,0.23303114,0.047219936,0.3502375
1066786499,0.23602545,0.047219936,0.35939202
1066809113,0.23303114,0.047219936,0.3624435
1066830445,0.23901977,0.050209925,0.35939202
1066852793,0.23602545,0.047219936,0.35939202
1066876721,0.23602545,0.050209925,0.3624435
1066900782,0.23602545,0.050209925,0.35939202
1066924890,0.23303114,0.047219936,0.35939202
1066947452,0.23303114,0.047219936,0.3563405
1066970445,0.23303114,0.050209925,0.35939202
1066992898,0.23602545,0.050209925,0.35939202
1067015445,0.23303114,0.050209925,0.353289
1067038456,0.23303114,0.050209925,0.3563405
1067061001,0.23003681,0.047219936,0.35939202
1067083444,0.23303114,0.047219936,0.3563405
1067106445,0.23303114,0.047219936,0.3624435
1067127447,0.23303114,0.047219936,0.36549503
1067150489,0.23003681,0.050209925,0.36549503
1067172713,0.23303114,0.047219936,0.36549503
1067194491,0.23003681,0.050209925,0.3624435
1067215454,0.23003681,0.047219936,0.35939202
1067238444,0.23303114,0.047219936,0.36549503
1067260564,0.23003681,0.04422995,0.36854655
1067283455,0.23003681,0.04422995,0.3563405
1067306533,0.23003681,0.047219936,0.36549503
1067327497,0.2270425,0.047219936,0.35939202
1067348483,0.2270425,0.047219936,0.3624435
1067372445,0.23003681,0.047219936,0.3624435
1067396445,0.23003681,0.047219936,0.36854655
1067420452,0.2270425,0.047219936,0.3624435
1067442444,0.23003681,0.047219936,0.36854655
1067464452,0.23003681,0.047219936,0.36549503
1067488453,0.2270425,0.050209925,0.36549503
1067512491,0.2270425,0.050209925,0.35939202
1067536453,0.23003681,0.053199917,0.3624435
1067560444,0.23003681,0.053199917,0.36549503
1067584445,0.2270425,0.053199917,0.35939202
1067606446,0.2270425,0.053199917,0.35939202
1067628445,0.23003681,0.053199917,0.35939202
1067652446,0.23003681,0.053199917,0.35939202
1067674445,0.23003681,0.053199917,0.3624435
1067696445,0.23003681,0.053199917,0.3624435
1067720452,0.23003681,0.053199917,0.3563405
1067744452,0.23303114,0.050209925,0.35939202
1067768453,0.23303114,0.050209925,0.3624435
1067790454,0.23303114,0.050209925,0.3624435
1067811445,0.23003681,0.050209925,0.353289
1067831491,0.23003681,0.047219936,0.3624435
1067852458,0.23003681,0.050209925,0.3624435
1067874946,0.23003681,0.050209925,0.3563405
1067899253,0.23003681,0.050209925,0.3624435
1067923177,0.23003681,0.050209925,0.3624435
1067947112,0.2270425,0.050209925,0.35939202
1067971076,0.23003681,0.050209925,0.35939202
1067993510,0.23303114,0.050209925,0.35939202
1068016445,0.23003681,0.050209925,0.35939202
1068037575,0.23003681,0.050209925,0.36549503
1068063679,0.23303114,0.050209925,0.3624435
1068087357,0.23303114,0.050209925,0.35939202
1068109575,0.23303114,0.050209925,0.353289
1068131176,0.23303114,0.050209925,0.353289
1068155038,0.23303114,0.047219936,0.3563405
1068179135,0.23303114,0.050209925,0.3624435
1068203049,0.23003681,0.050209925,0.35939202
1068224453,0.23303114,0.050209925,0.3563405
1068245483,0.23303114,0.050209925,0.3563405
1068268542,0.23602545,0.047219936,0.3624435
1068291744,0.23303114,0.047219936,0.35939202
1068313494,0.23303114,0.047219936,0.3624435
1068335453,0.23303114,0.047219936,0.35939202
1068357561,0.23303114,0.050209925,0.35939202
1068378483,0.23303114,0.047219936,0.3563405
1068399484,0.23602545,0.047219936,0.3624435
1068422499,0.23303114,0.047219936,0.36549503
1068444719,0.23303114,0.050209925,0.3624435
1068466489,0.23303114,0.047219936,0.35939202
1068489047,0.23303114,0.047219936,0.35939202
1068511453,0.23602545,0.047219936,0.35939202
1068534445,0.23303114,0.047219936,0.35939202
1068556747,0.23303114,0.050209925,0.3563405
1068580635,0.23303114,0.050209925,0.35939202
1068603491,0.23303114,0.047219936,0.3563405
1068626498,0.23602545,0.047219936,0.36549503
1068648948,0.23303114,0.047219936,0.35939202
1068671452,0.23602545,0.047219936,0.35939202
1068694490,0.23901977,0.047219936,0.3563405
1068716444,0.23602545,0.047219936,0.353289
1068738445,0.23602545,0.047219936,0.3502375
1068760445,0.23901977,0.04422995,0.3624435
1068784453,0.23901977,0.04422995,0.35939202
1068806452,0.23901977,0.04422995,0.353289
1068828451,0.23602545,0.047219936,0.36854655
1068852453,0.23602545,0.047219936,0.35939202
1068876445,0.23602545,0.047219936,0.3624435
1068900445,0.23602545,0.047219936,0.3563405
1068922446,0.23602545,0.047219936,0.35939202
1068944445,0.23602545,0.04422995,0.36549503
1068968453,0.23602545,0.04422995,0.3624435
1068990453,0.23602545,0.04123996,0.3624435
1069012454,0.23602545,0.04422995,0.35939202
1069036444,0.23303114,0.04422995,0.3624435
1069059446,0.23303114,0.04422995,0.36549503
1069081487,0.23602545,0.04422995,0.3624435
1069104451,0.23901977,0.04422995,0.3624435
1069128444,0.23303114,0.04422995,0.36549503
1069152445,0.23602545,0.04422995,0.3563405
1069176491,0.23602545,0.04422995,0.35939202
1069200445,0.23303114,0.04422995,0.36549503
1069224445,0.23303114,0.04422995,0.35939202
1069248455,0.23602545,0.04123996,0.36549503
1069271417,0.23602545,0.04123996,0.3624435
1069293494,0.23303114,0.04123996,0.35939202
1069317477,0.23602545,0.04123996,0.36549503
1069341486,0.23602545,0.04123996,0.3624435
1069364498,0.23602545,0.03824997,0.36549503
1069385626,0.23602545,0.03824997,0.35939202
1069408443,0.23602545,0.03824997,0.36549503
1069429495,0.23602545,0.03525998,0.3624435
1069452489,0.23602545,0.03525998,0.3624435
1069475452,0.23602545,0.032269992,0.36549503
1069499297,0.23901977,0.032269992,0.3624435
1069522960,0.2420141,0.032269992,0.3624435
1069547013,0.23901977,0.032269992,0.35939202
1069571123,0.23901977,0.026290013,0.35939202
1069594965,0.2420141,0.026290013,0.36549503
1069619054,0.23901977,0.026290013,0.35939202
1069642960,0.23901977,0.026290013,0.3624435
1069664444,0.23901977,0.026290013,0.36549503
1069685492,0.23602545,0.026290013,0.3624435
1069707921,0.23901977,0.026290013,0.36549503
1069731910,0.23602545,0.029280003,0.3624435
1069756028,0.23602545,0.026290013,0.35939202
1069779982,0.23602545,0.026290013,0.36549503
1069804073,0.23602545,0.026290013,0.37159804
1069826445,0.23003681,0.026290013,0.36549503
1069848444,0.23602545,0.026290013,0.36549503
1069870445,0.23303114,0.029280003,0.36854655
1069893444,0.23602545,0.026290013,0.3624435
1069915762,0.23303114,0.029280003,0.3624435
1069938453,0.23303114,0.032269992,0.35939202
1069961521,0.23003681,0.029280003,0.36549503
1069982496,0.23003681,0.029280003,0.36549503
1070005479,0.23602545,0.029280003,0.36549503
1070028022,0.23303114,0.032269992,0.36549503
1070049483,0.23003681,0.032269992,0.36549503
1070070454,0.23303114,0.032269992,0.36549503
1070093480,0.23003681,0.032269992,0.35939202
1070116005,0.23003681,0.032269992,0.35939202
1070137477,0.23003681,0.03525998,0.3624435
1070158455,0.23303114,0.032269992,0.37159804
1070181479,0.23003681,0.03525998,0.3624435
1070203994,0.23303114,0.032269992,0.36549503
1070226490,0.23303114,0.029280003,0.3624435
1070249017,0.23303114,0.026290013,0.3624435
1070270484,0.23003681,0.026290013,0.36549503
1070291484,0.23602545,0.026290013,0.36854655
1070314452,0.23303114,0.020310035,0.3624435
1070337071,0.23303114,0.020310035,0.36549503
1070359444,0.23602545,0.017320044,0.36549503
1070382445,0.23901977,0.014330056,0.36549503
1070404904,0.23602545,0.014330056,0.3624435
1070428838,0.24500841,0.008350077,0.3563405
1070452794,0.2420141,0.0053600874,0.3563405
1070475452,0.25099704,0.0023700981,0.36549503
1070499540,0.24800274,0.0023700981,0.3502375
1070522445,0.2569857,-0.0036098803,0.3502375
1070544951,0.25998002,-0.0036098803,0.34718597
1070567446,0.26297432,-0.0065998696,0.34718597
1070590445,0.26596868,-0.0065998696,0.34413448
1070612819,0.27195728,-0.0065998696,0.34413448
1070635507,0.27495164,-0.0065998696,0.33497995
1070658445,0.27794594,-0.009589859,0.3288769
1070681040,0.28094026,-0.009589859,0.3319284
1070702445,0.28393456,-0.009589859,0.3288769
1070724900,0.28692892,-0.012579849,0.3288769
1070748937,0.28992322,-0.012579849,0.3288769
1070772463,0.29291752,-0.012579849,0.3258254
1070796451,0.29291752,-0.015569838,0.3227739
1070820454,0.29591188,-0.015569838,0.31972238
1070843491,0.29890618,-0.015569838,0.3227739
1070865645,0.29890618,-0.015569838,0.3227739
1070887456,0.29890618,-0.015569838,0.31056786
1070908445,0.30788916,-0.018559827,0.31667086
1070931451,0.30489483,-0.015569838,0.31361938
1070953619,0.30489483,-0.018559827,0.31361938
1070978425,0.30489483,-0.018559827,0.31361938
1071002422,0.31088346,-0.018559827,0.31667086
1071026514,0.31387776,-0.018559827,0.31361938
1071050420,0.31687212,-0.021549817,0.30751634
1071072454,0.31387776,-0.021549817,0.30446485
1071093863,0.31387776,-0.021549817,0.3014133
1071117804,0.31687212,-0.024539806,0.31361938
1071140342,0.31687212,-0.021549817,0.30446485
1071164483,0.31687212,-0.024539806,0.30446485
1071188445,0.31687212,-0.024539806,0.3014133
1071212452,0.31986642,-0.024539806,0.3014133
1071236445,0.32286075,-0.024539806,0.30446485
1071260452,0.32286075,-0.024539806,0.2983618
1071284444,0.31986642,-0.021549817,0.29531032
1071308451,0.32286075,-0.021549817,0.3014133
1071332454,0.32286075,-0.021549817,0.2922588
1071353576,0.32286075,-0.024539806,0.2983618
1071376455,0.32585508,-0.021549817,0.29531032
1071397488,0.32585508,-0.024539806,0.2983618
1071423418,0.3288494,-0.024539806,0.2922588
1071447983,0.3288494,-0.024539806,0.2922588
1071471401,0.3318437,-0.024539806,0.2922588
1071495439,0.3288494,-0.024539806,0.28615576
1071520261,0.3318437,-0.024539806,0.28615576
1071544318,0.3318437,-0.024539806,0.2922588
1071568260,0.3318437,-0.024539806,0.28310427
1071592113,0.3318437,-0.024539806,0.2922588
1071616167,0.3318437,-0.024539806,0.29531032
1071640166,0.334838,-0.024539806,0.2922588
1071664157,0.34082666,-0.024539806,0.2922588
1071688140,0.33783236,-0.024539806,0.28615576
1071712148,0.33783236,-0.024539806,0.28310427
1071736204,0.33783236,-0.021549817,0.28615576
1071758543,0.33783236,-0.024539806,0.28005275
1071781490,0.343821,-0.024539806,0.28005275
1071804028,0.343821,-0.024539806,0.27700123
1071824454,0.343821,-0.024539806,0.27700123
1071846452,0.34681532,-0.024539806,0.27394974
1071868820,0.34681532,-0.021549817,0.27394974
1071892883,0.34681532,-0.024539806,0.27089822
1071916043,0.343821,-0.024539806,0.27089822
1071938454,0.34980965,-0.021549817,0.27394974
1071961451,0.343821,-0.024539806,0.27089822
1071982444,0.34980965,-0.024539806,0.27089822
1072004985,0.34980965,-0.021549817,0.27700123
1072028080,0.34681532,-0.024539806,0.27089822
1072052006,0.34980965,-0.024539806,0.2647952
1072076014,0.34980965,-0.021549817,0.27089822
1072100066,0.34980965,-0.021549817,0.27394974
1072123999,0.34980965,-0.021549817,0.27089822
1072148054,0.34681532,-0.021549817,0.27394974
1072172122,0.34980965,-0.021549817,0.2678467
1072196067,0.34681532,-0.021549817,0.2678467
1072220005,0.34980965,-0.021549817,0.27700123
1072244067,0.34980965,-0.021549817,0.27394974
1072265483,0.34980965,-0.021549817,0.27089822
1072286454,0.34980965,-0.021549817,0.2617437
1072310501,0.35280395,-0.021549817,0.27089822
1072332934,0.35280395,-0.021549817,0.2678467
1072355454,0.35280395,-0.021549817,0.2647952
1072378590,0.35280395,-0.021549817,0.2678467
1072401580,0.35280395,-0.021549817,0.2678467
1072424849,0.35280395,-0.021549817,0.2617437
1072447452,0.35280395,-0.021549817,0.27089822
1072471495,0.34980965,-0.021549817,0.2647952
1072494445,0.34681532,-0.018559827,0.27089822
1072516970,0.34681532,-0.021549817,0.27089822
1072538445,0.343821,-0.018559827,0.2678467
1072560724,0.343821,-0.021549817,0.27089822
1072584722,0.34082666,-0.018559827,0.28310427
1072607499,0.33783236,-0.021549817,0.28310427
1072631504,0.33783236,-0.021549817,0.28920728
1072655490,0.334838,-0.021549817,0.28615576
1072679492,0.334838,-0.021549817,0.28615576
1072702445,0.3288494,-0.018559827,0.28615576
1072725706,0.3288494,-0.021549817,0.28920728
1072749768,0.32585508,-0.018559827,0.2922588
1072773735,0.32585508,-0.021549817,0.2922588
1072797760,0.32286075,-0.021549817,0.2983618
1072822091,0.32286075,-0.021549817,0.2983618
1072846089,0.31986642,-0.021549817,0.2983618
1072868452,0.31687212,-0.021549817,0.3014133
1072891493,0.31687212,-0.021549817,0.29531032
1072913682,0.31687212,-0.021549817,0.30446485
1072936451,0.31387776,-0.024539806,0.2983618
1072959452,0.31387776,-0.021549817,0.31056786
1072981798,0.31088346,-0.021549817,0.30751634
1073004453,0.31088346,-0.021549817,0.31361938
1073028445,0.30788916,-0.018559827,0.31056786
1073052452,0.30489483,-0.018559827,0.31361938
1073076445,0.30788916,-0.018559827,0.30751634
1073100485,0.3019005,-0.015569838,0.31667086
1073124444,0.3019005,-0.018559827,0.31056786
1073148452,0.3019005,-0.018559827,0.31667086
1073172453,0.3019005,-0.015569838,0.31972238
1073196459,0.29890618,-0.018559827,0.31972238
1073220452,0.3019005,-0.018559827,0.3227739
1073244445,0.29591188,-0.018559827,0.31972238
1073267495,0.29890618,-0.018559827,0.3227739
1073289648,0.29591188,-0.018559827,0.31972238
1073312490,0.29591188,-0.018559827,0.3227739
1073335445,0.29291752,-0.018559827,0.31972238
1073357883,0.3019005,-0.018559827,0.3288769
1073380448,0.29591188,-0.018559827,0.31972238
1073404454,0.29591188,-0.018559827,0.3227739
1073427445,0.29591188,-0.015569838,0.3227739
1073450491,0.29591188,-0.018559827,0.3258254
1073474446,0.29291752,-0.015569838,0.3258254
1073496445,0.29591188,-0.015569838,0.31667086
1073518612,0.29291752,-0.015569838,0.31972238
1073540502,0.29591188,-0.012579849,0.3227739
1073562323,0.29591188,-0.015569838,0.31972238
1073586382,0.29291752,-0.012579849,0.3258254
1073610396,0.29291752,-0.015569838,0.31972238
1073634499,0.29591188,-0.012579849,0.31972238
1073658450,0.29591188,-0.015569838,0.31972238
1073679445,0.29291752,-0.012579849,0.3258254
1073702537,0.29591188,-0.009589859,0.3227739
1073724453,0.29291752,-0.012579849,0.31972238
1073746497,0.29591188,-0.009589859,0.31667086
1073767446,0.29591188,-0.015569838,0.3227739
1073790618,0.29291752,-0.015569838,0.31667086
1073814616,0.29591188,-0.012579849,0.31972238
1073836488,0.29291752,-0.015569838,0.3258254
1073859491,0.29591188,-0.015569838,0.31972238
1073882448,0.29291752,-0.015569838,0.31667086
1073906471,0.29591188,-0.012579849,0.31972238
1073930458,0.29291752,-0.015569838,0.31972238
1073954495,0.29591188,-0.012579849,0.3258254
1073975451,0.29291752,-0.015569838,0.31972238
1073999496,0.29291752,-0.012579849,0.3227739
1074023395,0.28992322,-0.015569838,0.3227739
1074047444,0.29291752,-0.012579849,0.3258254
1074069541,0.28992322,-0.015569838,0.3227739
1074092492,0.29291752,-0.015569838,0.3227739
1074115453,0.28992322,-0.015569838,0.31972238
1074139214,0.29291752,-0.015569838,0.3227739
1074163122,0.28992322,-0.018559827,0.3288769
1074184494,0.29591188,-0.015569838,0.3288769
1074207460,0.29291752,-0.018559827,0.3258254
1074231448,0.29291752,-0.018559827,0.3258254
1074255636,0.28992322,-0.018559827,0.3227739
1074277568,0.29591188,-0.018559827,0.31972238
1074300444,0.29291752,-0.018559827,0.31972238
1074323215,0.29591188,-0.018559827,0.31972238
1074347183,0.28992322,-0.018559827,0.31972238
1074371236,0.29291752,-0.021549817,0.3288769
1074392455,0.28992322,-0.018559827,0.31972238
1074415341,0.29291752,-0.021549817,0.3258254
1074437485,0.28992322,-0.018559827,0.33497995
1074460500,0.29291752,-0.021549817,0.3227739
1074483112,0.28992322,-0.018559827,0.3258254
1074507248,0.28992322,-0.018559827,0.3258254
1074531445,0.28992322,-0.018559827,0.3227739
1074553483,0.28692892,-0.018559827,0.3288769
1074576299,0.28992322,-0.018559827,0.3319284
1074598444,0.28692892,-0.018559827,0.33497995
1074621482,0.28692892,-0.021549817,0.3288769
1074644018,0.28692892,-0.018559827,0.3319284
1074668053,0.28393456,-0.021549817,0.3319284
1074691958,0.28692892,-0.021549817,0.3288769
1074716007,0.28393456,-0.021549817,0.33497995
1074739922,0.28094026,-0.024539806,0.33497995
1074762462,0.28692892,-0.024539806,0.33497995
1074785451,0.28393456,-0.021549817,0.3288769
1074808193,0.28692892,-0.024539806,0.33497995
1074829444,0.28692892,-0.021549817,0.33497995
1074852016,0.28992322,-0.024539806,0.3319284
1074876115,0.28393456,-0.024539806,0.33803144
1074900056,0.28393456,-0.024539806,0.33497995
1074924103,0.28692892,-0.024539806,0.3288769
1074948145,0.28393456,-0.021549817,0.31972238
1074970457,0.28692892,-0.021549817,0.3258254
1074993575,0.28393456,-0.021549817,0.3258254
1075016135,0.28692892,-0.024539806,0.3319284
1075037559,0.28692892,-0.024539806,0.33497995
1075060500,0.28692892,-0.024539806,0.3288769
1075084501,0.28692892,-0.021549817,0.3288769
1075106458,0.28692892,-0.021549817,0.3227739
1075127492,0.28692892,-0.024539806,0.3319284
1075148838,0.28692892,-0.024539806,0.3227739
1075171484,0.28692892,-0.024539806,0.33497995
1075194456,0.28393456,-0.024539806,0.3288769
1075216977,0.28692892,-0.024539806,0.3319284
1075239495,0.28094026,-0.021549817,0.3288769
1075263501,0.28393456,-0.024539806,0.33497995
1075287445,0.28692892,-0.024539806,0.34108293
1075310493,0.28094026,-0.027529795,0.3288769
1075332788,0.28692892,-0.024539806,0.3319284
1075356856,0.28393456,-0.024539806,0.3288769
1075378540,0.28692892,-0.027529795,0.33803144
1075401001,0.28393456,-0.024539806,0.33497995
1075423452,0.28692892,-0.027529795,0.3288769
1075446498,0.28692892,-0.024539806,0.3319284
1075467455,0.28393456,-0.027529795,0.33497995
1075490454,0.28692892,-0.027529795,0.3319284
1075512969,0.28692892,-0.027529795,0.3258254
1075535444,0.28692892,-0.027529795,0.33497995
1075558455,0.28393456,-0.024539806,0.33497995
1075580742,0.28393456,-0.027529795,0.33497995
1075604734,0.28692892,-0.027529795,0.3319284
1075628811,0.28992322,-0.027529795,0.33497995
1075651452,0.28692892,-0.030519783,0.3319284
1075674444,0.28692892,-0.027529795,0.3288769
1075696452,0.28393456,-0.030519783,0.33497995
1075720446,0.28992322,-0.027529795,0.33497995
1075744445,0.28692892,-0.027529795,0.3319284
1075767492,0.28393456,-0.030519783,0.3258254
1075789634,0.28692892,-0.030519783,0.3319284
1075812499,0.28692892,-0.030519783,0.3288769
1075836497,0.28692892,-0.033509772,0.33803144
1075860499,0.28692892,-0.030519783,0.3319284
1075882445,0.28393456,-0.030519783,0.3319284
1075904444,0.28692892,-0.033509772,0.33497995
1075928454,0.28393456,-0.030519783,0.34108293
1075952492,0.28692892,-0.030519783,0.3319284
1075976444,0.28692892,-0.033509772,0.33803144
1075999498,0.28692892,-0.033509772,0.34108293
1076021610,0.28393456,-0.033509772,0.33497995
1076043492,0.28692892,-0.030519783,0.3227739
1076064452,0.28692892,-0.030519783,0.3258254
1076088453,0.28992322,-0.030519783,0.3319284
1076112453,0.28692892,-0.030519783,0.3319284
1076136493,0.28393456,-0.030519783,0.3288769
1076160451,0.28692892,-0.033509772,0.33803144
1076184445,0.28992322,-0.033509772,0.33497995
1076208452,0.28692892,-0.030519783,0.3258254
1076232455,0.28692892,-0.030519783,0.3319284
1076253488,0.28692892,-0.033509772,0.33497995
1076276452,0.28393456,-0.033509772,0.33803144
1076299345,0.28692892,-0.033509772,0.34108293
1076323217,0.28692892,-0.033509772,0.3319284
1076344326,0.28393456,-0.03649976,0.33803144
1076368234,0.28992322,-0.03649976,0.34108293
1076392197,0.28692892,-0.033509772,0.3258254
1076416240,0.28692892,-0.030519783,0.3288769
1076440241,0.28692892,-0.033509772,0.33497995
1076464182,0.28692892,-0.03649976,0.33803144
1076488213,0.28393456,-0.033509772,0.33803144
1076512121,0.28692892,-0.03649976,0.3319284
1076536108,0.28992322,-0.033509772,0.3319284
1076557485,0.28692892,-0.033509772,0.33803144
1076581487,0.28692892,-0.033509772,0.3319284
1076605478,0.28992322,-0.033509772,0.3319284
1076629489,0.28992322,-0.033509772,0.33497995
1076653521,0.28992322,-0.033509772,0.33497995
1076676111,0.28992322,-0.033509772,0.33803144
1076700099,0.28692892,-0.033509772,0.3319284
1076724102,0.28692892,-0.033509772,0.33497995
1076748023,0.28992322,-0.033509772,0.33803144
1076770454,0.28692892,-0.033509772,0.3319284
1076793545,0.28992322,-0.03649976,0.34108293
1076814454,0.28692892,-0.03649976,0.34108293
1076837535,0.28692892,-0.03649976,0.33803144
1076860046,0.28692892,-0.03649976,0.33497995
1076884057,0.28692892,-0.033509772,0.33497995
1076908017,0.28393456,-0.033509772,0.3288769
1076932107,0.28393456,-0.033509772,0.3319284
1076953576,0.28992322,-0.033509772,0.33803144
1076974447,0.28393456,-0.033509772,0.33497995
1076997584,0.28692892,-0.03649976,0.34108293
1077020029,0.28692892,-0.033509772,0.34108293
1077044028,0.28393456,-0.033509772,0.34108293
1077067957,0.28393456,-0.033509772,0.34108293
1077092043,0.28393456,-0.03649976,0.33497995
1077115942,0.28393456,-0.033509772,0.33803144
1077139933,0.28692892,-0.033509772,0.34413448
1077161577,0.28393456,-0.033509772,0.33803144
1077182445,0.28393456,-0.033509772,0.3319284
1077205485,0.28692892,-0.03649976,0.34108293
1077227445,0.28692892,-0.033509772,0.34108293
1077250498,0.28393456,-0.03649976,0.33803144
1077272790,0.28692892,-0.033509772,0.3319284
1077295492,0.28692892,-0.033509772,0.33497995
1077318552,0.28692892,-0.03649976,0.34108293
1077340961,0.28692892,-0.03649976,0.34413448
1077363445,0.28393456,-0.039489754,0.34108293
1077386452,0.28692892,-0.042479742,0.34413448
1077408805,0.28692892,-0.042479742,0.34108293
1077430452,0.28992322,-0.042479742,0.33803144
1077451499,0.28692892,-0.039489754,0.34413448
1077475445,0.28692892,-0.039489754,0.33497995
1077498455,0.28692892,-0.039489754,0.34108293
1077520850,0.28692892,-0.039489754,0.34413448
1077544893,0.28393456,-0.039489754,0.3319284
1077568903,0.28393456,-0.042479742,0.34413448
1077591445,0.28692892,-0.042479742,0.34108293
1077614497,0.28692892,-0.042479742,0.34413448
1077636984,0.28692892,-0.042479742,0.34718597
1077658539,0.28692892,-0.042479742,0.33497995
1077680723,0.28692892,-0.042479742,0.34413448
1077703455,0.28692892,-0.039489754,0.33803144
1077726492,0.28393456,-0.042479742,0.33497995
1077749023,0.28692892,-0.042479742,0.34108293
1077770485,0.28692892,-0.042479742,0.34718597
1077792444,0.28692892,-0.042479742,0.33497995
1077816445,0.28692892,-0.042479742,0.34413448
1077840452,0.28692892,-0.042479742,0.34718597
1077864445,0.28692892,-0.042479742,0.34718597
1077888445,0.28692892,-0.042479742,0.34413448
1077910445,0.28692892,-0.042479742,0.34108293
1077932445,0.28992322,-0.042479742,0.34108293
1077956454,0.28992322,-0.039489754,0.33497995
1077980452,0.28692892,-0.042479742,0.34413448
1078004453,0.28992322,-0.039489754,0.33497995
1078028454,0.29291752,-0.039489754,0.33803144
1078052445,0.29291752,-0.039489754,0.34413448
1078076445,0.28992322,-0.039489754,0.34413448
1078099528,0.28992322,-0.042479742,0.33497995
1078120481,0.29291752,-0.042479742,0.33497995
1078144453,0.28992322,-0.039489754,0.3288769
1078168454,0.29291752,-0.042479742,0.33497995
1078191497,0.29591188,-0.04546973,0.33497995
1078213782,0.29291752,-0.042479742,0.33497995
1078236445,0.29291752,-0.042479742,0.34108293
1078260446,0.29291752,-0.04546973,0.34413448
1078284492,0.29591188,-0.042479742,0.33497995
1078308444,0.29591188,-0.039489754,0.33803144
1078331454,0.28992322,-0.042479742,0.33803144
1078355217,0.29291752,-0.039489754,0.33497995
1078379243,0.29291752,-0.039489754,0.33497995
1078403182,0.28992322,-0.039489754,0.33803144
1078424500,0.28992322,-0.042479742,0.34108293
1078447732,0.28992322,-0.039489754,0.33497995
1078471373,0.28692892,-0.03649976,0.34108293
1078495371,0.28393456,-0.03649976,0.33497995
1078519396,0.28992322,-0.039489754,0.34413448
1078543384,0.28692892,-0.033509772,0.33497995
1078567487,0.28692892,-0.033509772,0.3288769
1078587510,0.28692892,-0.039489754,0.34108293
1078607446,0.28393456,-0.03649976,0.33803144
1078629572,0.28692892,-0.03649976,0.34108293
1078652041,0.28692892,-0.03649976,0.34413448
1078675159,0.28393456,-0.033509772,0.33497995
1078697323,0.28393456,-0.033509772,0.3288769
1078720227,0.28992322,-0.033509772,0.33497995
1078743335,0.28692892,-0.033509772,0.33497995
1078765330,0.29291752,-0.033509772,0.3319284
1078788883,0.28992322,-0.03649976,0.33803144
1078812881,0.28992322,-0.033509772,0.3319284
1078836889,0.28992322,-0.033509772,0.3319284
1078860902,0.28992322,-0.030519783,0.33803144
1078884890,0.28692892,-0.030519783,0.3258254
1078908069,0.28992322,-0.033509772,0.33497995
1078930451,0.28992322,-0.030519783,0.33497995
1078953543,0.28992322,-0.030519783,0.3227739
1078976194,0.29591188,-0.033509772,0.33497995
1078996950,0.28992322,-0.030519783,0.31972238
1079020884,0.29591188,-0.033509772,0.3319284
1079044826,0.29291752,-0.033509772,0.33803144
1079068013,0.28992322,-0.030519783,0.3288769
1079090463,0.29591188,-0.030519783,0.3258254
1079113477,0.29291752,-0.027529795,0.3227739
1079136168,0.29591188,-0.030519783,0.31667086
1079158451,0.29591188,-0.027529795,0.3227739
1079180864,0.29591188,-0.030519783,0.31972238
1079204811,0.29591188,-0.030519783,0.3319284
1079228788,0.29591188,-0.030519783,0.3227739
1079252895,0.29591188,-0.030519783,0.3258254
1079276047,0.29591188,-0.027529795,0.31972238
1079298320,0.29291752,-0.027529795,0.31972238
1079320987,0.29591188,-0.027529795,0.3227739
1079343291,0.29291752,-0.027529795,0.31972238
1079366446,0.29291752,-0.030519783,0.3319284
1079388835,0.29591188,-0.027529795,0.3227739
1079411452,0.29291752,-0.027529795,0.3227739
1079434444,0.29591188,-0.027529795,0.3288769
1079456975,0.28992322,-0.024539806,0.3288769
1079479491,0.29291752,-0.027529795,0.31972238
1079501652,0.29291752,-0.024539806,0.3227739
1079525662,0.28992322,-0.027529795,0.3258254
1079548873,0.29291752,-0.027529795,0.31972238
1079571294,0.28992322,-0.024539806,0.3258254
1079593887,0.28992322,-0.024539806,0.3227739
1079617052,0.29291752,-0.027529795,0.3227739
1079639381,0.28992322,-0.027529795,0.3258254
1079661660,0.28992322,-0.027529795,0.3227739
1079685668,0.29291752,-0.024539806,0.3288769
1079708974,0.28992322,-0.027529795,0.3227739
1079731451,0.29291752,-0.027529795,0.3227739
1079754490,0.28992322,-0.027529795,0.3258254
1079777065,0.29291752,-0.030519783,0.3288769
1079799451,0.29591188,-0.027529795,0.3288769
1079821693,0.29291752,-0.027529795,0.3258254
1079845641,0.29591188,-0.027529795,0.31972238
1079869692,0.29291752,-0.027529795,0.3227739
1079892823,0.29291752,-0.027529795,0.31972238
1079915284,0.29591188,-0.027529795,0.3288769
1079937924,0.29291752,-0.027529795,0.3227739
1079961845,0.29291752,-0.030519783,0.3319284
1079984285,0.29291752,-0.027529795,0.3258254
1080008452,0.29291752,-0.030519783,0.31972238
1080031496,0.29291752,-0.030519783,0.3319284
1080053594,0.29291752,-0.030519783,0.3319284
1080077626,0.29291752,-0.027529795,0.3227739
1080100319,0.29591188,-0.027529795,0.3319284
1080123451,0.28992322,-0.027529795,0.3319284
1080145831,0.29291752,-0.027529795,0.3288769
1080168292,0.28992322,-0.027529795,0.3258254
1080192452,0.28992322,-0.027529795,0.3227739
1080215453,0.29291752,-0.030519783,0.3319284
1080237668,0.28992322,-0.030519783,0.3288769
1080261623,0.29291752,-0.030519783,0.33497995
1080284331,0.29591188,-0.027529795,0.3258254
1080307490,0.28992322,-0.027529795,0.31972238
1080329808,0.29291752,-0.027529795,0.3227739
1080352338,0.29291752,-0.027529795,0.3258254
1080376451,0.29291752,-0.027529795,0.31972238
1080397768,0.29291752,-0.027529795,0.3288769
1080421603,0.28992322,-0.027529795,0.3258254
1080445608,0.28992322,-0.030519783,0.3227739
1080469440,0.29291752,-0.027529795,0.3258254
1080493491,0.28992322,-0.030519783,0.3319284
1080517474,0.28992322,-0.030519783,0.3319284
1080540095,0.28692892,-0.030519783,0.33497995
1080564097,0.28393456,-0.033509772,0.34108293
1080588056,0.28094026,-0.03649976,0.34718597
1080612097,0.28094026,-0.03649976,0.3502375
1080635280,0.27495164,-0.03649976,0.3502375
1080659262,0.27495164,-0.039489754,0.3502375
1080683230,0.27195728,-0.03649976,0.3502375
1080704270,0.26896298,-0.03649976,0.34718597
1080728300,0.26596868,-0.039489754,0.36549503
1080752981,0.26297432,-0.03649976,0.36549503
1080777481,0.25998002,-0.039489754,0.3624435
1080800381,0.2569857,-0.039489754,0.3624435
1080823377,0.25399137,-0.039489754,0.36549503
1080845320,0.25099704,-0.039489754,0.36549503
1080868328,0.25099704,-0.039489754,0.36549503
1080892118,0.24800274,-0.03649976,0.3624435
1080914445,0.24500841,-0.039489754,0.36854655
1080936317,0.24500841,-0.039489754,0.38075256
1080958421,0.2420141,-0.042479742,0.37159804
1080980882,0.2420141,-0.039489754,0.37464958
1081004093,0.23901977,-0.039489754,0.37770107
1081026332,0.23901977,-0.042479742,0.38075256
1081049038,0.23901977,-0.042479742,0.37770107
1081072269,0.23901977,-0.04546973,0.37464958
1081093546,0.23602545,-0.039489754,0.37770107
1081116844,0.23602545,-0.042479742,0.37770107
1081140841,0.23602545,-0.042479742,0.38075256
1081164867,0.23303114,-0.039489754,0.3868556
1081188838,0.2270425,-0.042479742,0.37770107
1081212840,0.2270425,-0.042479742,0.3868556
1081236051,0.2270425,-0.042479742,0.38075256
1081260014,0.2270425,-0.04546973,0.38075256
1081284082,0.23003681,-0.042479742,0.38075256
1081308068,0.2270425,-0.042479742,0.38075256
1081332016,0.2270425,-0.042479742,0.38075256
1081354455,0.22404817,-0.04546973,0.3868556
1081377482,0.22404817,-0.042479742,0.38075256
1081398455,0.2270425,-0.04546973,0.38075256
1081421572,0.22404817,-0.042479742,0.38990712
1081443961,0.22404817,-0.04546973,0.38075256
1081467452,0.2270425,-0.04546973,0.3868556
1081490489,0.22105384,-0.04546973,0.38075256
1081512953,0.22404817,-0.04845972,0.38075256
1081535444,0.22404817,-0.04546973,0.38990712
1081558445,0.21805952,-0.04546973,0.38380408
1081580838,0.22404817,-0.04546973,0.3929586
1081604849,0.22105384,-0.04546973,0.38990712
1081627482,0.21805952,-0.04546973,0.3929586
1081650444,0.22105384,-0.04845972,0.38990712
1081673117,0.22105384,-0.04845972,0.3929586
1081695446,0.22105384,-0.04546973,0.38075256
1081718554,0.22105384,-0.04546973,0.3868556
1081740828,0.22105384,-0.042479742,0.38380408
1081762454,0.2120709,-0.039489754,0.3868556
1081783453,0.20608224,-0.039489754,0.40211314
1081806454,0.20308793,-0.039489754,0.39906165
1081829008,0.18811633,-0.042479742,0.39906165
1081852787,0.185122,-0.039489754,0.40211314
1081876816,0.17613904,-0.04546973,0.41126767
1081901584,0.16715609,-0.04546973,0.41126767
1081923457,0.15218449,-0.0544397,0.41126767
1081946444,0.14320152,-0.0544397,0.4143192
1081969021,0.13721287,-0.0544397,0.4173707
1081990452,0.12822992,-0.05144971,0.4204222
1082012834,0.12523559,-0.04546973,0.42347372
1082035493,0.12224127,-0.039489754,0.4173707
1082058453,0.119246945,-0.027529795,0.42347372
1082080445,0.12224127,-0.021549817,0.41126767
1082104484,0.11625263,-0.009589859,0.4173707
1082128445,0.12224127,0.0053600874,0.40821618
1082152451,0.12224127,0.014330056,0.40821618
1082176445,0.119246945,0.026290013,0.40821618
1082200454,0.12224127,0.03525998,0.40821618
1082224455,0.12224127,0.04123996,0.40211314
1082248456,0.12224127,0.050209925,0.39906165
1082271491,0.119246945,0.062169883,0.40211314
1082293630,0.11625263,0.06814986,0.38990712
1082316489,0.11325831,0.077119835,0.3929586
1082340496,0.11325831,0.086089805,0.3929586
1082364499,0.11325831,0.09804975,0.40516466
1082388458,0.11026399,0.10701972,0.39906165
1082412452,0.107269675,0.11598969,0.39906165
1082436495,0.104275346,0.12196967,0.38990712
1082461595,0.0982867,0.124959655,0.38990712
1082484445,0.09229807,0.13392963,0.3929586
1082508452,0.09229807,0.13691962,0.3868556
1082530590,0.08930375,0.14289959,0.3868556
1082552445,0.083315104,0.1458896,0.38380408
1082576456,0.08032078,0.14887957,0.3868556
1082600454,0.07732646,0.15186957,0.3868556
1082625454,0.07433215,0.15485954,0.38990712
1082648445,0.07433215,0.15784954,0.3868556
1082669485,0.0683435,0.16083954,0.38990712
1082692503,0.07133782,0.15784954,0.38075256
1082715370,0.065349184,0.16083954,0.38075256
1082739420,0.062354863,0.16382952,0.38990712
1082763366,0.059360538,0.16382952,0.38380408
1082787406,0.05636622,0.16681951,0.37770107
1082811406,0.05636622,0.16980949,0.38380408
1082833483,0.050377578,0.16980949,0.37770107
1082856445,0.05636622,0.17279948,0.37770107
1082877490,0.050377578,0.17279948,0.37770107
1082899463,0.05636622,0.17578949,0.37770107
1082923427,0.05636622,0.17279948,0.38075256
1082945487,0.059360538,0.17578949,0.37464958
1082971432,0.05636622,0.17578949,0.37159804
1082995382,0.062354863,0.17877947,0.37770107
1083019526,0.062354863,0.17877947,0.36549503
1083041491,0.062354863,0.18475944,0.36854655
1083065251,0.065349184,0.18475944,0.37159804
1083089203,0.065349184,0.18774943,0.36549503
1083113147,0.065349184,0.19073944,0.3624435
1083137151,0.07133782,0.18774943,0.36854655
1083160995,0.07133782,0.19073944,0.35939202
1083184957,0.07133782,0.19671941,0.3563405
1083209019,0.07732646,0.19671941,0.36549503
1083232905,0.07433215,0.19671941,0.3563405
1083256915,0.07433215,0.19970939,0.3563405
1083281049,0.07732646,0.20269938,0.3563405
1083304920,0.07732646,0.20269938,0.3563405
1083328965,0.07732646,0.20867936,0.353289
1083352992,0.07433215,0.20867936,0.3563405
1083377248,0.08032078,0.20867936,0.3563405
1083401103,0.08032078,0.21166936,0.353289
1083422454,0.083315104,0.21465933,0.3502375
1083445570,0.07732646,0.21465933,0.3502375
1083466494,0.083315104,0.21465933,0.3502375
1083489568,0.07732646,0.21764933,0.34413448
1083512162,0.08032078,0.21764933,0.34718597
1083534454,0.086309426,0.2206393,0.3502375
1083557482,0.083315104,0.2206393,0.34108293
1083580490,0.086309426,0.21764933,0.34413448
1083603954,0.08930375,0.2206393,0.34718597
1083627444,0.08930375,0.22362931,0.34413448
1083651532,0.08930375,0.22362931,0.34108293
1083674444,0.08930375,0.22362931,0.34108293
1083697127,0.09229807,0.22362931,0.34108293
1083718462,0.09229807,0.22362931,0.34108293
1083740849,0.09529239,0.22362931,0.34108293
1083764839,0.09529239,0.22362931,0.34108293
1083788914,0.09529239,0.2266193,0.33803144
1083812836,0.0982867,0.22362931,0.33497995
1083835494,0.101281025,0.2266193,0.33497995
1083858453,0.0982867,0.2266193,0.33803144
1083880986,0.101281025,0.2266193,0.33497995
1083903445,0.101281025,0.22960928,0.33803144
1083926490,0.101281025,0.22960928,0.3319284
1083948869,0.104275346,0.22960928,0.33803144
1083970491,0.101281025,0.22960928,0.3319284
1083991445,0.104275346,0.22960928,0.33497995
1084014493,0.107269675,0.23259927,0.33497995
1084036807,0.107269675,0.23259927,0.3288769
1084060747,0.107269675,0.23259927,0.33497995
1084084847,0.107269675,0.23259927,0.33497995
1084109578,0.107269675,0.23259927,0.3288769
1084131453,0.107269675,0.23259927,0.3227739
1084154453,0.11026399,0.23259927,0.3288769
1084176952,0.107269675,0.23259927,0.3288769
1084198445,0.107269675,0.23259927,0.3319284
1084220463,0.11026399,0.23259927,0.33497995
1084244445,0.11026399,0.23259927,0.3288769
1084268455,0.11325831,0.23259927,0.3288769
1084292495,0.11026399,0.23558925,0.3319284
1084316454,0.11026399,0.23558925,0.3319284
1084339454,0.11026399,0.23857926,0.3288769
1084361669,0.11026399,0.23558925,0.3258254
1084383452,0.11325831,0.23558925,0.3288769
1084404445,0.11026399,0.23558925,0.3319284
1084428452,0.11325831,0.23558925,0.33497995
1084452454,0.11026399,0.23558925,0.33497995
1084476444,0.11325831,0.23558925,0.3319284
1084500456,0.107269675,0.23857926,0.3227739
1084524444,0.11026399,0.23857926,0.3288769
1084548444,0.11325831,0.23558925,0.3319284
1084572445,0.11625263,0.23558925,0.3319284
1084596455,0.11325831,0.23857926,0.33497995
1084620452,0.11026399,0.23558925,0.3258254
1084644452,0.107269675,0.23558925,0.3258254
1084668554,0.107269675,0.23558925,0.3288769
1084692454,0.107269675,0.23857926,0.3227739
1084716445,0.104275346,0.23857926,0.3258254
1084740452,0.101281025,0.23857926,0.3288769
1084764452,0.09529239,0.23857926,0.3319284
1084788453,0.09229807,0.23857926,0.3319284
1084809480,0.09229807,0.23558925,0.3319284
1084832500,0.08930375,0.23857926,0.33497995
1084855700,0.086309426,0.23857926,0.3319284
1084879437,0.086309426,0.23857926,0.3288769
1084903363,0.086309426,0.24156925,0.3288769
1084925498,0.08032078,0.24156925,0.3288769
1084948547,0.08032078,0.23857926,0.33497995
1084971216,0.08032078,0.23857926,0.33497995
1084995172,0.07732646,0.23857926,0.33497995
1085017476,0.07433215,0.23857926,0.33803144
1085039446,0.07433215,0.23857926,0.34108293
1085063376,0.07433215,0.23857926,0.33803144
1085087348,0.07133782,0.23857926,0.34108293
1085111438,0.0683435,0.23857926,0.33803144
1085132490,0.0683435,0.23857926,0.33803144
1085155244,0.065349184,0.23857926,0.33497995
1085179333,0.062354863,0.23857926,0.33803144
1085203267,0.062354863,0.23857926,0.33803144
1085226455,0.062354863,0.24156925,0.33497995
1085249481,0.062354863,0.24156925,0.33497995
1085272211,0.05636622,0.24156925,0.33497995
1085293482,0.062354863,0.24455923,0.33497995
1085316053,0.05636622,0.24156925,0.33803144
1085340453,0.05636622,0.24156925,0.3319284
1085364497,0.059360538,0.24156925,0.33497995
1085388552,0.05636622,0.24156925,0.33497995
1085411977,0.05636622,0.24156925,0.33803144
1085436087,0.05636622,0.24156925,0.34108293
1085460039,0.05636622,0.24156925,0.33497995
1085484041,0.0533719,0.24156925,0.33497995
1085505445,0.05636622,0.24156925,0.33497995
1085528277,0.050377578,0.24156925,0.3288769
1085549516,0.0533719,0.23857926,0.3319284
1085572027,0.050377578,0.24156925,0.33497995
1085596002,0.0533719,0.24156925,0.34108293
1085620488,0.0533719,0.24156925,0.33497995
1085644489,0.0533719,0.24156925,0.33497995
1085668453,0.050377578,0.23857926,0.33803144
1085691858,0.0533719,0.23857926,0.34108293
1085714539,0.04438894,0.23857926,0.33497995
1085737480,0.0533719,0.23857926,0.33803144
1085760302,0.041394617,0.23857926,0.33803144
1085782447,0.050377578,0.24156925,0.34413448
1085805561,0.038400296,0.23857926,0.33497995
1085827444,0.050377578,0.23857926,0.34108293
1085850498,0.041394617,0.23857926,0.34108293
1085872733,0.04438894,0.23558925,0.34108293
1085895490,0.038400296,0.23857926,0.33803144
1085918533,0.041394617,0.23857926,0.34413448
1085941051,0.035405975,0.23857926,0.34108293
1085963452,0.041394617,0.23857926,0.33803144
1085986444,0.035405975,0.23558925,0.34413448
1086008909,0.038400296,0.23857926,0.34718597
1086030492,0.038400296,0.23857926,0.34108293
1086051451,0.041394617,0.23857926,0.34108293
1086074453,0.035405975,0.23857926,0.33803144
1086096783,0.038400296,0.23857926,0.33497995
1086120814,0.035405975,0.23857926,0.33803144
1086144814,0.035405975,0.23857926,0.34108293
1086168929,0.041394617,0.23857926,0.34413448
1086191497,0.035405975,0.23857926,0.33803144
1086215490,0.038400296,0.23857926,0.34108293
1086237445,0.038400296,0.23857926,0.33803144
1086258445,0.035405975,0.23857926,0.34413448
1086280753,0.032411654,0.23857926,0.33803144
1086304815,0.032411654,0.23857926,0.34108293
1086327491,0.029417334,0.23857926,0.33497995
1086350484,0.026423013,0.24156925,0.34413448
1086371491,0.029417334,0.24156925,0.34413448
1086394491,0.026423013,0.23857926,0.33803144
1086417680,0.029417334,0.24156925,0.33803144
1086441579,0.026423013,0.23857926,0.33497995
1086464444,0.029417334,0.23857926,0.33803144
1086488453,0.026423013,0.24156925,0.33497995
1086512452,0.029417334,0.24156925,0.33497995
1086536492,0.032411654,0.24156925,0.33803144
1086560498,0.026423013,0.24156925,0.34108293
1086584499,0.029417334,0.23857926,0.33803144
1086608550,0.032411654,0.23857926,0.34413448
1086630753,0.023428693,0.23558925,0.33803144
1086654775,0.032411654,0.23857926,0.34413448
1086678676,0.023428693,0.23857926,0.33803144
1086702632,0.029417334,0.23558925,0.34108293
1086726464,0.029417334,0.23558925,0.34413448
1086748455,0.023428693,0.23857926,0.34108293
1086772443,0.026423013,0.23558925,0.34108293
1086796445,0.029417334,0.23558925,0.34108293
1086820455,0.026423013,0.23558925,0.33497995
1086843446,0.029417334,0.23558925,0.34718597
1086865457,0.026423013,0.23558925,0.34108293
1086888586,0.026423013,0.23558925,0.34413448
1086912497,0.023428693,0.23558925,0.34413448
1086936500,0.023428693,0.23558925,0.34108293
1086960497,0.029417334,0.23558925,0.34718597
1086982633,0.023428693,0.23857926,0.34108293
1087006759,0.032411654,0.23558925,0.3502375
1087030605,0.026423013,0.23857926,0.34108293
1087055490,0.026423013,0.23857926,0.33497995
1087076492,0.029417334,0.23857926,0.33803144
1087099445,0.023428693,0.23857926,0.34413448
1087122403,0.029417334,0.23857926,0.34108293
1087144508,0.026423013,0.23857926,0.34718597
1087167445,0.026423013,0.23558925,0.33803144
1087188445,0.023428693,0.23857926,0.34108293
1087210487,0.023428693,0.23558925,0.34718597
1087231520,0.020434372,0.23558925,0.34108293
1087255428,0.026423013,0.23558925,0.34108293
1087279538,0.023428693,0.23857926,0.34108293
1087303489,0.023428693,0.23558925,0.33803144
1087327451,0.026423013,0.23558925,0.34413448
1087351492,0.026423013,0.23558925,0.34413448
1087373326,0.029417334,0.23558925,0.34413448
1087399309,0.029417334,0.23857926,0.34413448
1087423251,0.026423013,0.23857926,0.34108293
1087447510,0.032411654,0.23558925,0.34718597
1087468446,0.032411654,0.23558925,0.34413448
1087490451,0.032411654,0.23558925,0.34108293
1087514540,0.029417334,0.23857926,0.34108293
1087538470,0.026423013,0.23558925,0.34108293
1087561444,0.029417334,0.23558925,0.34108293
1087583445,0.029417334,0.23558925,0.34108293
1087607357,0.032411654,0.23558925,0.34413448
1087631423,0.029417334,0.23857926,0.33803144
1087655990,0.026423013,0.23558925,0.34108293
1087679598,0.029417334,0.23558925,0.34413448
1087703487,0.026423013,0.23558925,0.34108293
1087728409,0.026423013,0.23558925,0.33803144
1087752286,0.032411654,0.23558925,0.34718597
1087776203,0.026423013,0.23558925,0.34718597
1087800236,0.029417334,0.23558925,0.34108293
1087824233,0.032411654,0.23558925,0.34413448
1087848235,0.029417334,0.23558925,0.34413448
1087872161,0.026423013,0.23259927,0.34413448
1087896241,0.029417334,0.23558925,0.34413448
1087920224,0.023428693,0.23558925,0.34108293
1087944471,0.026423013,0.23558925,0.34108293
1087968563,0.026423013,0.23558925,0.34718597
1087992420,0.026423013,0.23558925,0.34108293
1088016471,0.026423013,0.23558925,0.34413448
1088040292,0.029417334,0.23558925,0.34718597
1088064176,0.026423013,0.23558925,0.34108293
1088088197,0.029417334,0.23558925,0.34108293
1088112178,0.026423013,0.23558925,0.34108293
1088136187,0.023428693,0.23558925,0.34108293
1088158540,0.026423013,0.23558925,0.33803144
1088181481,0.023428693,0.23259927,0.34108293
1088204002,0.026423013,0.23259927,0.34718597
1088225479,0.023428693,0.23558925,0.34108293
1088246461,0.026423013,0.23558925,0.34413448
1088268460,0.026423013,0.23558925,0.34413448
1088292013,0.023428693,0.23558925,0.34413448
1088316054,0.029417334,0.23558925,0.34108293
1088340074,0.026423013,0.23558925,0.34108293
1088364037,0.026423013,0.23558925,0.34108293
1088386446,0.026423013,0.23558925,0.34718597
1088409446,0.023428693,0.23558925,0.34108293
1088432265,0.026423013,0.23558925,0.34108293
1088453481,0.026423013,0.23558925,0.33803144
1088476446,0.023428693,0.23558925,0.34108293
1088500042,0.023428693,0.23558925,0.34108293
1088524014,0.026423013,0.23558925,0.34413448
1088548011,0.026423013,0.23558925,0.34108293
1088572024,0.023428693,0.23259927,0.34413448
1088594445,0.026423013,0.23558925,0.34718597
1088617572,0.026423013,0.23558925,0.34413448
1088640190,0.026423013,0.23259927,0.34413448
1088661477,0.029417334,0.23259927,0.34413448
1088683923,0.026423013,0.23558925,0.34718597
1088708541,0.026423013,0.23259927,0.34108293
1088731915,0.026423013,0.23259927,0.34718597
1088754485,0.026423013,0.23558925,0.34413448
1088775485,0.026423013,0.23259927,0.34413448
1088798444,0.026423013,0.23259927,0.353289
1088820974,0.023428693,0.23259927,0.34413448
1088843445,0.026423013,0.23259927,0.34108293
1088869075,0.026423013,0.23259927,0.3502375
1088891454,0.026423013,0.23558925,0.34413448
1088915445,0.026423013,0.23558925,0.34718597
1088938452,0.029417334,0.23558925,0.34108293
1088960938,0.029417334,0.23558925,0.34108293
1088983453,0.026423013,0.23857926,0.33803144
1089006495,0.023428693,0.23558925,0.34108293
1089027452,0.023428693,0.23558925,0.34718597
1089050502,0.023428693,0.23558925,0.34718597
1089072826,0.023428693,0.23259927,0.34718597
1089094445,0.026423013,0.23857926,0.34108293
1089115452,0.023428693,0.23558925,0.33803144
1089138548,0.023428693,0.23558925,0.34413448
1089160788,0.023428693,0.23558925,0.34108293
1089184827,0.023428693,0.23857926,0.34413448
1089208945,0.020434372,0.23857926,0.33803144
1089232824,0.023428693,0.23857926,0.34413448
1089255450,0.026423013,0.23857926,0.33803144
1089278445,0.029417334,0.24156925,0.34108293
1089300995,0.023428693,0.24156925,0.33497995
1089323455,0.023428693,0.23857926,0.34108293
1089346450,0.026423013,0.24156925,0.34108293
1089370498,0.026423013,0.24156925,0.33497995
1089391447,0.026423013,0.24156925,0.33803144
1089412500,0.032411654,0.24156925,0.33803144
1089435522,0.029417334,0.24156925,0.33497995
1089456539,0.032411654,0.24156925,0.34108293
1089479445,0.032411654,0.24455923,0.33497995
1089500453,0.032411654,0.24156925,0.33497995
1089522432,0.032411654,0.24156925,0.33803144
1089546492,0.032411654,0.24156925,0.34108293
1089570470,0.032411654,0.24156925,0.3319284
1089594463,0.035405975,0.24156925,0.34108293
1089618549,0.035405975,0.24455923,0.33803144
1089642327,0.035405975,0.24455923,0.33497995
1089666333,0.035405975,0.24455923,0.3319284
1089690252,0.035405975,0.24455923,0.33497995
1089712488,0.035405975,0.24754922,0.3319284
1089735496,0.035405975,0.24455923,0.3319284
1089758738,0.038400296,0.24455923,0.33803144
1089781454,0.038400296,0.24455923,0.34108293
1089804445,0.035405975,0.24455923,0.3319284
1089827113,0.038400296,0.24455923,0.33497995
1089851110,0.038400296,0.24754922,0.33497995
1089872445,0.038400296,0.24455923,0.33497995
1089895412,0.035405975,0.24754922,0.3288769
1089919447,0.038400296,0.24754922,0.33803144
1089943414,0.032411654,0.24754922,0.33497995
1089967396,0.035405975,0.24754922,0.3288769
1089991400,0.035405975,0.2505392,0.33803144
1090013572,0.035405975,0.2505392,0.33803144
1090036489,0.035405975,0.24754922,0.33497995
1090059238,0.035405975,0.2505392,0.3319284
1090083289,0.029417334,0.2505392,0.3258254
1090107295,0.032411654,0.24754922,0.33497995
1090128451,0.035405975,0.2505392,0.3319284
1090151418,0.035405975,0.24754922,0.33497995
1090175470,0.038400296,0.2505392,0.33497995
1090196455,0.032411654,0.2505392,0.3319284
1090219382,0.035405975,0.24754922,0.33497995
1090243282,0.029417334,0.24754922,0.33497995
1090267052,0.032411654,0.24754922,0.3319284
1090291119,0.032411654,0.24754922,0.33497995
1090315131,0.029417334,0.24754922,0.3319284
1090339222,0.032411654,0.24455923,0.3288769
1090360445,0.032411654,0.24754922,0.33497995
1090382444,0.029417334,0.24455923,0.3288769
1090404484,0.029417334,0.24754922,0.34108293
1090427977,0.032411654,0.24455923,0.33803144
1090451977,0.032411654,0.24455923,0.33497995
1090476026,0.029417334,0.24455923,0.33497995
1090497484,0.032411654,0.24754922,0.33497995
1090518452,0.029417334,0.24455923,0.33803144
1090541452,0.026423013,0.24754922,0.3288769
1090564050,0.029417334,0.24455923,0.33803144
1090588116,0.029417334,0.24754922,0.33803144
1090612081,0.029417334,0.24455923,0.33497995
1090636084,0.029417334,0.24455923,0.33497995
1090660066,0.023428693,0.24455923,0.33497995
1090684019,0.032411654,0.24455923,0.33497995
1090705552,0.026423013,0.24455923,0.33803144
1090726454,0.026423013,0.24754922,0.33803144
1090749481,0.026423013,0.24156925,0.33803144
1090772010,0.029417334,0.24455923,0.33803144
1090795975,0.023428693,0.24455923,0.33497995
1090819945,0.026423013,0.24455923,0.33803144
1090843855,0.023428693,0.24455923,0.34108293
1090866446,0.026423013,0.24156925,0.33497995
1090889486,0.023428693,0.24156925,0.33497995
1090912189,0.023428693,0.24156925,0.33497995
1090933487,0.023428693,0.24156925,0.3319284
1090956011,0.020434372,0.24455923,0.33497995
1090978452,0.023428693,0.24156925,0.34413448
1091000790,0.020434372,0.24455923,0.33497995
