timestamp,baro_alt_meter,baro_temp_celcius,baro_pressure_pa,rho
1060165505,59.951588,49.82,100607.0,1.1953776
1060177771,59.867035,49.82,100607.99,1.1953894
1060201770,60.0335,49.82,100606.0,1.1953657
1060213625,60.0335,49.82,100606.0,1.1953657
1060226005,59.53146,49.82,100612.0,1.195437
1060249904,59.613373,49.82,100611.0,1.1954252
1060261549,59.867035,49.82,100607.99,1.1953894
1060271895,59.78248,49.82,100609.0,1.1954013
1060294744,59.613373,49.82,100611.0,1.1954252
1060306599,59.867035,49.82,100607.99,1.1953894
1060318579,59.53146,49.82,100612.0,1.195437
1060342743,59.613373,49.809998,100611.0,1.1954252
1060355619,59.951588,49.809998,100607.0,1.1953776
1060366803,59.697926,49.809998,100610.0,1.1954132
1060390800,59.951588,49.82,100607.0,1.1953776
1060403469,59.951588,49.82,100607.0,1.1953776
1060414742,59.613373,49.82,100611.0,1.1954252
1060435885,60.0335,49.82,100606.0,1.1953657
1060447291,59.53146,49.82,100612.0,1.195437
1060458868,59.613373,49.82,100611.0,1.1954252
1060479737,59.951588,49.809998,100607.0,1.1953776
1060491430,60.0335,49.809998,100606.0,1.1953657
1060502606,59.867035,49.809998,100607.99,1.1953894
1060523098,60.199966,49.809998,100604.0,1.195342
1060535114,60.118053,49.809998,100605.0,1.1953539
1060544784,60.118053,49.809998,100605.0,1.1953539
1060566588,59.951588,49.809998,100607.0,1.1953776
1060577324,60.28452,49.809998,100603.0,1.19533
1060587123,60.0335,49.809998,100606.0,1.1953657
1060610829,60.118053,49.82,100605.0,1.1953539
1060623257,59.867035,49.82,100607.99,1.1953894
1060635016,59.446903,49.82,100613.0,1.1954489
1060656867,59.613373,49.809998,100611.0,1.1954252
1060668276,59.53146,49.809998,100612.0,1.195437
1060678904,59.697926,49.809998,100610.0,1.1954132
1060702652,59.78248,49.82,100609.0,1.1954013
1060715430,59.78248,49.82,100609.0,1.1954013
1060726521,59.867035,49.82,100607.99,1.1953894
1060750531,59.867035,49.809998,100607.99,1.1953894
1060763461,59.613373,49.809998,100611.0,1.1954252
1060774751,59.364994,49.809998,100613.99,1.1954607
1060798741,59.867035,49.809998,100607.99,1.1953894
1060811481,59.195885,49.809998,100616.0,1.1954845
1060822788,59.364994,49.809998,100613.99,1.1954607
1060846801,60.118053,49.809998,100605.0,1.1953539
1060857327,59.867035,49.809998,100607.99,1.1953894
1060867893,59.78248,49.809998,100609.0,1.1954013
1060891620,59.951588,49.8,100607.0,1.1953776
1060903914,59.53146,49.8,100612.0,1.195437
1060913796,59.697926,49.8,100610.0,1.1954132
1060936877,60.28452,49.8,100603.0,1.19533
1060948334,60.0335,49.8,100606.0,1.1953657
1060959406,61.037582,49.8,100594.0,1.1952231
1060979909,60.53554,49.8,100600.0,1.1952944
1060991284,59.951588,49.8,100607.0,1.1953776
1061001806,59.446903,49.8,100613.0,1.1954489
1061023736,60.53554,49.8,100600.0,1.1952944
1061036220,59.951588,49.8,100607.0,1.1953776
1061047465,59.02942,49.8,100618.0,1.1955082
1061069858,60.0335,49.8,100606.0,1.1953657
1061081287,60.369076,49.8,100601.99,1.1953181
1061091744,59.195885,49.8,100616.0,1.1954845
1061113868,59.53146,49.8,100612.0,1.195437
1061125359,60.28452,49.8,100603.0,1.19533
1061136489,59.78248,49.8,100609.0,1.1954013
1061157778,60.118053,49.8,100605.0,1.1953539
1061169339,60.78656,49.8,100597.0,1.1952587
1061179924,60.199966,49.8,100604.0,1.195342
1061203828,59.613373,49.8,100611.0,1.1954252
1061215942,59.867035,49.8,100607.99,1.1953894
1061227764,59.53146,49.8,100612.0,1.195437
1061252464,59.697926,49.8,100610.0,1.1954132
1061264342,60.45363,49.8,100600.99,1.1953062
1061275638,60.199966,49.8,100604.0,1.195342
1061299658,59.697926,49.8,100610.0,1.1954132
1061311907,59.613373,49.8,100611.0,1.1954252
1061321806,60.369076,49.8,100601.99,1.1953181
1061343344,60.118053,49.789997,100605.0,1.1953539
1061355313,60.118053,49.789997,100605.0,1.1953539
1061365772,60.78656,49.789997,100597.0,1.1952587
1061387897,60.95567,49.789997,100594.99,1.1952349
1061400121,60.28452,49.789997,100603.0,1.19533
1061410736,60.70465,49.789997,100598.0,1.1952707
1061432782,60.45363,49.789997,100600.99,1.1953062
1061444821,60.118053,49.789997,100605.0,1.1953539
1061456556,60.53554,49.789997,100600.0,1.1952944
1061480430,60.53554,49.789997,100600.0,1.1952944
1061491971,60.620094,49.789997,100599.0,1.1952826
1061502737,61.45771,49.789997,100588.99,1.1951636
1061524796,60.369076,49.789997,100601.99,1.1953181
1061536930,60.28452,49.789997,100603.0,1.19533
1061546774,60.78656,49.789997,100597.0,1.1952587
1061568720,60.53554,49.789997,100600.0,1.1952944
1061580880,60.28452,49.789997,100603.0,1.19533
1061592700,60.45363,49.789997,100600.99,1.1953062
1061614748,60.70465,49.789997,100598.0,1.1952707
1061626396,60.871117,49.789997,100596.0,1.1952469
1061636791,60.871117,49.789997,100596.0,1.1952469
1061660174,60.95567,49.789997,100594.99,1.1952349
1061670394,60.95567,49.789997,100594.99,1.1952349
1061680779,61.206688,49.789997,100592.0,1.1951994
1061704542,60.871117,49.789997,100596.0,1.1952469
1061716877,60.620094,49.789997,100599.0,1.1952826
1061728695,60.871117,49.789997,100596.0,1.1952469
1061752629,61.373158,49.78,100590.0,1.1951756
1061764868,61.539623,49.78,100588.0,1.1951518
1061776530,61.122135,49.78,100593.0,1.1952113
1061798737,61.624176,49.78,100587.0,1.19514
1061810415,61.122135,49.78,100593.0,1.1952113
1061820784,61.539623,49.78,100588.0,1.1951518
1061844244,61.122135,49.78,100593.0,1.1952113
1061854391,61.539623,49.78,100588.0,1.1951518
1061864779,61.539623,49.78,100588.0,1.1951518
1061888557,61.206688,49.78,100592.0,1.1951994
1061900697,61.373158,49.78,100590.0,1.1951756
1061912548,61.70873,49.78,100586.0,1.1951281
1061936700,61.624176,49.78,100587.0,1.19514
1061948719,61.793285,49.78,100585.0,1.1951162
1061959736,61.373158,49.78,100590.0,1.1951756
1061981774,61.291245,49.78,100591.0,1.1951874
1061993837,62.12886,49.78,100581.0,1.1950687
1062004880,61.624176,49.78,100587.0,1.19514
1062027743,62.21077,49.78,100580.0,1.1950568
1062038413,62.21077,49.78,100580.0,1.1950568
1062049804,61.539623,49.78,100588.0,1.1951518
1062073281,62.044304,49.77,100582.0,1.1950805
1062084811,62.044304,49.77,100582.0,1.1950805
1062095749,62.21077,49.77,100580.0,1.1950568
1062117782,61.8752,49.77,100584.0,1.1951044
1062129782,61.793285,49.77,100585.0,1.1951162
1062140062,62.044304,49.77,100582.0,1.1950805
1062161504,61.70873,49.77,100586.0,1.1951281
1062173609,61.45771,49.77,100588.99,1.1951636
1062185504,61.70873,49.77,100586.0,1.1951281
1062207747,62.6309,49.77,100575.0,1.1949974
1062219298,61.8752,49.77,100584.0,1.1951044
1062229749,62.546345,49.77,100575.99,1.1950091
1062252994,62.21077,49.77,100580.0,1.1950568
1062263378,61.95975,49.77,100582.99,1.1950923
1062273746,61.624176,49.77,100587.0,1.19514
1062295744,62.461792,49.78,100576.99,1.195021
1062307342,61.95975,49.78,100582.99,1.1950923
1062317804,62.12886,49.78,100581.0,1.1950687
1062340999,62.044304,49.78,100582.0,1.1950805
1062351340,62.461792,49.78,100576.99,1.195021
1062361748,61.8752,49.78,100584.0,1.1951044
1062385508,61.793285,49.77,100585.0,1.1951162
1062397630,62.461792,49.77,100576.99,1.195021
1062409508,62.461792,49.77,100576.99,1.195021
1062431744,62.295326,49.77,100579.0,1.1950449
1062443296,62.461792,49.77,100576.99,1.195021
1062453781,62.295326,49.77,100579.0,1.1950449
1062477023,62.546345,49.77,100575.99,1.1950091
1062487339,62.71281,49.77,100574.0,1.1949855
1062497795,62.295326,49.77,100579.0,1.1950449
1062517914,62.546345,49.77,100575.99,1.1950091
1062529737,63.21485,49.77,100568.0,1.1949142
1062541492,62.6309,49.77,100575.0,1.1949974
1062565601,62.71281,49.77,100574.0,1.1949855
1062577768,62.963833,49.77,100571.0,1.1949499
1062589660,63.299408,49.77,100567.0,1.1949023
1062611827,63.299408,49.77,100567.0,1.1949023
1062623289,62.88192,49.77,100572.0,1.1949618
1062634080,62.963833,49.77,100571.0,1.1949499
1062658553,62.546345,49.77,100575.99,1.1950091
1062669514,62.546345,49.77,100575.99,1.1950091
1062679747,62.37988,49.77,100578.0,1.1950331
1062701857,62.546345,49.76,100575.99,1.1950091
1062713872,62.6309,49.76,100575.0,1.1949974
1062725354,63.048386,49.76,100569.99,1.1949378
1062747497,62.546345,49.76,100575.99,1.1950091
1062758461,63.048386,49.76,100569.99,1.1949378
1062769863,63.132942,49.76,100569.0,1.1949261
1062791454,63.132942,49.76,100569.0,1.1949261
1062801806,62.88192,49.76,100572.0,1.1949618
1062813571,62.88192,49.76,100572.0,1.1949618
1062835452,63.21485,49.76,100568.0,1.1949142
1062846453,62.37988,49.76,100578.0,1.1950331
1062857983,62.71281,49.76,100574.0,1.1949855
1062879452,63.80145,49.76,100561.0,1.194831
1062889846,63.21485,49.76,100568.0,1.1949142
1062901580,63.719536,49.76,100562.0,1.1948429
1062925545,63.299408,49.76,100567.0,1.1949023
1062937845,62.71281,49.76,100574.0,1.1949855
1062949608,62.963833,49.76,100571.0,1.1949499
1062973547,63.21485,49.76,100568.0,1.1949142
1062985733,63.21485,49.76,100568.0,1.1949142
1062997614,63.38396,49.76,100566.0,1.1948905
1063021545,63.55307,49.75,100563.99,1.1948665
1063033909,63.80145,49.75,100561.0,1.194831
1063043901,63.38396,49.75,100566.0,1.1948905
1063064812,63.55307,49.75,100563.99,1.1948665
1063075340,63.55307,49.75,100563.99,1.1948665
1063084815,63.970554,49.75,100559.0,1.1948073
1063107093,63.048386,49.76,100569.99,1.1949378
1063119181,63.21485,49.76,100568.0,1.1949142
1063131097,63.634983,49.76,100563.0,1.1948547
1063151889,63.299408,49.75,100567.0,1.1949023
1063163377,63.132942,49.75,100569.0,1.1949261
1063174693,63.21485,49.75,100568.0,1.1949142
1063194838,63.299408,49.75,100567.0,1.1949023
1063207225,63.970554,49.75,100559.0,1.1948073
1063216787,63.38396,49.75,100566.0,1.1948905
1063238747,63.80145,49.75,100561.0,1.194831
1063251612,63.55307,49.75,100563.99,1.1948665
1063262718,63.80145,49.75,100561.0,1.194831
1063286660,63.80145,49.75,100561.0,1.194831
1063299468,64.137024,49.75,100557.0,1.1947834
1063310739,64.137024,49.75,100557.0,1.1947834
1063331735,63.634983,49.75,100563.0,1.1948547
1063343290,64.22157,49.75,100556.0,1.1947716
1063352871,63.80145,49.75,100561.0,1.194831
1063374676,63.970554,49.75,100559.0,1.1948073
1063387415,64.22157,49.75,100556.0,1.1947716
1063398727,64.38805,49.75,100554.0,1.1947478
1063422757,64.05511,49.75,100557.99,1.1947953
1063435473,64.05511,49.75,100557.99,1.1947953
1063446770,64.55715,49.75,100551.99,1.194724
1063470755,64.30613,49.739998,100555.0,1.1947597
1063483468,63.886,49.739998,100560.0,1.1948191
1063494739,64.38805,49.739998,100554.0,1.1947478
1063518564,63.886,49.739998,100560.0,1.1948191
1063531341,63.970554,49.739998,100559.0,1.1948073
1063542516,64.30613,49.739998,100555.0,1.1947597
1063566531,64.30613,49.739998,100555.0,1.1947597
1063579533,64.472595,49.739998,100553.0,1.194736
1063590748,64.64171,49.739998,100550.99,1.1947122
1063611899,63.970554,49.739998,100559.0,1.1948073
1063624539,64.472595,49.739998,100553.0,1.194736
1063635746,64.64171,49.739998,100550.99,1.1947122
1063659894,64.808174,49.739998,100549.0,1.1946884
1063672315,64.472595,49.739998,100553.0,1.194736
1063683402,64.55715,49.739998,100551.99,1.194724
1063703737,64.55715,49.73,100551.99,1.194724
1063715917,64.55715,49.73,100551.99,1.194724
1063727597,64.72362,49.73,100550.0,1.1947004
1063751613,64.64171,49.73,100550.99,1.1947122
1063763981,65.225655,49.73,100544.0,1.1946291
1063773775,65.225655,49.73,100544.0,1.1946291
1063795740,64.97464,49.73,100547.0,1.1946647
1063808157,64.89008,49.73,100548.0,1.1946765
1063819514,64.89008,49.73,100548.0,1.1946765
1063843483,65.143745,49.739998,100544.99,1.1946409
1063856179,65.39477,49.739998,100542.0,1.1946052
1063867505,65.225655,49.739998,100544.0,1.1946291
1063891586,64.97464,49.73,100547.0,1.1946647
1063904162,64.808174,49.73,100549.0,1.1946884
1063915532,65.56123,49.73,100540.0,1.1945815
1063939463,65.73034,49.719997,100538.0,1.1945578
1063952296,65.56123,49.719997,100540.0,1.1945815
1063963407,64.808174,49.719997,100549.0,1.1946884
1063985775,64.38805,49.73,100554.0,1.1947478
1063997506,65.812256,49.73,100537.0,1.1945459
1064008889,65.39477,49.73,100542.0,1.1946052
1064031588,64.64171,49.73,100550.99,1.1947122
1064043156,64.72362,49.73,100550.0,1.1947004
1064053873,64.97464,49.73,100547.0,1.1946647
1064075900,65.56123,49.73,100540.0,1.1945815
1064088188,65.39477,49.73,100542.0,1.1946052
1064099421,66.14783,49.73,100532.99,1.1944983
1064121793,65.39477,49.719997,100542.0,1.1946052
1064133474,65.64579,49.719997,100538.99,1.1945696
1064143895,65.39477,49.719997,100542.0,1.1946052
1064166737,65.56123,49.73,100540.0,1.1945815
1064178452,65.56123,49.73,100540.0,1.1945815
1064189771,65.31021,49.73,100543.0,1.1946172
1064212299,66.06327,49.719997,100534.0,1.1945102
1064224283,66.31693,49.719997,100531.0,1.1944746
1064234739,66.14783,49.719997,100532.99,1.1944983
1064256770,66.06327,49.719997,100534.0,1.1945102
1064268713,65.73034,49.719997,100538.0,1.1945578
1064280695,65.812256,49.719997,100537.0,1.1945459
1064304696,65.225655,49.719997,100544.0,1.1946291
1064316701,65.73034,49.719997,100538.0,1.1945578
1064326743,66.39885,49.719997,100530.0,1.1944627
1064348783,66.65251,49.719997,100526.99,1.194427
1064361018,65.896805,49.719997,100536.0,1.194534
1064372087,65.812256,49.719997,100537.0,1.1945459
1064393826,65.896805,49.719997,100536.0,1.194534
1064405328,66.39885,49.719997,100530.0,1.1944627
1064416703,66.4834,49.719997,100529.0,1.1944509
1064440470,66.23238,49.719997,100532.0,1.1944865
1064452799,65.896805,49.719997,100536.0,1.194534
1064464916,66.4834,49.719997,100529.0,1.1944509
1064488544,66.14783,49.71,100532.99,1.1944983
1064500739,66.39885,49.71,100530.0,1.1944627
1064512394,66.06327,49.71,100534.0,1.1945102
1064534748,66.81898,49.71,100525.0,1.1944033
1064546463,66.39885,49.71,100530.0,1.1944627
1064557871,66.567955,49.71,100528.0,1.1944389
1064580212,66.4834,49.71,100529.0,1.1944509
1064592218,66.73707,49.71,100525.99,1.1944151
1064602745,67.07,49.71,100522.0,1.1943676
1064624873,66.4834,49.71,100529.0,1.1944509
1064636706,67.07,49.71,100522.0,1.1943676
1064648573,66.903534,49.71,100524.0,1.1943914
1064672494,67.48748,49.71,100517.0,1.1943083
1064684778,67.15455,49.71,100521.0,1.1943557
1064694747,67.15455,49.71,100521.0,1.1943557
1064716992,66.567955,49.7,100528.0,1.1944389
1064729011,67.321014,49.7,100519.0,1.194332
1064739736,67.48748,49.7,100517.0,1.1943083
1064761500,66.903534,49.71,100524.0,1.1943914
1064773512,66.65251,49.71,100526.99,1.194427
1064785502,66.567955,49.71,100528.0,1.1944389
1064809499,67.07,49.71,100522.0,1.1943676
1064821633,67.07,49.71,100522.0,1.1943676
1064833496,67.40557,49.71,100518.0,1.1943201
1064857601,66.81898,49.7,100525.0,1.1944033
1064869581,67.239105,49.7,100519.99,1.1943438
1064879744,67.15455,49.7,100521.0,1.1943557
1064901782,66.903534,49.7,100524.0,1.1943914
1064913856,66.903534,49.7,100524.0,1.1943914
1064924972,67.82306,49.7,100513.0,1.1942607
1064945790,67.07,49.7,100522.0,1.1943676
1064957599,67.07,49.7,100522.0,1.1943676
1064969314,67.48748,49.7,100517.0,1.1943083
1064991740,66.567955,49.7,100528.0,1.1944389
1065003296,67.48748,49.7,100517.0,1.1943083
1065013740,67.40557,49.7,100518.0,1.1943201
1065037006,67.74114,49.7,100513.99,1.1942725
1065049018,67.82306,49.7,100513.0,1.1942607
1065059736,67.48748,49.7,100517.0,1.1943083
1065081739,67.57204,49.7,100516.0,1.1942964
1065093658,67.65659,49.7,100515.0,1.1942844
1065105432,67.74114,49.7,100513.99,1.1942725
1065127741,68.07672,49.69,100510.0,1.1942251
1065139386,67.65659,49.69,100515.0,1.1942844
1065149788,67.992165,49.69,100511.0,1.194237
1065171737,67.74114,49.7,100513.99,1.1942725
1065183287,67.48748,49.7,100517.0,1.1943083
1065193781,67.40557,49.7,100518.0,1.1943201
1065217498,67.40557,49.7,100518.0,1.1943201
1065228877,67.48748,49.7,100517.0,1.1943083
1065239739,67.57204,49.7,100516.0,1.1942964
1065262149,67.907616,49.69,100512.0,1.1942488
1065273506,68.49421,49.69,100505.0,1.1941657
1065283820,68.660675,49.69,100503.0,1.1941419
1065305584,67.74114,49.69,100513.99,1.1942725
1065317862,67.57204,49.69,100516.0,1.1942964
1065329598,68.15863,49.69,100509.0,1.1942132
1065351756,68.40965,49.69,100506.0,1.1941775
1065363298,67.65659,49.69,100515.0,1.1942844
1065374139,68.07672,49.69,100510.0,1.1942251
1065397697,68.07672,49.69,100510.0,1.1942251
1065409530,67.907616,49.69,100512.0,1.1942488
1065421934,68.32774,49.69,100507.0,1.1941894
1065445817,68.49421,49.69,100505.0,1.1941657
1065457510,68.660675,49.69,100503.0,1.1941419
1065469813,68.49421,49.69,100505.0,1.1941657
1065493853,68.660675,49.68,100503.0,1.1941419
1065504306,68.07672,49.68,100510.0,1.1942251
1065514739,68.91434,49.68,100500.0,1.1941062
1065537863,68.91434,49.68,100500.0,1.1941062
1065549916,68.15863,49.68,100509.0,1.1942132
1065561625,68.82978,49.68,100500.99,1.194118
1065585693,68.24319,49.68,100507.99,1.1942012
1065597888,68.99625,49.68,100499.0,1.1940944
1065609493,69.334465,49.68,100494.99,1.1940467
1065630737,69.16536,49.68,100497.0,1.1940706
1065642339,69.16536,49.68,100497.0,1.1940706
1065653843,69.50093,49.68,100493.0,1.1940231
1065677719,68.745224,49.67,100501.99,1.19413
1065689642,69.24991,49.67,100496.0,1.1940588
1065701743,68.660675,49.67,100503.0,1.1941419
1065721740,68.660675,49.68,100503.0,1.1941419
1065733706,69.334465,49.68,100494.99,1.1940467
1065745422,69.24991,49.68,100496.0,1.1940588
1065766746,69.0808,49.67,100498.0,1.1940825
1065777519,69.24991,49.67,100496.0,1.1940588
1065789933,69.50093,49.67,100493.0,1.1940231
1065811740,69.416374,49.67,100494.0,1.1940349
1065824138,69.58549,49.67,100492.0,1.1940112
1065835485,69.16536,49.67,100497.0,1.1940706
1065859559,69.50093,49.67,100493.0,1.1940231
1065872264,69.6674,49.67,100491.0,1.1939993
1065883463,69.50093,49.67,100493.0,1.1940231
1065907511,69.334465,49.67,100494.99,1.1940467
1065920341,69.91842,49.67,100488.0,1.1939636
1065931368,69.416374,49.67,100494.0,1.1940349
1065953773,69.8365,49.66,100488.99,1.1939754
1065965341,70.25399,49.66,100484.0,1.1939162
1065975743,69.8365,49.66,100488.99,1.1939754
1065999685,70.4231,49.66,100482.0,1.1938924
1066012103,70.087524,49.66,100486.0,1.1939399
1066023618,70.25399,49.66,100484.0,1.1939162
1066045863,69.75195,49.66,100490.0,1.1939875
1066057326,70.4231,49.66,100482.0,1.1938924
1066067404,70.00297,49.66,100487.0,1.1939518
1066089779,69.416374,49.66,100494.0,1.1940349
1066101500,69.8365,49.66,100488.99,1.1939754
1066112863,70.25399,49.66,100484.0,1.1939162
1066135881,70.50501,49.66,100481.0,1.1938806
1066148033,70.00297,49.66,100487.0,1.1939518
1066159912,70.4231,49.66,100482.0,1.1938924
1066183907,70.00297,49.649998,100487.0,1.1939518
1066196140,70.50501,49.649998,100481.0,1.1938806
1066206782,70.50501,49.649998,100481.0,1.1938806
1066228765,70.16944,49.649998,100485.0,1.193928
1066240129,70.67412,49.649998,100479.0,1.1938567
1066250740,70.67412,49.649998,100479.0,1.1938567
1066272783,70.84323,49.649998,100476.99,1.1938329
1066284882,69.91842,49.649998,100488.0,1.1939636
1066294775,70.16944,49.649998,100485.0,1.193928
1066316219,70.84323,49.649998,100476.99,1.1938329
1066328214,71.0097,49.649998,100475.0,1.1938092
1066338746,70.67412,49.649998,100479.0,1.1938567
1066360778,70.758675,49.649998,100478.0,1.1938449
1066372927,71.0097,49.649998,100475.0,1.1938092
1066384716,71.0097,49.649998,100475.0,1.1938092
1066408730,71.0097,49.649998,100475.0,1.1938092
1066420792,71.429825,49.649998,100469.99,1.1937497
1066432696,70.84323,49.649998,100476.99,1.1938329
1066456696,71.0097,49.64,100475.0,1.1938092
1066468815,71.429825,49.64,100469.99,1.1937497
1066480482,71.511734,49.64,100469.0,1.1937379
1066504408,71.091606,49.64,100474.0,1.1937973
1066515894,71.26072,49.64,100472.0,1.1937735
1066526746,71.0097,49.64,100475.0,1.1938092
1066548793,70.92514,49.64,100475.99,1.193821
1066560970,71.76276,49.64,100466.0,1.1937022
1066572192,72.09833,49.64,100462.0,1.1936548
1066594737,71.511734,49.64,100469.0,1.1937379
1066606404,71.93186,49.64,100463.99,1.1936784
1066616742,71.429825,49.64,100469.99,1.1937497
1066640462,71.93186,49.64,100463.99,1.1936784
1066652716,72.26744,49.64,100460.0,1.1936309
1066664885,72.01378,49.64,100463.0,1.1936666
1066686750,71.429825,49.629997,100469.99,1.1937497
1066698422,71.59629,49.629997,100468.0,1.1937261
1066708794,72.34935,49.629997,100459.0,1.1936191
1066730795,72.26744,49.629997,100460.0,1.1936309
1066742430,71.93186,49.629997,100463.99,1.1936784
1066752703,72.09833,49.629997,100462.0,1.1936548
1066775736,72.60301,49.629997,100456.0,1.1935835
1066787344,72.51846,49.629997,100457.0,1.1935953
1066797783,72.34935,49.629997,100459.0,1.1936191
1066819737,72.76948,49.629997,100454.0,1.1935596
1066831288,72.26744,49.629997,100460.0,1.1936309
1066841780,72.51846,49.629997,100457.0,1.1935953
1066865803,72.76948,49.629997,100454.0,1.1935596
1066877594,72.60301,49.629997,100456.0,1.1935835
1066889506,72.26744,49.629997,100460.0,1.1936309
1066913505,72.854034,49.62,100453.0,1.1935478
1066925733,72.68493,49.62,100455.0,1.1935716
1066937253,73.35607,49.62,100447.0,1.1934766
1066959744,72.68493,49.629997,100455.0,1.1935716
1066971288,72.43391,49.629997,100457.99,1.1936071
1066981774,72.43391,49.629997,100457.99,1.1936071
1067004966,72.93859,49.62,100451.99,1.1935358
1067017145,72.76948,49.62,100454.0,1.1935596
1067027751,73.0205,49.62,100450.99,1.193524
1067049749,73.189606,49.62,100449.0,1.1935003
1067061844,73.44063,49.62,100446.0,1.1934646
1067073312,73.10506,49.62,100450.0,1.1935122
1067095736,73.35607,49.62,100447.0,1.1934766
1067107287,73.189606,49.62,100449.0,1.1935003
1067117740,73.35607,49.62,100447.0,1.1934766
1067139748,73.525185,49.62,100444.99,1.1934527
1067151331,73.525185,49.62,100444.99,1.1934527
1067161738,73.77621,49.62,100442.0,1.1934171
1067184081,72.93859,49.62,100451.99,1.1935358
1067195333,73.525185,49.62,100444.99,1.1934527
1067205138,73.60709,49.62,100444.0,1.1934409
1067227735,73.60709,49.62,100444.0,1.1934409
1067239290,73.860756,49.62,100441.0,1.1934053
1067249795,74.02722,49.62,100438.99,1.1933814
1067273352,73.44063,49.61,100446.0,1.1934646
1067284811,73.77621,49.61,100442.0,1.1934171
1067295747,73.60709,49.61,100444.0,1.1934409
1067317904,74.11178,49.61,100438.0,1.1933696
1067328339,73.44063,49.61,100446.0,1.1934646
1067338751,73.860756,49.61,100441.0,1.1934053
1067361593,73.77621,49.61,100442.0,1.1934171
1067373803,74.44735,49.61,100434.0,1.1933221
1067385608,73.94267,49.61,100440.0,1.1933933
1067409638,74.613815,49.61,100432.0,1.1932983
1067422051,73.60709,49.61,100444.0,1.1934409
1067431819,74.02722,49.61,100438.99,1.1933814
1067454374,74.196335,49.6,100437.0,1.1933577
1067465528,74.02722,49.6,100438.99,1.1933814
1067477779,73.860756,49.6,100441.0,1.1934053
1067501736,74.3628,49.6,100435.0,1.193334
1067513524,74.3628,49.6,100435.0,1.193334
1067525742,74.613815,49.6,100432.0,1.1932983
1067549747,74.531906,49.6,100432.99,1.1933101
1067561507,74.69837,49.6,100431.0,1.1932864
1067573781,74.949394,49.6,100428.0,1.1932508
1067595903,75.03395,49.59,100426.99,1.1932389
1067607289,73.94267,49.59,100440.0,1.1933933
1067617664,74.531906,49.59,100432.99,1.1933101
1067641490,75.1185,49.59,100425.99,1.1932269
1067653899,75.1185,49.59,100425.99,1.1932269
1067663908,75.1185,49.59,100425.99,1.1932269
1067686012,75.20042,49.59,100425.0,1.1932151
1067697666,75.20042,49.59,100425.0,1.1932151
1067709762,74.531906,49.59,100432.99,1.1933101
1067733780,75.284966,49.59,100424.0,1.1932032
1067745608,75.03395,49.59,100426.99,1.1932389
1067757711,74.78029,49.59,100430.0,1.1932745
1067779907,75.1185,49.579998,100425.99,1.1932269
1067791298,75.20042,49.579998,100425.0,1.1932151
1067801422,75.36952,49.579998,100423.0,1.1931914
1067822289,74.78029,49.59,100430.0,1.1932745
1067832334,75.620544,49.59,100419.99,1.1931556
1067841836,75.53599,49.59,100421.0,1.1931676
1067864737,75.956116,49.59,100416.0,1.1931082
1067875909,75.78701,49.59,100418.0,1.1931319
1067887759,75.70509,49.59,100419.0,1.1931438
1067911735,75.70509,49.59,100419.0,1.1931438
1067924021,75.45143,49.59,100422.0,1.1931795
1067935903,75.36952,49.59,100423.0,1.1931914
1067959987,75.53599,49.579998,100421.0,1.1931676
1067971920,75.53599,49.579998,100421.0,1.1931676
1067983897,75.70509,49.579998,100419.0,1.1931438
1068005778,76.291695,49.579998,100412.0,1.1930606
1068017324,76.20714,49.579998,100413.0,1.1930726
1068027829,76.54271,49.579998,100409.0,1.193025
1068051450,76.12523,49.579998,100413.99,1.1930844
1068064572,76.12523,49.579998,100413.99,1.1930844
1068075507,75.956116,49.579998,100416.0,1.1931082
1068099561,76.627266,49.57,100407.99,1.1930131
1068111340,76.962845,49.57,100404.0,1.1929656
1068120816,76.87829,49.57,100405.0,1.1929775
1068143767,76.962845,49.57,100404.0,1.1929656
1068155915,76.54271,49.57,100409.0,1.193025
1068167586,76.87829,49.57,100405.0,1.1929775
1068191635,76.37624,49.57,100411.0,1.1930488
1068203909,76.627266,49.57,100407.99,1.1930131
1068213860,76.54271,49.57,100409.0,1.193025
1068235414,76.79373,49.57,100406.0,1.1929893
1068247399,76.962845,49.57,100404.0,1.1929656
1068257791,77.21386,49.57,100400.99,1.1929299
1068280788,77.54944,49.559998,100397.0,1.1928824
1068292702,77.298416,49.559998,100400.0,1.1929181
1068302804,77.38297,49.559998,100399.0,1.1929063
1068324989,77.298416,49.559998,100400.0,1.1929181
1068337132,77.12931,49.559998,100401.99,1.1929418
1068347744,77.718544,49.559998,100394.99,1.1928586
1068369329,77.54944,49.559998,100397.0,1.1928824
1068379374,77.21386,49.559998,100400.99,1.1929299
1068389772,77.54944,49.559998,100397.0,1.1928824
1068411738,77.718544,49.559998,100394.99,1.1928586
1068423340,77.96957,49.559998,100392.0,1.192823
1068433746,77.718544,49.559998,100394.99,1.1928586
1068457317,77.12931,49.559998,100401.99,1.1929418
1068467334,77.718544,49.559998,100394.99,1.1928586
1068477750,77.718544,49.559998,100394.99,1.1928586
1068501164,78.13603,49.559998,100390.0,1.1927992
1068513074,77.96957,49.559998,100392.0,1.192823
1068523742,77.718544,49.559998,100394.99,1.1928586
1068545738,77.88501,49.559998,100393.0,1.192835
1068557595,77.96957,49.559998,100392.0,1.192823
1068569528,77.54944,49.559998,100397.0,1.1928824
1068593364,77.96957,49.55,100392.0,1.192823
1068604856,77.54944,49.55,100397.0,1.1928824
1068615749,77.80045,49.55,100394.0,1.1928468
1068637779,78.22059,49.55,100388.99,1.1927873
1068649796,78.22059,49.55,100388.99,1.1927873
1068660931,78.389694,49.55,100387.0,1.1927636
1068683737,78.389694,49.55,100387.0,1.1927636
1068695334,78.389694,49.55,100387.0,1.1927636
1068705878,78.725266,49.55,100382.99,1.192716
1068727832,78.22059,49.55,100388.99,1.1927873
1068739288,78.22059,49.55,100388.99,1.1927873
1068749851,78.80718,49.55,100382.0,1.1927042
1068773795,78.4716,49.539997,100386.0,1.1927518
1068785531,78.97629,49.539997,100380.0,1.1926805
1068795835,78.725266,49.539997,100382.99,1.192716
1068817845,78.22059,49.539997,100388.99,1.1927873
1068829795,78.55616,49.539997,100385.0,1.1927398
1068841508,78.97629,49.539997,100380.0,1.1926805
1068865509,79.0582,49.539997,100379.0,1.1926686
1068877772,79.14275,49.539997,100378.0,1.1926566
1068889610,79.22731,49.539997,100376.99,1.1926447
1068911905,79.56288,49.539997,100373.0,1.1925973
1068923291,78.89173,49.539997,100381.0,1.1926923
1068933885,79.56288,49.539997,100373.0,1.1925973
1068957847,79.393776,49.53,100375.0,1.192621
1068969632,79.47833,49.53,100374.0,1.1926092
1068979916,79.731995,49.53,100371.0,1.1925735
1069001794,79.393776,49.53,100375.0,1.192621
1069013745,79.56288,49.53,100373.0,1.1925973
1069025512,79.22731,49.53,100376.99,1.1926447
1069049482,79.56288,49.53,100373.0,1.1925973
1069060290,79.31187,49.53,100375.99,1.1926328
1069070739,79.47833,49.53,100374.0,1.1926092
1069093963,79.47833,49.53,100374.0,1.1926092
1069105559,79.98301,49.53,100368.0,1.1925379
1069117841,79.22731,49.53,100376.99,1.1926447
1069141833,80.064926,49.52,100367.0,1.192526
1069153538,80.31859,49.52,100363.99,1.1924902
1069165761,79.98301,49.52,100368.0,1.1925379
1069189809,79.89846,49.52,100369.0,1.1925497
1069201647,80.738716,49.52,100359.0,1.192431
1069213897,80.23403,49.52,100365.0,1.1925023
1069237848,80.149475,49.52,100366.0,1.1925141
1069249340,80.064926,49.52,100367.0,1.192526
1069259895,80.4005,49.52,100363.0,1.1924784
1069283389,80.064926,49.51,100367.0,1.192526
1069295502,80.23403,49.51,100365.0,1.1925023
1069307292,80.738716,49.51,100359.0,1.192431
1069331276,79.89846,49.51,100369.0,1.1925497
1069343535,80.149475,49.51,100366.0,1.1925141
1069355280,80.56961,49.51,100361.0,1.1924547
1069375737,80.738716,49.51,100359.0,1.192431
1069387249,80.31859,49.51,100363.99,1.1924902
1069397789,80.485054,49.51,100362.0,1.1924666
1069419736,80.98974,49.51,100356.0,1.1923953
1069431383,80.149475,49.51,100366.0,1.1925141
1069441769,80.82327,49.51,100357.99,1.1924189
1069464788,80.90518,49.51,100357.0,1.1924071
1069476298,80.65416,49.51,100360.0,1.1924428
1069487840,80.90518,49.51,100357.0,1.1924071
1069511836,80.98974,49.51,100356.0,1.1923953
1069523842,80.31859,49.51,100363.99,1.1924902
1069535755,80.90518,49.51,100357.0,1.1924071
1069559753,81.07429,49.5,100355.0,1.1923834
1069571986,81.57633,49.5,100349.0,1.1923121
1069583634,81.57633,49.5,100349.0,1.1923121
1069607629,81.66089,49.5,100348.0,1.1923002
1069619913,81.24075,49.5,100353.0,1.1923597
1069631631,80.98974,49.5,100356.0,1.1923953
1069653871,81.9119,49.489998,100344.99,1.1922646
1069665329,81.99646,49.489998,100344.0,1.1922528
1069674800,81.32531,49.489998,100351.99,1.1923476
1069696872,81.7428,49.5,100347.0,1.1922884
1069708790,81.66089,49.5,100348.0,1.1923002
1069720700,81.66089,49.5,100348.0,1.1923002
1069744715,81.66089,49.5,100348.0,1.1923002
1069756882,81.66089,49.5,100348.0,1.1923002
1069768483,81.9119,49.5,100344.99,1.1922646
1069792698,81.66089,49.489998,100348.0,1.1923002
1069804917,81.99646,49.489998,100344.0,1.1922528
1069816417,82.33203,49.489998,100340.0,1.1922052
1069837835,82.24748,49.489998,100341.0,1.1922171
1069849534,82.08102,49.489998,100343.0,1.1922408
1069860203,81.9119,49.489998,100344.99,1.1922646
1069882743,81.9119,49.48,100344.99,1.1922646
1069894299,82.4985,49.48,100338.0,1.1921815
1069904791,82.33203,49.48,100340.0,1.1922052
1069928557,82.08102,49.489998,100343.0,1.1922408
1069940063,82.24748,49.489998,100341.0,1.1922171
1069950739,82.58305,49.489998,100337.0,1.1921695
1069972746,82.41659,49.48,100338.99,1.1921933
1069984149,82.24748,49.48,100341.0,1.1922171
1069994745,82.58305,49.48,100337.0,1.1921695
1070016742,82.834076,49.48,100334.0,1.1921339
1070028877,82.41659,49.48,100338.99,1.1921933
1070038739,83.00318,49.48,100332.0,1.1921102
1070060737,82.4985,49.48,100338.0,1.1921815
1070072215,82.834076,49.48,100334.0,1.1921339
1070082737,82.24748,49.48,100341.0,1.1922171
1070104794,82.75217,49.48,100335.0,1.1921458
1070116854,82.4985,49.48,100338.0,1.1921815
1070126778,82.33203,49.48,100340.0,1.1922052
1070148304,82.24748,49.48,100341.0,1.1922171
1070160199,82.58305,49.48,100337.0,1.1921695
1070170749,82.91863,49.48,100332.99,1.1921219
1070192799,82.75217,49.48,100335.0,1.1921458
1070204849,83.2542,49.48,100329.0,1.1920745
1070215740,82.75217,49.48,100335.0,1.1921458
1070237816,82.75217,49.48,100335.0,1.1921458
1070249906,82.75217,49.48,100335.0,1.1921458
1070261092,83.08774,49.48,100331.0,1.1920983
1070281779,83.33876,49.469997,100328.0,1.1920626
1070292872,83.42331,49.469997,100326.99,1.1920506
1070303736,83.00318,49.469997,100332.0,1.1921102
1070325793,83.589775,49.469997,100325.0,1.192027
1070337915,83.33876,49.469997,100328.0,1.1920626
1070349275,83.00318,49.469997,100332.0,1.1921102
1070371736,83.2542,49.469997,100329.0,1.1920745
1070383288,83.589775,49.469997,100325.0,1.192027
1070394166,83.589775,49.469997,100325.0,1.192027
1070418246,83.75889,49.469997,100323.0,1.1920033
1070429691,83.00318,49.469997,100332.0,1.1921102
1070442233,83.2542,49.469997,100329.0,1.1920745
1070465347,83.67433,49.46,100324.0,1.192015
1070476944,83.2542,49.46,100329.0,1.1920745
1070489051,83.925354,49.46,100321.0,1.1919794
1070512085,83.42331,49.46,100326.99,1.1920506
1070523286,84.00991,49.46,100319.99,1.1919675
1070533738,84.00991,49.46,100319.99,1.1919675
1070557086,83.507866,49.46,100325.99,1.1920388
1070569990,83.75889,49.46,100323.0,1.1920033
1070579746,83.67433,49.46,100324.0,1.192015
1070601744,83.507866,49.46,100325.99,1.1920388
1070613672,84.00991,49.46,100319.99,1.1919675
1070625060,83.925354,49.46,100321.0,1.1919794
1070648067,83.925354,49.46,100321.0,1.1919794
1070659288,83.75889,49.46,100323.0,1.1920033
1070669866,84.09446,49.46,100319.0,1.1919557
1070691737,84.260925,49.46,100317.0,1.191932
1070703291,83.925354,49.46,100321.0,1.1919794
1070714069,83.843445,49.46,100322.0,1.1919913
1070738064,84.260925,49.45,100317.0,1.191932
1070749780,84.00991,49.45,100319.99,1.1919675
1070762135,84.09446,49.45,100319.0,1.1919557
1070785663,84.09446,49.44,100319.0,1.1919557
1070798653,84.43004,49.44,100315.0,1.1919081
1070809943,84.43004,49.44,100315.0,1.1919081
1070833928,84.260925,49.44,100317.0,1.191932
1070844334,84.179016,49.44,100318.0,1.1919438
1070854753,84.00991,49.44,100319.99,1.1919675
1070878299,84.51459,49.44,100313.99,1.1918962
1070888300,84.179016,49.44,100318.0,1.1919438
1070898753,84.68105,49.44,100312.0,1.1918725
1070921806,84.51459,49.44,100313.99,1.1918962
1070932294,84.43004,49.44,100315.0,1.1919081
1070942296,84.76561,49.44,100311.0,1.1918607
1070967144,83.75889,49.44,100323.0,1.1920033
1070979281,84.260925,49.44,100317.0,1.191932
1070991221,84.179016,49.44,100318.0,1.1919438
1071015231,84.179016,49.43,100318.0,1.1919438
1071027353,84.43004,49.43,100315.0,1.1919081
1071039319,84.260925,49.43,100317.0,1.191932
1071062136,84.34548,49.43,100316.0,1.19192
1071073667,84.51459,49.43,100313.99,1.1918962
1071083748,84.179016,49.43,100318.0,1.1919438
1071105948,84.09446,49.43,100319.0,1.1919557
1071118647,84.43004,49.43,100315.0,1.1919081
1071129979,84.43004,49.43,100315.0,1.1919081
1071153646,84.09446,49.43,100319.0,1.1919557
1071165875,84.260925,49.43,100317.0,1.191932
1071177597,84.76561,49.43,100311.0,1.1918607
1071201635,84.260925,49.43,100317.0,1.191932
1071213755,84.43004,49.43,100315.0,1.1919081
1071225607,84.43004,49.43,100315.0,1.1919081
1071249808,84.34548,49.42,100316.0,1.19192
1071263224,84.00991,49.42,100319.99,1.1919675
1071273615,84.179016,49.42,100318.0,1.1919438
1071297823,84.260925,49.42,100317.0,1.191932
1071310915,84.00991,49.42,100319.99,1.1919675
1071321806,84.260925,49.42,100317.0,1.191932
1071343748,84.43004,49.41,100315.0,1.1919081
1071355279,85.52132,49.41,100301.99,1.1917536
1071365867,84.596504,49.41,100313.0,1.1918844
1071387470,84.596504,49.41,100313.0,1.1918844
1071399473,84.76561,49.41,100311.0,1.1918607
1071411514,84.51459,49.41,100313.99,1.1918962
1071435477,84.260925,49.41,100317.0,1.191932
1071448832,84.00991,49.41,100319.99,1.1919675
1071459904,83.843445,49.41,100322.0,1.1919913
1071483498,84.34548,49.41,100316.0,1.19192
1071496284,84.00991,49.41,100319.99,1.1919675
1071507509,84.596504,49.41,100313.0,1.1918844
1071531828,84.09446,49.41,100319.0,1.1919557
1071545161,84.43004,49.41,100315.0,1.1919081
1071555838,85.18574,49.41,100306.0,1.1918012
1071579833,84.596504,49.399998,100313.0,1.1918844
1071592956,84.85017,49.399998,100310.0,1.1918488
1071603745,85.01663,49.399998,100307.99,1.1918249
1071627737,83.925354,49.399998,100321.0,1.1919794
1071641017,85.10119,49.399998,100307.0,1.1918131
1071651745,84.596504,49.399998,100313.0,1.1918844
1071675736,84.00991,49.399998,100319.99,1.1919675
1071688988,84.00991,49.399998,100319.99,1.1919675
1071699748,84.43004,49.399998,100315.0,1.1919081
1071723736,84.260925,49.399998,100317.0,1.191932
1071737049,83.67433,49.399998,100324.0,1.192015
1071748209,84.51459,49.399998,100313.99,1.1918962
1071770740,85.18574,49.39,100306.0,1.1918012
1071782334,84.00991,49.39,100319.99,1.1919675
1071792782,84.09446,49.39,100319.0,1.1919557
1071814790,83.67433,49.39,100324.0,1.192015
1071825331,84.179016,49.39,100318.0,1.1919438
1071836316,83.925354,49.39,100321.0,1.1919794
1071857886,84.179016,49.39,100318.0,1.1919438
1071869664,83.925354,49.39,100321.0,1.1919794
1071881629,83.67433,49.39,100324.0,1.192015
1071905261,84.596504,49.39,100313.0,1.1918844
1071916887,84.51459,49.39,100313.99,1.1918962
1071929341,84.68105,49.39,100312.0,1.1918725
1071950748,83.67433,49.39,100324.0,1.192015
1071962303,83.67433,49.39,100324.0,1.192015
1071972277,83.00318,49.39,100332.0,1.1921102
1071994748,83.843445,49.379997,100322.0,1.1919913
1072005863,83.843445,49.379997,100322.0,1.1919913
1072016871,83.589775,49.379997,100325.0,1.192027
1072041244,83.42331,49.39,100326.99,1.1920506
1072052851,84.179016,49.39,100318.0,1.1919438
1072065668,84.76561,49.39,100311.0,1.1918607
1072089517,84.179016,49.379997,100318.0,1.1919438
1072100910,83.589775,49.379997,100325.0,1.192027
1072112497,84.00991,49.379997,100319.99,1.1919675
1072136498,83.08774,49.379997,100331.0,1.1920983
1072148895,83.42331,49.379997,100326.99,1.1920506
1072160491,83.507866,49.379997,100325.99,1.1920388
1072184451,83.2542,49.37,100329.0,1.1920745
1072196910,84.179016,49.37,100318.0,1.1919438
1072208566,83.2542,49.37,100329.0,1.1920745
1072232464,83.67433,49.37,100324.0,1.192015
1072244909,83.33876,49.37,100328.0,1.1920626
1072254775,83.33876,49.37,100328.0,1.1920626
1072276350,84.179016,49.37,100318.0,1.1919438
1072288983,83.33876,49.37,100328.0,1.1920626
1072299737,84.34548,49.37,100316.0,1.19192
1072321779,83.507866,49.37,100325.99,1.1920388
1072333779,83.507866,49.37,100325.99,1.1920388
1072345059,83.589775,49.37,100325.0,1.192027
1072367749,83.42331,49.37,100326.99,1.1920506
1072379432,83.08774,49.37,100331.0,1.1920983
1072390467,83.2542,49.37,100329.0,1.1920745
1072414288,83.00318,49.37,100332.0,1.1921102
1072425695,83.843445,49.37,100322.0,1.1919913
1072437487,82.834076,49.37,100334.0,1.1921339
1072461044,83.75889,49.36,100323.0,1.1920033
1072472887,83.00318,49.36,100332.0,1.1921102
1072484081,83.507866,49.36,100325.99,1.1920388
1072505800,84.00991,49.36,100319.99,1.1919675
1072517814,83.2542,49.36,100329.0,1.1920745
1072527742,83.507866,49.36,100325.99,1.1920388
1072550233,83.2542,49.36,100329.0,1.1920745
1072561659,83.843445,49.36,100322.0,1.1919913
1072574237,82.91863,49.36,100332.99,1.1921219
1072597363,83.75889,49.36,100323.0,1.1920033
1072608861,83.67433,49.36,100324.0,1.192015
1072621064,83.67433,49.36,100324.0,1.192015
1072644988,84.09446,49.35,100319.0,1.1919557
1072656873,83.33876,49.35,100328.0,1.1920626
1072669020,83.2542,49.35,100329.0,1.1920745
1072692078,83.172295,49.35,100330.0,1.1920863
1072703288,83.589775,49.35,100325.0,1.192027
1072713738,83.507866,49.35,100325.99,1.1920388
1072737788,82.91863,49.35,100332.99,1.1921219
1072750608,83.507866,49.35,100325.99,1.1920388
1072761775,83.33876,49.35,100328.0,1.1920626
1072785780,83.2542,49.35,100329.0,1.1920745
1072798603,83.33876,49.35,100328.0,1.1920626
1072809779,84.09446,49.35,100319.0,1.1919557
1072833865,83.925354,49.34,100321.0,1.1919794
1072847102,82.58305,49.34,100337.0,1.1921695
1072858012,82.75217,49.34,100335.0,1.1921458
1072881901,83.00318,49.34,100332.0,1.1921102
1072892342,83.507866,49.34,100325.99,1.1920388
1072902745,83.67433,49.34,100324.0,1.192015
1072926069,83.00318,49.34,100332.0,1.1921102
1072937730,83.507866,49.34,100325.99,1.1920388
1072949855,83.843445,49.34,100322.0,1.1919913
1072970743,82.75217,49.329998,100335.0,1.1921458
1072982641,83.172295,49.329998,100330.0,1.1920863
1072993907,82.91863,49.329998,100332.99,1.1921219
1073017644,83.589775,49.329998,100325.0,1.192027
1073029819,83.172295,49.329998,100330.0,1.1920863
1073041612,83.2542,49.329998,100329.0,1.1920745
1073065667,83.172295,49.329998,100330.0,1.1920863
1073077818,82.91863,49.329998,100332.99,1.1921219
1073089640,83.843445,49.329998,100322.0,1.1919913
1073113659,83.75889,49.329998,100323.0,1.1920033
1073126653,83.33876,49.329998,100328.0,1.1920626
1073137695,84.260925,49.329998,100317.0,1.191932
1073162006,83.67433,49.32,100324.0,1.192015
1073174657,83.172295,49.32,100330.0,1.1920863
1073185889,82.91863,49.32,100332.99,1.1921219
1073209895,83.33876,49.32,100328.0,1.1920626
1073222723,83.2542,49.32,100329.0,1.1920745
1073233863,83.75889,49.32,100323.0,1.1920033
1073257882,83.589775,49.32,100325.0,1.192027
1073268341,82.91863,49.32,100332.99,1.1921219
1073278737,83.843445,49.32,100322.0,1.1919913
1073302090,83.172295,49.32,100330.0,1.1920863
1073313698,82.4985,49.32,100338.0,1.1921815
1073325857,83.172295,49.32,100330.0,1.1920863
1073346736,83.172295,49.309998,100330.0,1.1920863
1073358726,83.843445,49.309998,100322.0,1.1919913
1073369941,83.67433,49.309998,100324.0,1.192015
1073393530,83.507866,49.309998,100325.99,1.1920388
1073405808,83.33876,49.309998,100328.0,1.1920626
1073416740,83.925354,49.309998,100321.0,1.1919794
1073439674,83.589775,49.309998,100325.0,1.192027
1073451333,83.507866,49.309998,100325.99,1.1920388
1073463916,83.843445,49.309998,100322.0,1.1919913
1073487093,83.507866,49.309998,100325.99,1.1920388
1073497323,83.75889,49.309998,100323.0,1.1920033
1073507884,84.00991,49.309998,100319.99,1.1919675
1073530790,83.507866,49.309998,100325.99,1.1920388
1073541364,83.507866,49.309998,100325.99,1.1920388
1073551670,83.42331,49.309998,100326.99,1.1920506
1073575941,82.834076,49.309998,100334.0,1.1921339
1073587226,83.33876,49.309998,100328.0,1.1920626
1073599838,83.172295,49.309998,100330.0,1.1920863
1073623719,83.172295,49.3,100330.0,1.1920863
1073635345,82.91863,49.3,100332.99,1.1921219
1073647833,83.2542,49.3,100329.0,1.1920745
1073668778,83.2542,49.3,100329.0,1.1920745
1073680288,82.75217,49.3,100335.0,1.1921458
1073690713,83.2542,49.3,100329.0,1.1920745
1073714717,82.91863,49.289997,100332.99,1.1921219
1073725326,82.91863,49.289997,100332.99,1.1921219
1073735889,82.75217,49.289997,100335.0,1.1921458
1073756862,83.507866,49.289997,100325.99,1.1920388
1073768291,83.00318,49.289997,100332.0,1.1921102
1073778883,83.2542,49.289997,100329.0,1.1920745
1073802808,83.42331,49.289997,100326.99,1.1920506
1073815459,83.00318,49.289997,100332.0,1.1921102
1073826745,83.507866,49.289997,100325.99,1.1920388
1073848783,84.09446,49.289997,100319.0,1.1919557
1073860332,83.33876,49.289997,100328.0,1.1920626
1073871638,83.08774,49.289997,100331.0,1.1920983
1073895645,83.00318,49.289997,100332.0,1.1921102
1073907360,83.08774,49.289997,100331.0,1.1920983
1073919683,82.834076,49.289997,100334.0,1.1921339
1073942863,83.42331,49.28,100326.99,1.1920506
1073955338,83.172295,49.28,100330.0,1.1920863
1073964788,82.75217,49.28,100335.0,1.1921458
1073987597,83.33876,49.28,100328.0,1.1920626
1074000341,83.507866,49.28,100325.99,1.1920388
1074011565,82.75217,49.28,100335.0,1.1921458
1074035505,82.24748,49.27,100341.0,1.1922171
1074048286,82.834076,49.27,100334.0,1.1921339
1074059540,82.834076,49.27,100334.0,1.1921339
1074081741,83.42331,49.27,100326.99,1.1920506
1074093442,82.91863,49.27,100332.99,1.1921219
1074104514,82.41659,49.27,100338.99,1.1921933
1074128422,82.08102,49.27,100343.0,1.1922408
1074140057,82.66761,49.27,100336.0,1.1921576
1074151715,82.4985,49.27,100338.0,1.1921815
1074173843,82.834076,49.26,100334.0,1.1921339
1074185345,82.41659,49.26,100338.99,1.1921933
1074195560,82.834076,49.26,100334.0,1.1921339
1074219570,82.58305,49.26,100337.0,1.1921695
1074232294,82.24748,49.26,100341.0,1.1922171
1074243471,82.4985,49.26,100338.0,1.1921815
1074267480,83.172295,49.26,100330.0,1.1920863
1074279422,83.00318,49.26,100332.0,1.1921102
1074289781,82.75217,49.26,100335.0,1.1921458
1074312483,83.172295,49.25,100330.0,1.1920863
1074324064,83.507866,49.25,100325.99,1.1920388
1074336486,83.2542,49.25,100329.0,1.1920745
1074359714,83.589775,49.25,100325.0,1.192027
1074372080,83.08774,49.25,100331.0,1.1920983
1074381846,83.08774,49.25,100331.0,1.1920983
1074403540,82.4985,49.25,100338.0,1.1921815
1074416185,82.91863,49.25,100332.99,1.1921219
1074427421,83.00318,49.25,100332.0,1.1921102
1074449789,82.834076,49.239998,100334.0,1.1921339
1074461503,83.00318,49.239998,100332.0,1.1921102
1074472414,83.42331,49.239998,100326.99,1.1920506
1074496503,83.2542,49.239998,100329.0,1.1920745
1074508092,82.66761,49.239998,100336.0,1.1921576
1074520446,83.2542,49.239998,100329.0,1.1920745
1074542781,82.75217,49.239998,100335.0,1.1921458
1074554349,83.00318,49.239998,100332.0,1.1921102
1074564793,82.75217,49.239998,100335.0,1.1921458
1074588403,83.08774,49.23,100331.0,1.1920983
1074600516,83.00318,49.23,100332.0,1.1921102
1074610774,83.172295,49.23,100330.0,1.1920863
1074633187,82.58305,49.23,100337.0,1.1921695
1074644871,82.834076,49.23,100334.0,1.1921339
1074657496,83.42331,49.23,100326.99,1.1920506
1074681263,82.4985,49.23,100338.0,1.1921815
1074692802,82.58305,49.23,100337.0,1.1921695
1074705537,83.172295,49.23,100330.0,1.1920863
1074728699,82.834076,49.219997,100334.0,1.1921339
1074740795,82.41659,49.219997,100338.99,1.1921933
1074752535,83.00318,49.219997,100332.0,1.1921102
1074774796,82.75217,49.219997,100335.0,1.1921458
1074786306,83.2542,49.219997,100329.0,1.1920745
1074796784,82.91863,49.219997,100332.99,1.1921219
1074818840,82.33203,49.219997,100340.0,1.1922052
1074830299,82.41659,49.219997,100338.99,1.1921933
1074841559,82.58305,49.219997,100337.0,1.1921695
1074864559,82.66761,49.219997,100336.0,1.1921576
1074876958,81.827354,49.219997,100346.0,1.1922765
1074889302,82.66761,49.219997,100336.0,1.1921576
1074912551,82.834076,49.21,100334.0,1.1921339
1074924947,83.00318,49.21,100332.0,1.1921102
1074936523,82.75217,49.21,100335.0,1.1921458
1074960494,82.162926,49.2,100342.0,1.1922289
1074972014,82.834076,49.2,100334.0,1.1921339
1074982736,82.4985,49.2,100338.0,1.1921815
1075004785,82.162926,49.2,100342.0,1.1922289
1075016981,82.834076,49.2,100334.0,1.1921339
1075026778,82.24748,49.2,100341.0,1.1922171
1075049668,82.4985,49.2,100338.0,1.1921815
1075061510,83.172295,49.2,100330.0,1.1920863
1075073595,82.66761,49.2,100336.0,1.1921576
1075095752,82.75217,49.19,100335.0,1.1921458
1075107302,81.827354,49.19,100346.0,1.1922765
1075117073,82.834076,49.19,100334.0,1.1921339
1075138738,82.24748,49.19,100341.0,1.1922171
1075149690,82.834076,49.19,100334.0,1.1921339
1075162380,83.08774,49.19,100331.0,1.1920983
1075183749,82.08102,49.19,100343.0,1.1922408
1075195299,82.834076,49.19,100334.0,1.1921339
1075205835,83.172295,49.19,100330.0,1.1920863
1075229211,83.33876,49.18,100328.0,1.1920626
1075241009,83.172295,49.18,100330.0,1.1920863
1075252839,83.00318,49.18,100332.0,1.1921102
1075276823,82.162926,49.18,100342.0,1.1922289
1075289045,82.162926,49.18,100342.0,1.1922289
1075299735,82.91863,49.18,100332.99,1.1921219
1075321778,82.41659,49.18,100338.99,1.1921933
1075333635,82.66761,49.18,100336.0,1.1921576
1075345575,82.162926,49.18,100342.0,1.1922289
1075367753,82.24748,49.17,100341.0,1.1922171
1075379385,81.99646,49.17,100344.0,1.1922528
1075389739,82.4985,49.17,100338.0,1.1921815
1075413065,81.57633,49.17,100349.0,1.1923121
1075424989,82.41659,49.17,100338.99,1.1921933
1075435745,82.08102,49.17,100343.0,1.1922408
1075458026,82.834076,49.17,100334.0,1.1921339
1075468874,82.33203,49.17,100340.0,1.1922052
1075479744,81.9119,49.17,100344.99,1.1922646
1075501830,82.33203,49.16,100340.0,1.1922052
1075513817,81.827354,49.16,100346.0,1.1922765
1075525108,82.91863,49.16,100332.99,1.1921219
1075547750,82.4985,49.16,100338.0,1.1921815
1075559301,82.66761,49.16,100336.0,1.1921576
1075570298,82.08102,49.16,100343.0,1.1922408
1075594052,82.33203,49.149998,100340.0,1.1922052
1075605594,82.91863,49.149998,100332.99,1.1921219
1075618295,82.66761,49.149998,100336.0,1.1921576
1075641281,82.33203,49.149998,100340.0,1.1922052
1075652794,83.08774,49.149998,100331.0,1.1920983
1075663833,82.33203,49.149998,100340.0,1.1922052
1075685601,82.58305,49.149998,100337.0,1.1921695
1075697770,82.58305,49.149998,100337.0,1.1921695
1075709603,82.08102,49.149998,100343.0,1.1922408
1075733582,82.91863,49.14,100332.99,1.1921219
1075746560,83.2542,49.14,100329.0,1.1920745
1075757888,82.834076,49.14,100334.0,1.1921339
1075778740,83.507866,49.14,100325.99,1.1920388
1075790481,82.75217,49.14,100335.0,1.1921458
1075802296,82.41659,49.14,100338.99,1.1921933
1075825796,82.33203,49.129997,100340.0,1.1922052
1075837637,83.2542,49.129997,100329.0,1.1920745
1075849897,82.162926,49.129997,100342.0,1.1922289
1075871745,82.24748,49.129997,100341.0,1.1922171
1075883288,81.9119,49.129997,100344.99,1.1922646
1075893870,82.33203,49.129997,100340.0,1.1922052
1075917600,82.58305,49.129997,100337.0,1.1921695
1075929859,82.162926,49.129997,100342.0,1.1922289
1075941649,83.00318,49.129997,100332.0,1.1921102
1075965661,83.08774,49.12,100331.0,1.1920983
1075978606,82.66761,49.12,100336.0,1.1921576
1075989655,82.24748,49.12,100341.0,1.1922171
1076010737,83.08774,49.11,100331.0,1.1920983
1076022458,82.4985,49.11,100338.0,1.1921815
1076034155,83.00318,49.11,100332.0,1.1921102
1076054778,82.41659,49.11,100338.99,1.1921933
1076065845,82.91863,49.11,100332.99,1.1921219
1076077644,82.834076,49.11,100334.0,1.1921339
1076101650,82.66761,49.11,100336.0,1.1921576
1076113809,82.4985,49.11,100338.0,1.1921815
1076125548,82.24748,49.11,100341.0,1.1922171
1076149641,82.33203,49.1,100340.0,1.1922052
1076161837,83.00318,49.1,100332.0,1.1921102
1076173647,82.33203,49.1,100340.0,1.1922052
1076197653,81.9119,49.1,100344.99,1.1922646
1076210956,82.162926,49.1,100342.0,1.1922289
1076223106,83.172295,49.1,100330.0,1.1920863
1076243524,82.75217,49.09,100335.0,1.1921458
1076256330,82.58305,49.09,100337.0,1.1921695
1076265782,82.58305,49.09,100337.0,1.1921695
1076287739,82.24748,49.09,100341.0,1.1922171
1076300187,81.66089,49.09,100348.0,1.1923002
1076311688,82.08102,49.09,100343.0,1.1922408
1076333769,83.33876,49.09,100328.0,1.1920626
1076345166,82.08102,49.09,100343.0,1.1922408
1076355907,82.41659,49.09,100338.99,1.1921933
1076379838,82.834076,49.09,100334.0,1.1921339
1076393037,83.08774,49.09,100331.0,1.1920983
1076403932,82.66761,49.09,100336.0,1.1921576
1076427846,81.99646,49.079998,100344.0,1.1922528
1076441081,82.75217,49.079998,100335.0,1.1921458
1076451843,81.99646,49.079998,100344.0,1.1922528
1076475840,82.58305,49.07,100337.0,1.1921695
1076489100,83.08774,49.07,100331.0,1.1920983
1076499903,82.66761,49.07,100336.0,1.1921576
1076523749,82.58305,49.07,100337.0,1.1921695
1076536951,82.66761,49.07,100336.0,1.1921576
1076547745,82.24748,49.07,100341.0,1.1922171
1076571536,82.41659,49.059998,100338.99,1.1921933
1076584480,82.75217,49.059998,100335.0,1.1921458
1076595496,82.91863,49.059998,100332.99,1.1921219
1076619546,82.41659,49.059998,100338.99,1.1921933
1076632564,81.99646,49.059998,100344.0,1.1922528
1076644319,82.58305,49.059998,100337.0,1.1921695
1076664787,82.33203,49.05,100340.0,1.1922052
1076676953,81.7428,49.05,100347.0,1.1922884
1076688478,82.41659,49.05,100338.99,1.1921933
1076712528,82.75217,49.059998,100335.0,1.1921458
1076724945,82.4985,49.059998,100338.0,1.1921815
1076736525,82.24748,49.059998,100341.0,1.1922171
1076760422,82.24748,49.039997,100341.0,1.1922171
1076772010,82.33203,49.039997,100340.0,1.1922052
1076782735,82.834076,49.039997,100334.0,1.1921339
1076804210,83.00318,49.039997,100332.0,1.1921102
1076816174,82.75217,49.039997,100335.0,1.1921458
1076826749,82.33203,49.039997,100340.0,1.1922052
1076848882,83.00318,49.039997,100332.0,1.1921102
1076860892,82.4985,49.039997,100338.0,1.1921815
1076872717,82.66761,49.039997,100336.0,1.1921576
1076896695,82.58305,49.03,100337.0,1.1921695
1076908861,82.24748,49.03,100341.0,1.1922171
1076920701,82.66761,49.03,100336.0,1.1921576
1076942796,82.24748,49.03,100341.0,1.1922171
1076954429,82.58305,49.03,100337.0,1.1921695
1076965481,82.58305,49.03,100337.0,1.1921695
1076986745,82.834076,49.03,100334.0,1.1921339
1076998437,82.58305,49.03,100337.0,1.1921695
1077008789,82.58305,49.03,100337.0,1.1921695
1077032632,82.58305,49.03,100337.0,1.1921695
1077044871,82.24748,49.03,100341.0,1.1922171
1077056709,81.827354,49.03,100346.0,1.1922765
1077080715,82.75217,49.02,100335.0,1.1921458
1077092889,83.2542,49.02,100329.0,1.1920745
1077104699,82.4985,49.02,100338.0,1.1921815
1077128553,82.162926,49.01,100342.0,1.1922289
1077140781,82.58305,49.01,100337.0,1.1921695
1077150799,82.4985,49.01,100338.0,1.1921815
1077173523,81.827354,49.01,100346.0,1.1922765
1077184161,82.66761,49.01,100336.0,1.1921576
1077194736,82.41659,49.01,100338.99,1.1921933
1077217267,81.99646,49.01,100344.0,1.1922528
1077229146,82.4985,49.01,100338.0,1.1921815
1077239737,81.7428,49.01,100347.0,1.1922884
1077261498,82.33203,49.01,100340.0,1.1922052
1077273632,82.75217,49.01,100335.0,1.1921458
1077285317,81.827354,49.01,100346.0,1.1922765
1077307748,82.24748,49.0,100341.0,1.1922171
1077319397,81.7428,49.0,100347.0,1.1922884
1077329790,82.4985,49.0,100338.0,1.1921815
1077353132,82.08102,49.0,100343.0,1.1922408
1077365020,81.99646,49.0,100344.0,1.1922528
1077375745,81.9119,49.0,100344.99,1.1922646
1077397906,81.491776,48.989998,100350.0,1.192324
1077409649,82.08102,48.989998,100343.0,1.1922408
1077420074,82.08102,48.989998,100343.0,1.1922408
1077441155,82.08102,48.989998,100343.0,1.1922408
1077452977,82.4985,48.989998,100338.0,1.1921815
1077464839,81.9119,48.989998,100344.99,1.1922646
1077487748,82.24748,48.989998,100341.0,1.1922171
1077499302,82.33203,48.989998,100340.0,1.1922052
1077509725,81.9119,48.989998,100344.99,1.1922646
1077533608,82.58305,48.98,100337.0,1.1921695
1077545733,82.66761,48.98,100336.0,1.1921576
1077557529,82.162926,48.98,100342.0,1.1922289
1077581344,82.162926,48.969997,100342.0,1.1922289
1077592870,82.91863,48.969997,100332.99,1.1921219
1077603746,82.91863,48.969997,100332.99,1.1921219
1077625739,83.08774,48.969997,100331.0,1.1920983
1077637827,83.08774,48.969997,100331.0,1.1920983
1077648078,83.67433,48.969997,100324.0,1.192015
1077669504,83.33876,48.969997,100328.0,1.1920626
1077681594,82.08102,48.969997,100343.0,1.1922408
1077693321,83.08774,48.969997,100331.0,1.1920983
1077715736,82.41659,48.96,100338.99,1.1921933
1077727335,83.172295,48.96,100330.0,1.1920863
1077737777,82.58305,48.96,100337.0,1.1921695
1077761091,82.834076,48.96,100334.0,1.1921339
1077771327,82.66761,48.96,100336.0,1.1921576
1077782293,82.33203,48.96,100340.0,1.1922052
1077805976,82.41659,48.95,100338.99,1.1921933
1077817653,82.834076,48.95,100334.0,1.1921339
1077830010,83.2542,48.95,100329.0,1.1920745
1077853897,82.08102,48.95,100343.0,1.1922408
1077865817,82.41659,48.95,100338.99,1.1921933
1077877832,82.91863,48.95,100332.99,1.1921219
1077899741,82.08102,48.94,100343.0,1.1922408
1077911288,83.00318,48.94,100332.0,1.1921102
1077921929,82.4985,48.94,100338.0,1.1921815
1077945625,82.24748,48.94,100341.0,1.1922171
1077957942,82.41659,48.94,100338.99,1.1921933
1077969693,82.75217,48.94,100335.0,1.1921458
1077993618,82.24748,48.93,100341.0,1.1922171
1078005946,81.99646,48.93,100344.0,1.1922528
1078017682,82.41659,48.93,100338.99,1.1921933
1078041611,82.33203,48.93,100340.0,1.1922052
1078054441,83.2542,48.93,100329.0,1.1920745
1078065614,82.41659,48.93,100338.99,1.1921933
1078089623,82.33203,48.92,100340.0,1.1922052
1078100369,82.24748,48.92,100341.0,1.1922171
1078110737,82.58305,48.92,100337.0,1.1921695
1078133762,81.827354,48.91,100346.0,1.1922765
1078145683,81.9119,48.91,100344.99,1.1922646
1078157800,82.33203,48.91,100340.0,1.1922052
1078181763,82.91863,48.91,100332.99,1.1921219
1078192340,82.24748,48.91,100341.0,1.1922171
1078202782,82.162926,48.91,100342.0,1.1922289
1078225910,82.66761,48.91,100336.0,1.1921576
1078237860,82.58305,48.91,100337.0,1.1921695
1078249633,82.834076,48.91,100334.0,1.1921339
1078273612,82.33203,48.899998,100340.0,1.1922052
1078285975,82.91863,48.899998,100332.99,1.1921219
1078297639,82.66761,48.899998,100336.0,1.1921576
1078321527,82.162926,48.899998,100342.0,1.1922289
1078332297,81.9119,48.899998,100344.99,1.1922646
1078343702,82.24748,48.899998,100341.0,1.1922171
1078367710,82.66761,48.89,100336.0,1.1921576
1078380094,82.33203,48.89,100340.0,1.1922052
1078391697,82.91863,48.89,100332.99,1.1921219
1078413791,82.58305,48.879997,100337.0,1.1921695
1078425510,82.66761,48.879997,100336.0,1.1921576
1078436814,83.33876,48.879997,100328.0,1.1920626
1078459749,82.33203,48.879997,100340.0,1.1922052
1078472216,82.75217,48.879997,100335.0,1.1921458
1078483468,82.91863,48.879997,100332.99,1.1921219
1078507479,82.4985,48.879997,100338.0,1.1921815
1078520240,81.99646,48.879997,100344.0,1.1922528
1078531583,82.66761,48.879997,100336.0,1.1921576
1078555582,82.41659,48.87,100338.99,1.1921933
1078568329,82.66761,48.87,100336.0,1.1921576
1078577772,82.66761,48.87,100336.0,1.1921576
1078597777,83.08774,48.86,100331.0,1.1920983
1078608288,82.58305,48.86,100337.0,1.1921695
1078619556,82.58305,48.86,100337.0,1.1921695
1078641780,82.91863,48.86,100332.99,1.1921219
1078652927,82.4985,48.86,100338.0,1.1921815
1078664689,82.33203,48.86,100340.0,1.1922052
1078686056,83.08774,48.85,100331.0,1.1920983
1078699259,82.91863,48.85,100332.99,1.1921219
1078709780,83.08774,48.85,100331.0,1.1920983
1078731731,82.4985,48.85,100338.0,1.1921815
1078744177,82.75217,48.85,100335.0,1.1921458
1078754144,82.75217,48.85,100335.0,1.1921458
1078776968,82.58305,48.85,100337.0,1.1921695
1078789727,82.66761,48.85,100336.0,1.1921576
1078801001,82.91863,48.85,100332.99,1.1921219
1078824992,82.08102,48.84,100343.0,1.1922408
1078837729,82.75217,48.84,100335.0,1.1921458
1078849593,82.33203,48.84,100340.0,1.1922052
1078872828,82.58305,48.829998,100337.0,1.1921695
1078885731,82.75217,48.829998,100335.0,1.1921458
1078896789,82.91863,48.829998,100332.99,1.1921219
1078920493,82.4985,48.829998,100338.0,1.1921815
1078932022,83.172295,48.829998,100330.0,1.1920863
1078942774,82.33203,48.829998,100340.0,1.1922052
1078964779,82.4985,48.82,100338.0,1.1921815
1078977038,83.507866,48.82,100325.99,1.1920388
1078986749,83.08774,48.82,100331.0,1.1920983
1079009001,82.834076,48.82,100334.0,1.1921339
1079021729,82.41659,48.82,100338.99,1.1921933
1079033050,82.75217,48.82,100335.0,1.1921458
1079056741,82.41659,48.809998,100338.99,1.1921933
1079068893,82.4985,48.809998,100338.0,1.1921815
1079080730,82.58305,48.809998,100337.0,1.1921695
1079102736,82.66761,48.8,100336.0,1.1921576
1079114322,82.33203,48.8,100340.0,1.1922052
1079124867,81.99646,48.8,100344.0,1.1922528
1079148316,82.08102,48.8,100343.0,1.1922408
1079160189,82.41659,48.8,100338.99,1.1921933
1079170782,82.4985,48.8,100338.0,1.1921815
1079192863,82.41659,48.789997,100338.99,1.1921933
1079205654,82.91863,48.789997,100332.99,1.1921219
1079217001,81.7428,48.789997,100347.0,1.1922884
1079240992,83.00318,48.789997,100332.0,1.1921102
1079253779,83.00318,48.789997,100332.0,1.1921102
1079264878,83.08774,48.789997,100331.0,1.1920983
1079288269,83.33876,48.78,100328.0,1.1920626
1079300047,83.08774,48.78,100331.0,1.1920983
1079310756,82.75217,48.78,100335.0,1.1921458
1079332875,83.08774,48.78,100331.0,1.1920983
1079345107,83.2542,48.78,100329.0,1.1920745
1079355745,82.834076,48.78,100334.0,1.1921339
1079377863,82.75217,48.77,100335.0,1.1921458
1079389688,82.834076,48.77,100334.0,1.1921339
1079401501,82.33203,48.77,100340.0,1.1922052
1079423736,83.172295,48.76,100330.0,1.1920863
1079435286,82.66761,48.76,100336.0,1.1921576
1079445816,82.4985,48.76,100338.0,1.1921815
1079469194,83.00318,48.76,100332.0,1.1921102
1079480991,83.33876,48.76,100328.0,1.1920626
1079491757,83.00318,48.76,100332.0,1.1921102
1079513869,82.66761,48.75,100336.0,1.1921576
1079526502,83.172295,48.75,100330.0,1.1920863
1079537826,83.2542,48.75,100329.0,1.1920745
1079561167,82.4985,48.75,100338.0,1.1921815
1079572900,82.4985,48.75,100338.0,1.1921815
1079584079,82.91863,48.75,100332.99,1.1921219
1079605495,83.507866,48.739998,100325.99,1.1920388
1079617897,83.507866,48.739998,100325.99,1.1920388
1079628851,82.91863,48.739998,100332.99,1.1921219
1079651746,82.33203,48.739998,100340.0,1.1922052
1079662515,83.33876,48.739998,100328.0,1.1920626
1079673824,82.75217,48.739998,100335.0,1.1921458
1079697722,82.58305,48.73,100337.0,1.1921695
1079709844,81.99646,48.73,100344.0,1.1922528
1079721056,82.75217,48.73,100335.0,1.1921458
1079743735,83.172295,48.73,100330.0,1.1920863
1079755332,82.834076,48.73,100334.0,1.1921339
1079765782,83.172295,48.73,100330.0,1.1920863
1079789174,82.834076,48.719997,100334.0,1.1921339
1079801119,82.91863,48.719997,100332.99,1.1921219
1079812082,82.41659,48.719997,100338.99,1.1921933
1079833790,82.66761,48.71,100336.0,1.1921576
1079846493,82.33203,48.71,100340.0,1.1922052
1079857795,82.75217,48.71,100335.0,1.1921458
1079881672,83.2542,48.7,100329.0,1.1920745
1079893664,82.834076,48.7,100334.0,1.1921339
