timestamp,time_utc_usec,lat,lon,alt,alt_ellipsoid,s_variance_m_s,c_variance_rad,eph,epv,hdop,vdop,noise_per_ms,jamming_indicator,vel_m_s,vel_n_m_s,vel_e_m_s,vel_d_m_s,cog_rad,timestamp_time_relative,heading,fix_type,vel_ned_valid,satellites_used
155065707,1532703785399678,325150268,-1169558716,42625,8520,0.215,0.52517354,0.62,0.90400004,0.59,0.81,86,6,0.054,-0.025,-0.048,0.056,2.5633307,0,nan,3,1,20
155260700,1532703785599678,325150268,-1169558717,42603,8499,0.22500001,0.5251852,0.62,0.90300006,0.59,0.81,86,5,0.030000001,-0.028,-0.010000001,0.025,2.5633307,0,nan,3,1,20
155461728,1532703785799678,325150267,-1169558717,42582,8477,0.25100002,0.52519834,0.62,0.90300006,0.59,0.81,86,5,0.024,-0.019000001,0.014,0.033,2.5633307,0,nan,3,1,20
155673674,1532703785999679,325150267,-1169558718,42561,8457,0.20500001,0.525209,0.619,0.90300006,0.59,0.81,86,5,0.024,0.021000002,-0.011000001,0.009000001,2.5633307,0,nan,3,1,20
155861739,1532703786199678,325150268,-1169558718,42556,8451,0.21200001,0.52522016,0.619,0.90200007,0.59,0.81,86,5,0.054,-0.018000001,0.051000003,-0.032,2.5633307,0,nan,3,1,20
156060383,1532703786399678,325150267,-1169558718,42538,8434,0.209,0.525231,0.619,0.90200007,0.59,0.81,86,5,0.094000004,-0.07700001,0.055000003,-0.039,2.5633307,0,nan,3,1,20
156261671,1532703786599678,325150266,-1169558717,42682,8577,0.23400001,0.5252954,0.61800003,0.90200007,0.59,0.81,86,4,0.124000005,-0.096,0.079,-1.2260001,2.5633307,0,nan,3,1,20
156461692,1532703786799678,325150264,-1169558716,43065,8961,0.23500001,0.59844214,0.61800003,0.901,0.59,0.81,86,4,0.24100001,-0.216,0.10700001,-2.607,2.6145575,0,nan,3,1,20
156665722,1532703786999679,325150260,-1169558712,43694,9589,0.24300002,0.4223768,0.61800003,0.90300006,0.59,0.81,86,4,0.379,-0.24000001,0.294,-3.703,2.374552,0,nan,3,1,20
156872715,1532703787199678,325150255,-1169558702,44552,10448,0.275,0.3505183,0.623,0.90900004,0.59,0.81,86,4,0.71800005,-0.314,0.64500004,-4.5280004,2.1662529,0,nan,3,1,20
157070715,1532703787399678,325150249,-1169558684,45553,11448,0.289,0.25502157,0.633,0.91600007,0.59,0.81,86,4,1.024,-0.47100002,0.90900004,-4.7650003,2.0895514,0,nan,3,1,20
157271674,1532703787599678,325150244,-1169558670,46561,12456,0.29900002,0.6604439,0.64500004,0.92300004,0.59,0.81,106,3,0.48800004,-0.057000004,0.485,-5.1710005,2.037312,0,nan,3,1,20
157472717,1532703787799678,325150246,-1169558658,47605,13500,0.30600002,0.5565818,0.657,0.93100005,0.59,0.81,106,3,0.73200005,0.26200002,0.683,-5.3050003,1.5505047,0,nan,3,1,20
157680729,1532703787999679,325150254,-1169558638,48703,14598,0.30800003,0.33669108,0.669,0.93700004,0.59,0.81,106,3,1.2720001,0.59900004,1.1220001,-5.5230002,1.2059989,0,nan,3,1,20
157871730,1532703788199678,325150271,-1169558611,49760,15656,0.32700002,0.21848886,0.68,0.94400007,0.59,0.81,106,3,2.0180001,1.322,1.5250001,-5.5690002,0.95984656,0,nan,3,1,20
158078716,1532703788399678,325150303,-1169558576,50812,16708,0.32900003,0.16627333,0.693,0.95100003,0.59,0.81,106,3,2.8560002,2.1790001,1.8470001,-5.1780005,0.7969148,0,nan,3,1,20
158273744,1532703788599678,325150349,-1169558534,51787,17683,0.35300002,0.13716681,0.70600003,0.96000004,0.59,0.81,106,4,3.6050003,2.947,2.0770001,-4.6610003,0.6875155,0,nan,3,1,20
158476724,1532703788799678,325150408,-1169558485,52676,18571,0.328,0.11007634,0.72,0.96900004,0.59,0.81,106,4,4.386,3.5830002,2.5300002,-4.487,0.6430276,0,nan,3,1,20
158676672,1532703788999679,325150481,-1169558427,53484,19380,0.317,0.08938075,0.734,0.97800004,0.59,0.81,106,4,5.3900003,4.493,2.9780002,-3.9,0.60778123,0,nan,3,1,20
158876673,1532703789199678,325150569,-1169558360,54212,20108,0.314,0.07866303,0.74700004,0.989,0.59,0.81,106,4,6.1530004,5.23,3.242,-3.4880002,0.5773322,0,nan,3,1,20
159074775,1532703789399678,325150670,-1169558289,54849,20745,0.29900002,0.06874415,0.76000005,0.99600005,0.59,0.81,106,4,6.9730005,6.0270004,3.5070002,-3.0860002,0.5479953,0,nan,3,1,20
159273677,1532703789599678,325150786,-1169558213,55364,21260,0.296,0.060677417,0.772,1.005,0.57,0.79999995,99,5,7.8110003,6.8450003,3.7630002,-2.6810002,0.5026129,0,nan,3,1,21
159474774,1532703789799678,325150915,-1169558132,55805,21700,0.24800001,0.05107252,0.78300005,1.0070001,0.57,0.79999995,99,5,8.614,7.6140003,4.0280004,-2.2480001,0.4866147,0,nan,3,1,21
159679936,1532703789999679,325151059,-1169558045,56147,22043,0.22800002,0.04156938,0.791,1.006,0.57,0.79999995,99,5,9.347,8.317,4.2650003,-1.7310001,0.4738457,0,nan,3,1,21
159877307,1532703790199678,325151214,-1169557953,56397,22293,0.23900001,0.0396825,0.79800004,1.0070001,0.57,0.79999995,99,5,10.02,8.907001,4.59,-1.386,0.4758598,0,nan,3,1,21
160070715,1532703790399678,325151378,-1169557853,56654,22550,0.23700002,0.038179073,0.80500007,1.0090001,0.57,0.79999995,99,5,10.399,9.25,4.7520003,-1.1450001,0.47456774,0,nan,3,1,21
160274699,1532703790599678,325151551,-1169557751,56846,22741,0.24100001,0.033519745,0.81200004,1.011,0.57,0.79999995,99,5,11.142,10.02,4.874,-0.92300004,0.45275426,0,nan,3,1,21
160466696,1532703790799677,325151737,-1169557644,56983,22879,0.22700001,0.03362394,0.818,1.013,0.57,0.79999995,99,5,11.7560005,10.536,5.214,-0.71900004,0.4595017,0,nan,3,1,21
160673672,1532703790999678,325151932,-1169557533,57098,22994,0.23300001,0.03392623,0.82500005,1.016,0.57,0.79999995,99,5,12.160001,11.008,5.1660004,-0.41300002,0.43877453,0,nan,3,1,21
160875673,1532703791199677,325152135,-1169557424,57139,23035,0.275,0.0316121,0.83300006,1.0220001,0.57,0.79999995,99,5,12.654,11.563001,5.138,-0.21700001,0.4181465,0,nan,3,1,21
161070873,1532703791399677,325152346,-1169557316,57146,23042,0.303,0.031308763,0.84000003,1.028,0.57,0.79999995,99,5,12.8550005,11.830001,5.03,0.055000003,0.40206432,0,nan,3,1,21
161275729,1532703791599677,325152564,-1169557213,57122,23019,0.312,0.031100195,0.84900004,1.036,0.62,0.87,99,7,13.173,12.315001,4.676,0.10300001,0.36284223,0,nan,3,1,20
161485672,1532703791799677,325152788,-1169557119,57116,23012,0.25300002,0.022652976,0.85300004,1.036,0.57,0.79999995,99,7,13.234,12.570001,4.1390004,-0.112,0.31812498,0,nan,3,1,21
161697676,1532703791999678,325153020,-1169557038,57178,23074,0.24700001,0.02082771,0.85400003,1.034,0.57,0.79999995,99,7,13.458,12.997001,3.489,-0.307,0.2622701,0,nan,3,1,21
161881755,1532703792199677,325153255,-1169556966,57256,23153,0.20700002,0.020428553,0.85400003,1.031,0.57,0.79999995,99,7,13.464001,13.082001,3.1840003,-0.16000001,0.2387755,0,nan,3,1,21
162077898,1532703792399677,325153493,-1169556899,57203,23099,0.20400001,0.020524373,0.855,1.0250001,0.57,0.79999995,99,7,13.784,13.408001,3.1970003,-0.024,0.23408563,0,nan,3,1,21
162268428,1532703792599677,325153736,-1169556830,57159,23055,0.18400002,0.015090814,0.85200006,1.016,0.57,0.79999995,115,6,14.073001,13.705001,3.1980002,0.32000002,0.2292181,0,nan,3,1,21
162462834,1532703792799677,325153985,-1169556762,57058,22954,0.216,0.019945621,0.85200006,1.014,0.57,0.79999995,115,6,14.406001,14.054001,3.163,0.27600002,0.22136655,0,nan,3,1,21
162671926,1532703792999678,325154239,-1169556698,56950,22846,0.19800001,0.016763538,0.85,1.008,0.57,0.79999995,115,6,14.573001,14.277,2.92,0.36200002,0.20177366,0,nan,3,1,21
162866697,1532703793199677,325154499,-1169556639,56870,22767,0.312,0.025413388,0.85300004,1.0120001,0.57,0.79999995,115,6,14.7960005,14.557001,2.6490002,0.31,0.18000348,0,nan,3,1,21
163071803,1532703793399677,325154763,-1169556589,56814,22711,0.36900002,0.02577886,0.86100006,1.0200001,0.57,0.79999995,115,6,14.869,14.717001,2.121,0.18300001,0.14313497,0,nan,3,1,21
163270800,1532703793599677,325155030,-1169556552,56792,22689,0.349,0.021084623,0.86700004,1.028,0.57,0.79999995,100,12,15.032001,14.965001,1.417,0.015000001,0.09442911,0,nan,3,1,21
163467675,1532703793799677,325155299,-1169556528,56805,22701,0.356,0.019537214,0.87100005,1.036,0.57,0.79999995,100,12,14.867001,14.842001,0.85600007,-0.087000005,0.057629198,0,nan,3,1,21
163674730,1532703793999678,325155567,-1169556518,56862,22759,0.349,0.019617325,0.87500006,1.044,0.57,0.79999995,100,12,14.988001,14.988001,0.028,-0.33600003,0.001853016,0,nan,3,1,21
163870711,1532703794199677,325155838,-1169556528,56931,22828,0.36600003,0.023853064,0.88100004,1.0530001,0.57,0.79999995,100,12,15.056001,15.033001,-0.83300006,-0.319,6.227834,0,nan,3,1,21
164071266,1532703794399677,325156108,-1169556549,56961,22858,0.34600002,0.020821603,0.88600004,1.0610001,0.57,0.79999995,100,12,14.847001,14.81,-1.0380001,-0.113000005,6.2132263,0,nan,3,1,21
164272671,1532703794599677,325156372,-1169556580,57049,22945,0.33600003,0.020184731,0.887,1.0660001,0.57,0.79999995,93,8,14.545001,14.440001,-1.741,-0.014,6.163188,0,nan,3,1,21
164472676,1532703794799677,325156631,-1169556629,57143,23040,0.349,0.024819802,0.89100003,1.0710001,0.57,0.79999995,93,8,14.462001,14.198001,-2.753,-0.60200006,6.0916595,0,nan,3,1,21
164671199,1532703794999678,325156879,-1169556698,57364,23261,0.316,0.02175867,0.892,1.074,0.57,0.79999995,93,8,13.753,13.314001,-3.45,-1.011,6.029654,0,nan,3,1,21
164871201,1532703795199677,325157114,-1169556789,57657,23554,0.277,0.021525493,0.89000005,1.072,0.57,0.79999995,93,8,13.651001,12.707001,-4.9900002,-1.3690001,5.9089975,0,nan,3,1,21
165068673,1532703795399677,325157336,-1169556913,57957,23854,0.29900002,0.024812646,0.89000005,1.077,0.57,0.79999995,93,8,13.166,11.729,-5.9800005,-1.7700001,5.811727,0,nan,3,1,21
165272673,1532703795599677,325157542,-1169557056,58368,24265,0.289,0.026673691,0.89100003,1.079,0.57,0.79999995,87,7,12.990001,10.89,-7.0820003,-2.0630002,5.7065587,0,nan,3,1,21
165470702,1532703795799677,325157730,-1169557220,58819,24716,0.29500002,0.027712686,0.89300007,1.0840001,0.57,0.79999995,87,7,12.8,9.986,-8.008,-2.3700001,5.6072893,0,nan,3,1,21
165677674,1532703795999678,325157903,-1169557398,59213,25110,0.29000002,0.029091321,0.896,1.0910001,0.57,0.79999995,87,7,12.532001,9.214001,-8.495001,-2.174,5.5383587,0,nan,3,1,21
165870706,1532703796199677,325158068,-1169557593,59654,25551,0.287,0.031087454,0.89900005,1.098,0.57,0.79999995,87,7,12.700001,8.804001,-9.154,-2.272,5.4782815,0,nan,3,1,21
166074800,1532703796399677,325158222,-1169557795,60131,26028,0.29700002,0.03227096,0.90300006,1.107,0.57,0.79999995,87,7,12.672001,8.268001,-9.604,-2.1990001,5.423168,0,nan,3,1,21
166274766,1532703796599677,325158366,-1169558006,60542,26439,0.284,0.03260397,0.90800005,1.116,0.57,0.79999995,87,3,12.636001,7.6570005,-10.052,-2.072,5.363359,0,nan,3,1,21
166471672,1532703796799677,325158502,-1169558227,60947,26844,0.28100002,0.03249698,0.91300005,1.1240001,0.57,0.79999995,87,3,12.818001,7.3870006,-10.475,-1.9520001,5.3266044,0,nan,3,1,21
166671674,1532703796999678,325158631,-1169558456,61327,27224,0.26700002,0.03320192,0.91800004,1.133,0.57,0.79999995,87,3,12.754001,6.7990003,-10.791,-1.8110001,5.274667,0,nan,3,1,21
166882078,1532703797199677,325158747,-1169558691,61689,27586,0.238,0.03347,0.92200005,1.1400001,0.57,0.79999995,87,3,12.779,6.1740003,-11.189,-1.7520001,5.216632,0,nan,3,1,21
167072674,1532703797399677,325158850,-1169558935,62077,27974,0.23400001,0.033534754,0.9250001,1.148,0.57,0.79999995,87,3,12.716001,5.2730002,-11.571,-1.613,5.140003,0,nan,3,1,21
167271820,1532703797599677,325158939,-1169559184,62447,28344,0.33200002,0.034163423,0.93200004,1.1580001,0.57,0.79999995,87,5,12.589001,4.5410004,-11.742001,-1.7650001,5.0813904,0,nan,3,1,21
167471704,1532703797799677,325159008,-1169559437,62831,28728,0.36200002,0.035561256,0.94000006,1.1700001,0.57,0.79999995,87,5,12.433001,3.2430003,-12.003,-1.9410001,4.9762588,0,nan,3,1,21
167672672,1532703797999678,325159053,-1169559692,63301,29198,0.37600002,0.03756088,0.94900006,1.182,0.57,0.79999995,87,5,12.085001,1.8970001,-11.935,-2.3830001,4.8700314,0,nan,3,1,21
167868749,1532703798199677,325159071,-1169559944,63847,29744,0.41500002,0.04040978,0.95900005,1.1980001,0.57,0.79999995,87,5,11.77,0.245,-11.767,-2.832,4.7332435,0,nan,3,1,21
168068671,1532703798399677,325159066,-1169560191,64326,30223,0.374,0.0379555,0.96900004,1.213,0.57,0.79999995,87,5,11.536,-0.60800004,-11.52,-2.5040002,4.6596565,0,nan,3,1,21
168271246,1532703798599677,325159046,-1169560431,64705,30602,0.354,0.03748583,0.97700006,1.2260001,0.57,0.79999995,81,7,11.126,-1.3230001,-11.047001,-1.5330001,4.593199,0,nan,3,1,21
168470803,1532703798799677,325159015,-1169560663,64908,30805,0.349,0.03725946,0.984,1.238,0.57,0.79999995,81,7,10.926001,-1.866,-10.766001,-0.48600003,4.5408072,0,nan,3,1,21
168670704,1532703798999678,325158975,-1169560888,64942,30839,0.34600002,0.037524927,0.99100006,1.25,0.57,0.79999995,81,7,10.700001,-2.3630002,-10.436001,0.224,4.489698,0,nan,3,1,21
168866746,1532703799199677,325158928,-1169561108,64877,30773,0.35000002,0.037702948,0.99700004,1.261,0.57,0.79999995,81,7,10.674001,-2.6460001,-10.341001,0.87600005,4.461862,0,nan,3,1,21
169064026,1532703799399677,325158875,-1169561327,64623,30520,0.34500003,0.036610372,1.003,1.271,0.57,0.79999995,81,7,10.695001,-3.0990002,-10.236,1.5430001,4.4183846,0,nan,3,1,21
169266801,1532703799599677,325158816,-1169561542,64260,30157,0.34600002,0.038106993,1.0090001,1.2820001,0.57,0.79999995,81,2,10.533001,-3.338,-9.990001,2.26,4.3899255,0,nan,3,1,21
169467675,1532703799799677,325158751,-1169561754,63709,29605,0.33900002,0.036603216,1.014,1.291,0.57,0.79999995,81,2,10.581,-3.6790001,-9.9210005,3.1750002,4.357263,0,nan,3,1,21
169669305,1532703799999678,325158679,-1169561963,63002,28899,0.33900002,0.036713522,1.018,1.3000001,0.57,0.79999995,81,2,10.587001,-4.182,-9.726001,4.28,4.3062744,0,nan,3,1,21
169871672,1532703800199676,325158599,-1169562173,62257,28154,0.33100003,0.034695398,1.0220001,1.307,0.57,0.79999995,81,2,10.965,-4.63,-9.939,4.0010004,4.2764277,0,nan,3,1,21
170070700,1532703800399676,325158510,-1169562385,61471,27367,0.33400002,0.034572877,1.026,1.3160001,0.57,0.79999995,81,2,11.182,-5.157,-9.922001,3.5930002,4.233101,0,nan,3,1,21
170266702,1532703800599676,325158409,-1169562598,60867,26763,0.342,0.03323421,1.0300001,1.3240001,0.57,0.79999995,81,3,11.731001,-5.9030004,-10.137,3.1230001,4.1850824,0,nan,3,1,21
170471736,1532703800799676,325158297,-1169562815,60335,26231,0.34,0.032088224,1.0350001,1.3330001,0.57,0.79999995,81,3,12.103001,-6.4830003,-10.22,2.811,4.1471443,0,nan,3,1,21
170671680,1532703800999677,325158179,-1169563038,59815,25711,0.33200002,0.029169686,1.0380001,1.338,0.57,0.79999995,81,3,12.573001,-6.5950003,-10.704,2.7380002,4.1601925,0,nan,3,1,21
170873701,1532703801199676,325158061,-1169563273,59337,25234,0.335,0.026557451,1.041,1.3410001,0.57,0.79999995,81,3,12.924001,-6.4070005,-11.225,2.3200002,4.1937327,0,nan,3,1,21
171080722,1532703801399676,325157951,-1169563520,58967,24863,0.317,0.023443261,1.042,1.3410001,0.57,0.79999995,81,3,13.203001,-5.8840003,-11.820001,1.7830001,4.2505245,0,nan,3,1,21
171277900,1532703801599676,325157847,-1169563775,58631,24528,0.30800003,0.024148375,1.042,1.3340001,0.57,0.79999995,81,12,13.399,-5.557,-12.193001,1.3260001,4.28476,0,nan,3,1,21
171472030,1532703801799676,325157748,-1169564041,58484,24380,0.319,0.026596721,1.044,1.335,0.57,0.79999995,81,12,13.783001,-5.4410005,-12.6640005,0.95900005,4.306579,0,nan,3,1,21
171678704,1532703801999677,325157646,-1169564311,58290,24186,0.34300002,0.029183125,1.049,1.3410001,0.57,0.79999995,81,12,13.856001,-5.775,-12.595,1.1420001,4.282451,0,nan,3,1,21
171869673,1532703802199676,325157539,-1169564578,58113,24009,0.37300003,0.031388696,1.0550001,1.3510001,0.57,0.79999995,81,12,13.772,-6.0080004,-12.393001,0.94200003,4.260967,0,nan,3,1,21
172063952,1532703802399676,325157424,-1169564839,57941,23837,0.423,0.03632798,1.0630001,1.365,0.57,0.79999995,81,12,13.795001,-6.6330004,-12.095,1.156,4.210751,0,nan,3,1,21
172265694,1532703802599676,325157302,-1169565093,57726,23622,0.56600004,0.051858094,1.0780001,1.3850001,0.57,0.79999995,81,2,13.659,-6.8570004,-11.814,1.297,4.1865125,0,nan,3,1,21
172463673,1532703802799676,325157175,-1169565338,57413,23309,0.507,0.050519425,1.1,1.4070001,0.57,0.79999995,81,2,13.378,-7.077,-11.353001,1.5630001,4.154937,0,nan,3,1,21
172667669,1532703802999677,325157044,-1169565575,57059,22955,0.517,0.048751757,1.12,1.4300001,0.57,0.79999995,81,2,13.185,-7.281,-10.993001,1.8330001,4.1274304,0,nan,3,1,21
172859676,1532703803199676,325156906,-1169565806,56612,22508,0.44300002,0.03851243,1.136,1.4480001,0.57,0.79999995,81,2,13.184001,-7.7780004,-10.645,2.039,4.081351,0,nan,3,1,21
173071671,1532703803399676,325156755,-1169566025,56244,22140,0.34600002,0.031302653,1.143,1.455,0.57,0.79999995,81,2,13.156001,-8.476001,-10.061001,2.0800002,4.012288,0,nan,3,1,21
173270804,1532703803599676,325156595,-1169566233,55792,21688,0.293,0.027418947,1.143,1.455,0.57,0.79999995,81,2,13.210001,-9.189,-9.491,2.1990001,3.943181,0,nan,3,1,21
173470409,1532703803799676,325156422,-1169566426,55406,21301,0.441,0.040406115,1.149,1.468,0.57,0.79999995,81,2,13.124001,-9.785001,-8.746,2.056,3.8709543,0,nan,3,1,21
173676681,1532703803999677,325156237,-1169566600,55035,20930,0.423,0.039755806,1.159,1.4790001,0.57,0.79999995,81,2,13.049001,-10.507001,-7.7380004,1.7360001,3.7764015,0,nan,3,1,21
173876672,1532703804199676,325156037,-1169566746,54762,20657,0.36800003,0.033113256,1.1630001,1.4790001,0.57,0.79999995,81,2,12.878,-11.228001,-6.307,1.2770001,3.653374,0,nan,3,1,21
174072723,1532703804399676,325155827,-1169566865,54548,20444,0.335,0.030681664,1.164,1.4790001,0.57,0.79999995,81,2,12.731001,-11.694,-5.0330005,1.0430001,3.5480447,0,nan,3,1,21
174273673,1532703804599676,325155609,-1169566952,54387,20283,0.32000002,0.029716149,1.161,1.4740001,0.57,0.79999995,81,3,12.696001,-12.271001,-3.2580001,0.794,3.4010804,0,nan,3,1,21
174472701,1532703804799676,325155387,-1169567002,54287,20182,0.284,0.028683089,1.159,1.47,0.57,0.79999995,81,3,12.314,-12.225,-1.4770001,0.349,3.2618198,0,nan,3,1,21
174672727,1532703804999677,325155161,-1169567012,54214,20109,0.24100001,0.02347712,1.1520001,1.4590001,0.57,0.79999995,81,3,12.290001,-12.290001,0.023000002,0.541,3.139759,0,nan,3,1,21
174869671,1532703805199676,325154938,-1169566995,54125,20021,0.259,0.02328112,1.143,1.45,0.57,0.79999995,81,3,12.254001,-12.195001,1.1930001,1.019,3.0441163,0,nan,3,1,21
175071107,1532703805399676,325154721,-1169566960,53862,19757,0.20400001,0.020169547,1.128,1.4300001,0.57,0.79999995,81,3,12.044001,-11.852,2.1420002,1.3180001,2.9628332,0,nan,3,1,21
175271147,1532703805599676,325154506,-1169566906,53380,19276,0.15900001,0.0134247225,1.102,1.3970001,0.57,0.79999995,81,5,12.054001,-11.527,3.5240002,1.7370001,2.8449068,0,nan,3,1,21
175461694,1532703805799676,325154292,-1169566821,52831,18726,0.17300001,0.016440477,1.0830001,1.376,0.57,0.79999995,81,5,12.124001,-11.210001,4.618,2.058,2.7507849,0,nan,3,1,21
175667687,1532703805999677,325154090,-1169566704,52307,18203,0.18200001,0.018200817,1.0680001,1.358,0.57,0.79999995,81,5,12.284,-10.902,5.6600003,2.275,2.6627426,0,nan,3,1,21
175869293,1532703806199676,325153894,-1169566565,51920,17816,0.187,0.017728355,1.056,1.3410001,0.57,0.79999995,81,5,12.460001,-10.405001,6.8560004,2.013,2.5590029,0,nan,3,1,21
176065747,1532703806399676,325153705,-1169566401,51564,17459,0.18400002,0.017211214,1.0430001,1.3240001,0.57,0.79999995,81,5,12.824,-10.178,7.8010006,1.9120001,2.48763,0,nan,3,1,21
176265672,1532703806599676,325153525,-1169566224,51199,17094,0.18400002,0.0170859,1.029,1.307,0.57,0.79999995,81,14,12.918,-9.727,8.501,1.848,2.4233348,0,nan,3,1,21
176463955,1532703806799676,325153352,-1169566033,50831,16727,0.21700001,0.017910916,1.021,1.2950001,0.61,0.81,81,14,13.079,-9.274,9.223001,1.7870001,2.358938,0,nan,3,1,20
176666750,1532703806999677,325153185,-1169565823,50470,16365,0.20600002,0.01776169,1.013,1.284,0.57,0.79999995,81,14,13.452001,-9.082001,9.923,1.733,2.3119435,0,nan,3,1,21
176863691,1532703807199676,325153022,-1169565603,50075,15971,0.22700001,0.021071708,1.0090001,1.276,0.57,0.79999995,81,14,13.613001,-8.673,10.493,1.6560001,2.2615032,0,nan,3,1,21
177075677,1532703807399676,325152869,-1169565369,49666,15561,0.23200001,0.019727979,1.006,1.2700001,0.57,0.79999995,81,14,14.311001,-8.492001,11.519001,2.0040002,2.2060966,0,nan,3,1,21
177275702,1532703807599676,325152717,-1169565119,49173,15068,0.231,0.019159002,1.003,1.264,0.57,0.79999995,81,15,14.805,-8.457001,12.152,2.352,2.1787822,0,nan,3,1,21
177475680,1532703807799676,325152571,-1169564859,48747,14642,0.26500002,0.022257833,1.003,1.263,0.57,0.79999995,81,15,14.467001,-7.7520003,12.214001,2.183,2.1363087,0,nan,3,1,21
177677672,1532703807999677,325152431,-1169564589,48285,14180,0.344,0.022773752,1.005,1.264,0.57,0.79999995,81,15,15.330001,-7.8420005,13.172001,2.3490002,2.107769,0,nan,3,1,21
177868674,1532703808199676,325152291,-1169564306,47859,13755,0.34,0.022850024,1.0090001,1.2670001,0.57,0.79999995,81,15,15.564001,-7.7720003,13.484,1.7950001,2.0936532,0,nan,3,1,21
178063723,1532703808399676,325152150,-1169564009,47493,13389,0.275,0.021710673,1.013,1.268,0.57,0.79999995,81,15,16.154001,-7.669,14.217001,1.6220001,2.0654502,0,nan,3,1,21
178273976,1532703808599676,325152012,-1169563701,47189,13084,0.27,0.020669758,1.0150001,1.2700001,0.57,0.79999995,81,4,16.583,-7.6670003,14.705001,1.4510001,2.0514102,0,nan,3,1,21
178471128,1532703808799676,325151874,-1169563383,46905,12800,0.273,0.020541651,1.018,1.2720001,0.57,0.79999995,81,4,16.935001,-7.7200003,15.073001,1.5680001,2.0441208,0,nan,3,1,21
178673672,1532703808999676,325151736,-1169563058,46645,12540,0.27100003,0.02045648,1.0220001,1.274,0.57,0.79999995,81,4,16.926,-7.511,15.169001,1.432,2.0305662,0,nan,3,1,21
178869673,1532703809199675,325151599,-1169562728,46457,12352,0.287,0.019505799,1.024,1.276,0.57,0.79999995,81,4,17.017,-7.4140005,15.317,1.4580001,2.0216064,0,nan,3,1,21
179066813,1532703809399675,325151466,-1169562393,46253,12149,0.22600001,0.01274387,1.0200001,1.268,0.57,0.79999995,81,4,17.278,-7.3870006,15.619,1.4430001,2.0125747,0,nan,3,1,21
179269139,1532703809599675,325151332,-1169562055,46005,11900,0.209,0.013939944,1.016,1.2590001,0.57,0.79999995,81,4,17.502,-7.439,15.842001,1.2770001,2.009786,0,nan,3,1,21
179466698,1532703809799675,325151198,-1169561713,45809,11705,0.22900002,0.014519568,1.013,1.2520001,0.57,0.79999995,81,4,17.688002,-7.38,16.075,1.153,2.001161,0,nan,3,1,21
179673672,1532703809999676,325151065,-1169561363,45618,11514,0.22600001,0.013269912,1.0090001,1.246,0.57,0.79999995,81,4,18.065,-7.4540005,16.456001,1.3460001,1.996109,0,nan,3,1,21
179885940,1532703810199675,325150934,-1169561010,45337,11233,0.224,0.01335456,1.005,1.2390001,0.57,0.79999995,81,4,18.078001,-7.162,16.598001,1.5050001,1.9781731,0,nan,3,1,21
180069264,1532703810399675,325150811,-1169560654,44982,10878,0.21000001,0.014022673,0.99700004,1.228,0.57,0.79999995,81,4,18.048,-6.65,16.778,1.4590001,1.9481776,0,nan,3,1,21
180271728,1532703810599675,325150694,-1169560292,44701,10597,0.22700001,0.014615212,0.98800004,1.217,0.57,0.79999995,81,9,17.960001,-6.2500005,16.837,1.5120001,1.926214,0,nan,3,1,21
180471674,1532703810799675,325150589,-1169559925,44436,10332,0.277,0.018366972,0.98800004,1.2160001,0.57,0.79999995,81,9,18.193,-5.427,17.364,1.215,1.8737392,0,nan,3,1,21
180669169,1532703810999676,325150501,-1169559551,44178,10074,0.407,0.022721568,0.99200004,1.223,0.57,0.79999995,81,9,18.371,-4.4030004,17.835001,0.89100003,1.8128072,0,nan,3,1,21
180879769,1532703811199675,325150431,-1169559170,44143,10039,0.441,0.025424559,1.001,1.2320001,0.57,0.79999995,81,9,18.308,-3.2930002,18.009,0.16100001,1.751664,0,nan,3,1,21
181070756,1532703811399675,325150396,-1169558804,44372,10268,0.36400002,0.026204024,1.005,1.2370001,0.57,0.81,81,9,16.799002,-0.70000005,16.784,-1.3180001,1.6124547,0,nan,3,1,20
181267697,1532703811599675,325150398,-1169558459,44809,10704,0.35900003,0.025324726,1.006,1.238,0.61,0.87,81,10,15.723001,0.702,15.707001,-2.9450002,1.5261496,0,nan,3,1,19
181470737,1532703811799675,325150425,-1169558154,45561,11457,0.296,0.025048789,1.001,1.2320001,0.61,0.87,81,10,13.337001,2.0140002,13.184001,-4.202,1.419224,0,nan,3,1,19
181681725,1532703811999676,325150470,-1169557905,46368,12264,0.27,0.03275302,0.99300003,1.225,0.57,0.79999995,81,10,11.116,3.0890002,10.678,-4.651,1.2892294,0,nan,3,1,21
181879150,1532703812199675,325150532,-1169557701,47261,13157,0.27400002,0.035699833,0.98700005,1.22,0.57,0.79999995,81,10,9.683001,3.9720001,8.831,-4.9,1.1481696,0,nan,3,1,21
182076713,1532703812399675,325150617,-1169557527,48248,14144,0.275,0.038802855,0.98100007,1.2160001,0.57,0.79999995,81,10,9.229,5.3640003,7.511,-4.597,0.95063263,0,nan,3,1,21
182279121,1532703812599675,325150722,-1169557378,49193,15088,0.28100002,0.039750393,0.97800004,1.2160001,0.59999996,0.87,81,14,8.876,6.1260004,6.4230003,-4.533,0.80909497,0,nan,3,1,20
182477690,1532703812799675,325150839,-1169557256,50018,15914,0.29500002,0.039049298,0.97400004,1.213,0.59999996,0.87,81,14,8.798,6.839,5.5350003,-4.289,0.68043125,0,nan,3,1,20
182673673,1532703812999676,325150967,-1169557154,50849,16745,0.298,0.03605117,0.9710001,1.2110001,0.57,0.79999995,81,14,8.722,7.3900003,4.6330004,-4.0280004,0.55993336,0,nan,3,1,21
182871943,1532703813199675,325151106,-1169557067,51609,17505,0.29700002,0.031492546,0.96700007,1.2080001,0.57,0.79999995,81,14,8.726001,7.9240003,3.6540003,-3.8610003,0.4321004,0,nan,3,1,21
183077750,1532703813399675,325151253,-1169557004,52301,18196,0.31,0.029250495,0.96300006,1.205,0.57,0.79999995,81,14,8.823,8.359,2.825,-3.64,0.32585958,0,nan,3,1,21
183269680,1532703813599675,325151409,-1169556963,52951,18847,0.298,0.023245167,0.957,1.1960001,0.57,0.79999995,81,13,8.927,8.71,1.9570001,-3.417,0.22104244,0,nan,3,1,21
183471671,1532703813799675,325151569,-1169556931,53555,19451,0.287,0.022381926,0.95000005,1.189,0.57,0.79999995,81,13,9.089001,9.018001,1.1340001,-3.1250002,0.12508896,0,nan,3,1,21
183672815,1532703813999676,325151735,-1169556910,54132,20028,0.259,0.02147418,0.94400007,1.1810001,0.57,0.79999995,81,13,9.298,9.281,0.565,-2.39,0.06078615,0,nan,3,1,21
183870784,1532703814199675,325151904,-1169556905,54579,20475,0.26500002,0.02253604,0.938,1.1730001,0.57,0.79999995,81,13,9.398001,9.397,0.156,-1.784,0.01657539,0,nan,3,1,21
184070098,1532703814399675,325152075,-1169556906,54848,20744,0.263,0.023128754,0.93500006,1.171,0.57,0.79999995,81,13,9.743,9.735001,-0.395,-0.9760001,6.242643,0,nan,3,1,21
184268727,1532703814599675,325152251,-1169556916,55030,20926,0.245,0.021156007,0.93000007,1.1620001,0.57,0.79999995,81,10,9.860001,9.839001,-0.643,-0.41300002,6.2179523,0,nan,3,1,21
184469672,1532703814799675,325152432,-1169556932,55094,20990,0.22800002,0.01823712,0.92300004,1.154,0.57,0.79999995,81,10,10.3220005,10.254001,-1.1850001,0.29200003,6.1681566,0,nan,3,1,21
184668672,1532703814999676,325152623,-1169556959,55029,20925,0.23500001,0.021658836,0.919,1.149,0.57,0.79999995,81,10,10.655001,10.587001,-1.199,0.595,6.1704044,0,nan,3,1,21
184869886,1532703815199675,325152818,-1169556983,54874,20770,0.27100003,0.027810948,0.91700006,1.148,0.57,0.79999995,81,10,11.041,10.995001,-1.008,0.83100003,6.1917653,0,nan,3,1,21
185068671,1532703815399675,325153021,-1169557004,54724,20621,0.25500003,0.021268057,0.91400003,1.1420001,0.57,0.79999995,81,10,11.6970005,11.672001,-0.757,0.77400005,6.218396,0,nan,3,1,21
185271109,1532703815599675,325153240,-1169557018,54612,20508,0.268,0.023614129,0.91300005,1.1400001,0.57,0.79999995,81,5,12.530001,12.516001,-0.60300004,0.177,6.235056,0,nan,3,1,21
185475736,1532703815799675,325153471,-1169557028,54606,20502,0.28,0.022527138,0.91400003,1.139,0.57,0.79999995,81,5,13.112,13.102,-0.49500003,0.096,6.2454033,0,nan,3,1,21
185680757,1532703815999676,325153711,-1169557039,54561,20457,0.296,0.023159645,0.91600007,1.139,0.57,0.79999995,81,5,13.512001,13.503,-0.49,0.22000001,6.24694,0,nan,3,1,21
185865672,1532703816199675,325153957,-1169557052,54494,20390,0.31,0.021968633,0.919,1.1400001,0.57,0.79999995,81,5,13.672001,13.655001,-0.68200004,0.367,6.2332616,0,nan,3,1,21
186070705,1532703816399675,325154205,-1169557070,54444,20341,0.314,0.022752285,0.92200005,1.141,0.57,0.79999995,81,5,13.884001,13.849001,-0.98700005,0.333,6.212025,0,nan,3,1,21
186270705,1532703816599675,325154458,-1169557101,54363,20259,0.298,0.018001849,0.92200005,1.139,0.58,0.81,81,14,14.1970005,14.088,-1.7580001,0.095000006,6.1590557,0,nan,3,1,20
186471911,1532703816799675,325154710,-1169557148,54367,20264,0.293,0.018285988,0.92100006,1.1340001,0.58,0.81,81,14,14.185,13.935,-2.6480002,-0.091000006,6.0953946,0,nan,3,1,20
186672776,1532703816999676,325154959,-1169557216,54349,20245,0.24900001,0.017417338,0.91700006,1.128,0.58,0.81,81,14,13.973001,13.461,-3.749,-0.30100003,6.0115466,0,nan,3,1,20
186878805,1532703817199675,325155195,-1169557305,54477,20374,0.28,0.022891214,0.91600007,1.126,0.58,0.81,81,14,13.819,12.913001,-4.9230003,-0.62100005,5.9189444,0,nan,3,1,20
187075675,1532703817399675,325155422,-1169557418,54657,20553,0.39400002,0.03288741,0.92100006,1.1320001,0.57,0.79999995,81,14,13.548,12.318001,-5.642,-1.034,5.853667,0,nan,3,1,21
187271728,1532703817599675,325155637,-1169557550,54870,20767,0.358,0.03152902,0.93000007,1.1400001,0.57,0.79999995,81,8,13.515,11.702001,-6.761,-1.042,5.759293,0,nan,3,1,21
187471726,1532703817799674,325155842,-1169557706,55079,20975,0.287,0.029110344,0.93500006,1.143,0.57,0.79999995,81,8,13.558001,11.124001,-7.7500005,-1.148,5.6746907,0,nan,3,1,21
187678709,1532703817999675,325156036,-1169557880,55267,21164,0.27100003,0.028209232,0.938,1.146,0.57,0.79999995,81,8,13.273001,10.383,-8.268001,-1.1880001,5.610701,0,nan,3,1,21
187875725,1532703818199674,325156219,-1169558064,55453,21349,0.26000002,0.028296672,0.94000006,1.148,0.57,0.79999995,81,8,13.272,9.877001,-8.865001,-1.08,5.551737,0,nan,3,1,21
188071673,1532703818399674,325156391,-1169558255,55554,21450,0.268,0.031252563,0.943,1.151,0.57,0.79999995,81,8,12.836,9.202001,-8.950001,-0.748,5.5116663,0,nan,3,1,21
188273674,1532703818599674,325156546,-1169558454,55748,21645,0.26500002,0.03285268,0.947,1.1550001,0.57,0.79999995,81,8,12.402,8.047,-9.437,-0.60300004,5.4184666,0,nan,3,1,21
188471771,1532703818799674,325156683,-1169558657,55802,21699,0.40800002,0.03922348,0.95500004,1.166,0.57,0.79999995,81,8,12.024,7.2420006,-9.599001,-0.21100001,5.3587112,0,nan,3,1,21
188676671,1532703818999675,325156802,-1169558863,55723,21619,0.39000002,0.039037254,0.96500003,1.179,0.57,0.79999995,81,8,11.491,6.1870003,-9.683001,0.634,5.280951,0,nan,3,1,21
188873870,1532703819199674,325156906,-1169559068,55514,21410,0.39800003,0.04090912,0.97400004,1.1930001,0.57,0.79999995,81,8,11.005,5.5090003,-9.527,1.24,5.236689,0,nan,3,1,21
189069716,1532703819399674,325156994,-1169559271,55250,21147,0.43,0.04232807,0.984,1.207,0.57,0.79999995,81,8,10.452001,4.4420004,-9.46,1.6450001,5.1513824,0,nan,3,1,21
189274715,1532703819599674,325157064,-1169559469,54843,20740,0.462,0.039582845,0.994,1.222,0.57,0.79999995,81,7,9.804001,3.4570003,-9.174001,1.9050001,5.072714,0,nan,3,1,21
189470754,1532703819799674,325157114,-1169559661,54408,20305,0.44200003,0.042993218,1.003,1.2360001,0.57,0.79999995,81,7,9.217,2.2,-8.951,2.1650002,4.9533944,0,nan,3,1,21
189673670,1532703819999675,325157134,-1169559845,54036,19932,0.41700003,0.04547682,1.011,1.248,0.57,0.79999995,81,7,8.391001,0.24400002,-8.3880005,1.5730001,4.741468,0,nan,3,1,21
189870699,1532703820199674,325157128,-1169560015,53905,19801,0.38000003,0.050497435,1.018,1.2600001,0.57,0.79999995,81,7,7.7500005,-0.91600007,-7.6960006,0.34500003,4.66852,0,nan,3,1,21
190070823,1532703820399674,325157093,-1169560175,53815,19711,0.36200002,0.051997893,1.024,1.2700001,0.57,0.79999995,81,7,7.7910004,-2.8160002,-7.2640004,0.264,4.4977083,0,nan,3,1,21
190277673,1532703820599674,325157030,-1169560324,53843,19740,0.33800003,0.051236406,1.0300001,1.281,0.57,0.79999995,81,3,7.9160004,-3.9490001,-6.8610005,0.056,4.3302455,0,nan,3,1,21
190471674,1532703820799674,325156953,-1169560468,53794,19691,0.33200002,0.05054613,1.036,1.291,0.57,0.79999995,81,3,7.9240003,-4.368,-6.6110005,0.62600005,4.220284,0,nan,3,1,21
190670776,1532703820999675,325156870,-1169560607,53552,19449,0.363,0.055956125,1.0430001,1.3010001,0.57,0.79999995,81,3,7.899,-4.5990005,-6.4220004,1.7800001,4.0908756,0,nan,3,1,21
190870703,1532703821199674,325156785,-1169560745,53055,18951,0.36600003,0.056743618,1.0500001,1.3110001,0.57,0.79999995,81,3,7.84,-4.564,-6.3750005,2.835,4.0909777,0,nan,3,1,21
191056671,1532703821399674,325156697,-1169560880,52402,18298,0.38700002,0.054477658,1.057,1.322,0.57,0.79999995,81,3,8.08,-5.0470004,-6.3090005,3.719,4.037646,0,nan,3,1,21
191268727,1532703821599674,325156600,-1169561014,51557,17454,0.393,0.055691358,1.064,1.332,0.62,0.87,81,3,8.241,-5.4870005,-6.149,4.282,3.983771,0,nan,3,1,20
191468712,1532703821799674,325156496,-1169561148,50603,16499,0.395,0.053616337,1.072,1.343,0.62,0.87,81,3,8.647,-5.927,-6.2970004,4.609,3.9573066,0,nan,3,1,20
191673698,1532703821999675,325156380,-1169561283,49708,15605,0.39200002,0.0536392,1.08,1.355,0.62,0.87,81,3,9.437,-6.834,-6.5070004,4.387,3.9024792,0,nan,3,1,20
191869724,1532703822199674,325156249,-1169561426,48945,14841,0.39100003,0.050917536,1.09,1.368,0.65999997,0.87,81,3,10.316001,-7.5860004,-6.991,3.798,3.8861454,0,nan,3,1,19
192060674,1532703822399674,325156109,-1169561575,48195,14091,0.51900005,0.08274379,1.1060001,1.3870001,0.65999997,0.87,81,3,10.5720005,-7.9410005,-6.9790006,3.4970002,3.8626165,0,nan,3,1,19
192261698,1532703822599674,325155956,-1169561725,47535,13431,0.48700002,0.05595543,1.131,1.4070001,0.65999997,0.87,81,3,11.345,-8.835,-7.117,3.072,3.8197632,0,nan,3,1,19
192461675,1532703822799674,325155793,-1169561878,47091,12987,0.5,0.057287987,1.149,1.4280001,0.65999997,0.87,81,3,11.807,-9.219001,-7.3770003,2.2900002,3.8164184,0,nan,3,1,19
192666716,1532703822999675,325155621,-1169562034,46617,12513,0.55,0.06359561,1.171,1.452,0.65999997,0.87,81,3,12.163,-9.651,-7.4020004,2.6420002,3.7958145,0,nan,3,1,19
192862751,1532703823199674,325155442,-1169562191,46053,11949,0.43100002,0.05013301,1.1910001,1.473,0.65999997,0.87,81,3,12.440001,-10.048,-7.3350005,2.5240002,3.772182,0,nan,3,1,19
193062699,1532703823399674,325155256,-1169562349,45532,11428,0.441,0.04657533,1.205,1.493,0.65999997,0.87,81,3,12.7630005,-10.3810005,-7.4240003,2.456,3.762429,0,nan,3,1,19
193261727,1532703823599674,325155064,-1169562508,45145,11041,0.42000002,0.040766526,1.218,1.5100001,0.65999997,0.87,81,4,13.26,-10.849001,-7.6240005,1.996,3.7541325,0,nan,3,1,19
193461254,1532703823799674,325154861,-1169562669,44789,10685,0.40500003,0.038414694,1.228,1.524,0.65999997,0.87,81,4,13.838,-11.645,-7.4760003,1.503,3.7122848,0,nan,3,1,19
193658752,1532703823999675,325154647,-1169562823,44565,10461,0.384,0.037086323,1.2370001,1.5350001,0.65999997,0.87,81,4,13.996,-12.045001,-7.129,1.1800001,3.676001,0,nan,3,1,19
193867673,1532703824199674,325154422,-1169562970,44417,10313,0.326,0.033821862,1.243,1.5370001,0.65999997,0.87,81,4,14.514001,-12.8,-6.8420005,0.573,3.632488,0,nan,3,1,19
194063669,1532703824399674,325154185,-1169563106,44305,10201,0.328,0.033759553,1.248,1.539,0.65999997,0.87,81,4,14.443001,-13.1710005,-5.927,0.21400002,3.5644279,0,nan,3,1,19
194266699,1532703824599674,325153944,-1169563217,44295,10191,0.32700002,0.029170908,1.2490001,1.539,0.65999997,0.87,81,5,14.026001,-13.2300005,-4.658,-0.201,3.4800792,0,nan,3,1,19
194479707,1532703824799674,325153701,-1169563301,44353,10249,0.319,0.028207486,1.25,1.5380001,0.65999997,0.87,81,5,13.729001,-13.301001,-3.3990002,-0.76000005,3.3917627,0,nan,3,1,19
194671671,1532703824999675,325153465,-1169563352,44714,10609,0.28800002,0.025786366,1.243,1.5330001,0.65999997,0.87,81,5,12.758,-12.6310005,-1.7960001,-1.621,3.2828112,0,nan,3,1,19
194872708,1532703825199674,325153238,-1169563363,45141,11037,0.22100002,0.024623627,1.228,1.514,0.65999997,0.87,81,5,11.846001,-11.839001,0.411,-2.134,3.1068797,0,nan,3,1,19
195072673,1532703825399674,325153035,-1169563333,45568,11463,0.21400002,0.024765696,1.21,1.4940001,0.65999997,0.87,81,5,11.196,-10.962001,2.2770002,-2.161,2.9368312,0,nan,3,1,19
195274773,1532703825599674,325152841,-1169563272,45842,11737,0.26500002,0.027357511,1.197,1.48,0.65999997,0.87,81,5,10.691001,-10.0390005,3.676,-1.6340001,2.7905319,0,nan,3,1,19
195479160,1532703825799674,325152666,-1169563181,46144,12039,0.28500003,0.027518779,1.1860001,1.4660001,0.65999997,0.87,81,5,10.352,-9.1970005,4.7530003,-1.514,2.6646132,0,nan,3,1,19
195676692,1532703825999675,325152505,-1169563069,46327,12222,0.32500002,0.023249354,1.1750001,1.4530001,0.59,0.81,81,5,10.01,-8.226001,5.703,-1.0400001,2.535368,0,nan,3,1,20
195875640,1532703826199674,325152369,-1169562940,46384,12279,0.402,0.03344103,1.176,1.455,0.59,0.81,81,5,9.615001,-6.695,6.9010005,-0.485,2.3410106,0,nan,3,1,20
196077724,1532703826399673,325152254,-1169562792,46391,12286,0.34100002,0.026051655,1.1730001,1.452,0.59,0.81,81,5,9.496,-5.7970004,7.5220003,-0.053000003,2.2274382,0,nan,3,1,20
196270717,1532703826599673,325152157,-1169562623,46352,12248,0.365,0.030824956,1.172,1.4540001,0.59,0.81,81,5,9.555,-4.9740005,8.158,0.384,2.1182868,0,nan,3,1,20
196469672,1532703826799673,325152080,-1169562442,46124,12020,0.40600002,0.030347435,1.172,1.4540001,0.59,0.81,81,5,9.661,-3.5970001,8.966001,1.021,1.9523607,0,nan,3,1,20
196666704,1532703826999674,325152022,-1169562246,45875,11770,0.38500002,0.032652315,1.1730001,1.457,0.59,0.81,81,5,9.995001,-2.871,9.574,1.0960001,1.8621025,0,nan,3,1,20
196882752,1532703827199673,325151979,-1169562039,45649,11544,0.34100002,0.03258163,1.1730001,1.4560001,0.65999997,0.87,81,5,10.240001,-1.7590001,10.088,0.966,1.7433958,0,nan,3,1,19
197075673,1532703827399673,325151955,-1169561821,45466,11362,0.35300002,0.03544973,1.1750001,1.4580001,0.65999997,0.87,81,5,10.446,-0.744,10.419001,0.89500004,1.6421247,0,nan,3,1,19
197271681,1532703827599673,325151946,-1169561591,45287,11183,0.32200003,0.032493316,1.176,1.455,0.65999997,0.87,81,4,11.155001,-0.112,11.155001,0.919,1.5808725,0,nan,3,1,19
197474105,1532703827799673,325151951,-1169561350,45031,10927,0.33900002,0.034014195,1.1780001,1.457,0.65999997,0.87,81,4,11.701,0.76500005,11.676001,1.1240001,1.5053315,0,nan,3,1,19
197681351,1532703827999674,325151972,-1169561099,44811,10706,0.43500003,0.039211787,1.1850001,1.465,0.65999997,0.87,81,4,12.004001,1.6040001,11.896001,1.343,1.4368043,0,nan,3,1,19
197867677,1532703828199673,325152005,-1169560842,44529,10425,0.45200002,0.03956731,1.194,1.4740001,0.65999997,0.87,81,4,12.457001,2.0900002,12.280001,1.36,1.4022518,0,nan,3,1,19
198061672,1532703828399673,325152049,-1169560582,44313,10209,0.44700003,0.04600775,1.205,1.483,0.65999997,0.87,81,4,12.523001,2.9060001,12.181001,1.024,1.3365984,0,nan,3,1,19
198264672,1532703828599673,325152113,-1169560330,44150,10045,0.349,0.04086304,1.2140001,1.4900001,0.65999997,0.87,81,7,12.362,4.098,11.663,0.70400006,1.2328949,0,nan,3,1,19
198466706,1532703828799673,325152194,-1169560092,43995,9891,0.40300003,0.046020314,1.2190001,1.4940001,0.59999996,0.83,81,7,12.022,5.0030003,10.931001,0.52500004,1.1415857,0,nan,3,1,20
198669671,1532703828999674,325152294,-1169559869,43937,9833,0.404,0.04927029,1.228,1.501,0.59999996,0.83,81,7,11.788,5.9500003,10.177,0.407,1.0417055,0,nan,3,1,20
198861676,1532703829199673,325152410,-1169559664,43819,9715,0.418,0.04723646,1.2370001,1.5120001,0.59999996,0.83,81,7,11.576,6.8350005,9.342,0.24300002,0.9391246,0,nan,3,1,20
199069669,1532703829399673,325152540,-1169559474,43772,9667,0.39200002,0.05098508,1.246,1.521,0.59999996,0.83,81,7,11.452001,7.557,8.604,0.18900001,0.8500889,0,nan,3,1,20
199271676,1532703829599673,325152685,-1169559299,43741,9637,0.349,0.04569551,1.253,1.529,0.59999996,0.83,81,4,11.641001,8.469001,7.9870005,0.086,0.75615424,0,nan,3,1,20
199468675,1532703829799673,325152846,-1169559145,43686,9582,0.27,0.03405469,1.248,1.521,0.57,0.79999995,81,4,11.525001,9.157001,6.998,-0.002,0.65249723,0,nan,3,1,21
199672675,1532703829999674,325153023,-1169559008,43784,9680,0.266,0.025859145,1.23,1.5040001,0.57,0.79999995,81,4,11.571,9.869,6.0410004,-0.68200004,0.5493228,0,nan,3,1,21
199873673,1532703830199673,325153205,-1169558895,43897,9793,0.324,0.026558673,1.2190001,1.491,0.57,0.79999995,81,4,11.1970005,10.065001,4.9040003,-0.84300005,0.45340317,0,nan,3,1,21
200073709,1532703830399673,325153390,-1169558812,44068,9964,0.344,0.025279697,1.2080001,1.4820001,0.57,0.79999995,81,4,10.8220005,10.336,3.2080002,-1.11,0.3009246,0,nan,3,1,21
200273703,1532703830599673,325153574,-1169558761,44250,10146,0.39100003,0.026425157,1.199,1.473,0.57,0.79999995,76,5,10.111,9.939,1.8610001,-1.475,0.18513928,0,nan,3,1,21
200472708,1532703830799673,325153744,-1169558728,44625,10521,0.41900003,0.029527653,1.192,1.47,0.57,0.79999995,76,5,9.35,9.327001,0.651,-1.9460001,0.0697327,0,nan,3,1,21
200673670,1532703830999674,325153903,-1169558729,45064,10960,0.512,0.050378926,1.1960001,1.478,0.57,0.79999995,76,5,8.309,8.291,-0.54700005,-2.1660001,6.217348,0,nan,3,1,21
200872023,1532703831199673,325154037,-1169558752,45619,11515,0.58500004,0.07704354,1.2060001,1.4920001,0.57,0.79999995,76,5,6.7050004,6.556,-1.404,-2.513,6.169384,0,nan,3,1,21
201071969,1532703831399673,325154143,-1169558794,46145,12042,0.63900006,0.09303687,1.2190001,1.508,0.57,0.79999995,76,5,5.814,5.275,-2.446,-2.631,6.034585,0,nan,3,1,21
201271924,1532703831599673,325154220,-1169558843,46807,12704,0.58100003,0.11743186,1.2320001,1.5230001,0.57,0.79999995,76,3,3.9620001,3.3140001,-2.17,-2.7020001,5.9045234,0,nan,3,1,21
201460672,1532703831799673,325154264,-1169558891,47303,13200,0.54700005,0.14413278,1.2440001,1.5370001,0.57,0.79999995,76,3,2.9410002,1.8670001,-2.272,-2.815,5.7013874,0,nan,3,1,21
201669732,1532703831999674,325154280,-1169558930,47855,13751,0.49600002,0.28987193,1.2540001,1.552,0.57,0.79999995,76,3,1.6060001,0.18800001,-1.595,-2.742,5.5274854,0,nan,3,1,21
201867672,1532703832199673,325154272,-1169558954,48380,14276,0.42400002,0.41390166,1.264,1.565,0.57,0.79999995,76,3,1.1850001,-0.90500003,-0.76500005,-2.8100002,4.9724293,0,nan,3,1,21
202071673,1532703832399673,325154244,-1169558956,48935,14831,0.37300003,0.23675983,1.268,1.57,0.57,0.79999995,76,3,1.8180001,-1.7900001,0.31800002,-2.6580002,3.4599378,0,nan,3,1,21
202268709,1532703832599673,325154204,-1169558936,49453,15349,0.326,0.12977657,1.2620001,1.5610001,0.58,0.79999995,76,3,2.782,-2.38,1.44,-2.605,2.7962623,0,nan,3,1,20
202463676,1532703832799673,325154160,-1169558892,49996,15892,0.33100003,0.095382415,1.2550001,1.554,0.57,0.79999995,76,3,3.7610002,-2.5970001,2.72,-2.5400002,2.4939098,0,nan,3,1,21
202666705,1532703832999674,325154112,-1169558815,50526,16422,0.323,0.07211386,1.248,1.5460001,0.57,0.79999995,76,3,4.59,-2.351,3.9420002,-2.604,2.2459352,0,nan,3,1,21
202869675,1532703833199673,325154073,-1169558722,51018,16914,0.33900002,0.060990177,1.2440001,1.544,0.57,0.79999995,76,3,5.2060003,-1.9190001,4.84,-2.687,2.0681188,0,nan,3,1,21
203072674,1532703833399673,325154043,-1169558608,51524,17420,0.39600003,0.059213433,1.245,1.547,0.57,0.79999995,76,3,5.906,-1.3900001,5.7400002,-2.355,1.9285753,0,nan,3,1,21
203274801,1532703833599673,325154028,-1169558482,52057,17953,0.36400002,0.057393577,1.246,1.5480001,0.57,0.79999995,76,4,6.346,-0.16100001,6.3440003,-2.637,1.7487427,0,nan,3,1,21
203473673,1532703833799673,325154036,-1169558351,52558,18454,0.34600002,0.059623934,1.246,1.5350001,0.57,0.79999995,76,4,6.5660005,1.115,6.471,-2.653,1.5713832,0,nan,3,1,21
203681677,1532703833999674,325154066,-1169558219,53143,19039,0.35500002,0.06274755,1.2470001,1.5370001,0.57,0.79999995,76,4,6.3150005,2.197,5.92,-2.8520002,1.3934798,0,nan,3,1,21
203873674,1532703834199673,325154118,-1169558104,53742,19638,0.36600003,0.06498454,1.2490001,1.5380001,0.57,0.79999995,76,4,5.9540005,3.3530002,4.92,-3.0410001,1.1810364,0,nan,3,1,21
204067744,1532703834399673,325154183,-1169558010,54374,20271,0.38500002,0.06266569,1.248,1.536,0.57,0.79999995,76,4,5.4240003,3.808,3.8630002,-3.062,0.97220576,0,nan,3,1,21
204272672,1532703834599673,325154257,-1169557941,55113,21010,0.455,0.071186215,1.241,1.5320001,0.58,0.79999995,76,5,4.9540005,4.339,2.39,-3.364,0.7582874,0,nan,3,1,20
204479917,1532703834799673,325154334,-1169557903,55857,21753,0.49,0.065228015,1.2370001,1.5280001,0.58,0.79999995,76,5,4.326,4.0810003,1.4360001,-3.6660001,0.52384484,0,nan,3,1,20
204674715,1532703834999674,325154393,-1169557884,56649,22545,0.518,0.17306457,1.2420001,1.536,0.58,0.79999995,76,5,2.486,2.443,0.45800003,-3.765,0.47962272,0,nan,3,1,20
204866702,1532703835199672,325154425,-1169557881,57434,23330,0.51500005,0.3795857,1.25,1.547,0.58,0.79999995,76,5,1.1170001,1.116,-0.041,-3.854,0.39021686,0,nan,3,1,20
205068748,1532703835399672,325154434,-1169557885,58207,24103,0.46100003,0.3798714,1.2590001,1.5600001,0.57,0.79999995,76,5,0.23,0.074,-0.21800001,-3.9500003,0.39021686,0,nan,3,1,21
205269280,1532703835599672,325154424,-1169557886,59008,24904,0.42600003,0.5626124,1.271,1.5740001,0.59999996,0.83,76,2,0.94500005,-0.94500005,0.031000001,-4.0550003,1.2425432,0,nan,3,1,20
205470824,1532703835799672,325154395,-1169557879,59725,25622,0.307,0.113167316,1.2670001,1.5640001,0.57,0.79999995,76,2,2.4390001,-2.0410001,1.3360001,-3.9900002,2.5105054,0,nan,3,1,21
205670714,1532703835999673,325154356,-1169557835,60501,26398,0.323,0.08475441,1.2600001,1.5580001,0.57,0.79999995,76,2,3.581,-2.213,2.815,-3.969,2.3339188,0,nan,3,1,21
205870717,1532703836199672,325154323,-1169557763,61289,27185,0.32700002,0.066862166,1.253,1.5510001,0.57,0.79999995,76,2,4.602,-1.8770001,4.202,-3.9950001,2.1187701,0,nan,3,1,21
206074709,1532703836399672,325154297,-1169557663,62144,28041,0.37600002,0.075731926,1.253,1.549,0.57,0.79999995,76,2,5.0810003,-0.98100007,4.985,-3.9400003,1.9572474,0,nan,3,1,21
206277708,1532703836599672,325154291,-1169557551,62979,28876,0.374,0.07813123,1.253,1.549,0.57,0.79999995,76,4,5.399,0.25800002,5.393,-4.017,1.7401506,0,nan,3,1,21
206476724,1532703836799672,325154303,-1169557432,63774,29670,0.35900003,0.07588028,1.2540001,1.544,0.57,0.79999995,76,4,6.01,1.4280001,5.8380003,-3.923,1.5231868,0,nan,3,1,21
206672677,1532703836999673,325154337,-1169557309,64497,30393,0.33200002,0.06948801,1.256,1.5430001,0.57,0.79999995,76,4,6.1410003,2.42,5.644,-3.354,1.3231187,0,nan,3,1,21
206878919,1532703837199672,325154385,-1169557190,65075,30971,0.33,0.06528194,1.2570001,1.544,0.57,0.79999995,76,4,6.2960005,3.015,5.5270004,-2.4950001,1.1848187,0,nan,3,1,21
207078830,1532703837399672,325154445,-1169557078,65481,31378,0.32700002,0.057768125,1.256,1.544,0.57,0.79999995,76,4,6.268,3.726,5.0410004,-1.7470001,1.0393931,0,nan,3,1,21
207273700,1532703837599672,325154516,-1169556977,65762,31659,0.397,0.057706166,1.253,1.544,0.58,0.79999995,76,4,6.0200005,4.122,4.388,-1.153,0.9225234,0,nan,3,1,20
207473673,1532703837799672,325154596,-1169556896,65885,31782,0.393,0.053806577,1.2520001,1.5430001,0.58,0.79999995,76,4,5.8100004,4.7460003,3.3520002,-0.455,0.7509921,0,nan,3,1,20
207673725,1532703837999673,325154683,-1169556834,65834,31731,0.38700002,0.056785855,1.25,1.5370001,0.61,0.83,76,4,5.6870003,4.9480004,2.8040001,0.224,0.6335948,0,nan,3,1,19
207877671,1532703838199672,325154781,-1169556790,65683,31579,0.29700002,0.038187105,1.235,1.5180001,0.58,0.79999995,76,4,5.7640004,5.366,2.104,0.734,0.44950324,0,nan,3,1,20
208072673,1532703838399672,325154886,-1169556754,65524,31420,0.32500002,0.038767252,1.2240001,1.4990001,0.58,0.79999995,76,4,5.905,5.622,1.8040001,1.286,0.37395248,0,nan,3,1,20
208273722,1532703838599672,325154991,-1169556722,65236,31133,0.39200002,0.056431204,1.2240001,1.501,0.58,0.79999995,76,6,6.1380005,6.017,1.2090001,1.6940001,0.3093554,0,nan,3,1,20
208471913,1532703838799672,325155106,-1169556702,64786,30683,0.397,0.053503938,1.2260001,1.503,0.58,0.79999995,76,6,6.6770005,6.6390004,0.71300006,1.991,0.19708431,0,nan,3,1,20
208674697,1532703838999673,325155235,-1169556698,64241,30138,0.224,0.030123334,1.2090001,1.485,0.58,0.79999995,76,6,6.9810004,6.977,-0.238,2.6580002,0.0160867,0,nan,3,1,20
208871943,1532703839199672,325155366,-1169556714,63679,29576,0.298,0.039583366,1.202,1.4720001,0.59,0.81,76,6,7.3670006,7.327,-0.771,2.9390001,6.2434464,0,nan,3,1,19
209062699,1532703839399672,325155499,-1169556740,63088,28984,0.28300002,0.035293523,1.194,1.4590001,0.59,0.81,76,6,7.418,7.3240004,-1.177,3.0970001,6.123791,0,nan,3,1,19
209262142,1532703839599672,325155638,-1169556770,62459,28355,0.294,0.03272021,1.1830001,1.4460001,0.58,0.79999995,71,4,8.0720005,7.8770003,-1.764,3.3190002,6.0628586,0,nan,3,1,20
209462165,1532703839799672,325155784,-1169556813,61832,27728,0.296,0.031116078,1.174,1.4350001,0.58,0.79999995,71,4,8.504001,8.154,-2.417,3.6220002,5.995008,0,nan,3,1,20
209672709,1532703839999673,325155934,-1169556871,61125,27021,0.30600002,0.029562386,1.1650001,1.4250001,0.58,0.79999995,71,4,8.993,8.483001,-2.986,3.427,5.9447627,0,nan,3,1,20
209862707,1532703840199672,325156091,-1169556946,60488,26385,0.252,0.026706154,1.1570001,1.414,0.58,0.79999995,71,4,9.566,8.843,-3.65,3.275,5.891751,0,nan,3,1,20
210067674,1532703840399672,325156256,-1169557028,59867,25764,0.24900001,0.027851613,1.149,1.4020001,0.58,0.79999995,71,4,10.044001,9.200001,-4.03,3.039,5.8703327,0,nan,3,1,20
210267678,1532703840599672,325156426,-1169557123,59276,25173,0.24000001,0.026943345,1.1420001,1.391,0.58,0.79999995,71,3,10.437,9.309,-4.721,2.9880002,5.813837,0,nan,3,1,20
210464675,1532703840799672,325156595,-1169557232,58761,24657,0.23700002,0.029003007,1.136,1.3820001,0.61,0.83,71,3,10.735001,9.243,-5.46,2.6490002,5.7496505,0,nan,3,1,19
210669676,1532703840999673,325156759,-1169557357,58372,24269,0.19900002,0.026381522,1.1270001,1.368,0.57,0.79999995,71,3,10.824,8.782001,-6.328,2.1820002,5.658824,0,nan,3,1,21
210866765,1532703841199672,325156910,-1169557501,58093,23989,0.21700001,0.031439662,1.118,1.353,0.57,0.79999995,71,3,10.68,7.8410006,-7.2520003,1.6110001,5.536821,0,nan,3,1,21
211069673,1532703841399672,325157044,-1169557662,57831,23728,0.28,0.034413878,1.1170001,1.3540001,0.57,0.79999995,71,3,10.633,7.0920005,-7.9230003,1.378,5.4425406,0,nan,3,1,21
211275682,1532703841599672,325157164,-1169557835,57585,23482,0.3,0.03900357,1.12,1.3570001,0.57,0.79999995,76,7,10.542001,6.3950005,-8.3810005,1.401,5.36417,0,nan,3,1,21
211471118,1532703841799672,325157273,-1169558020,57328,23225,0.28500003,0.040282372,1.123,1.3610001,0.57,0.79999995,76,7,10.611,5.775,-8.901,1.552,5.2879233,0,nan,3,1,21
211679161,1532703841999673,325157375,-1169558216,57008,22905,0.337,0.03995512,1.1270001,1.368,0.57,0.79999995,76,7,10.901001,5.539,-9.389001,1.5870001,5.2453384,0,nan,3,1,21
211870718,1532703842199672,325157466,-1169558419,56658,22555,0.25500003,0.0376464,1.13,1.3700001,0.57,0.79999995,76,7,10.832001,4.742,-9.739,1.7310001,5.16554,0,nan,3,1,21
212079954,1532703842399672,325157546,-1169558631,56264,22161,0.293,0.039001472,1.133,1.3750001,0.57,0.79999995,76,7,10.97,4.215,-10.127001,2.049,5.1067686,0,nan,3,1,21
212274836,1532703842599672,325157619,-1169558851,55831,21728,0.289,0.03909258,1.1370001,1.381,0.57,0.79999995,81,10,11.098001,3.831,-10.416,2.092,5.0648513,0,nan,3,1,21
212474700,1532703842799672,325157684,-1169559077,55377,21273,0.284,0.037298556,1.1400001,1.386,0.57,0.79999995,81,10,11.297001,3.4770002,-10.749001,2.2470002,5.0252438,0,nan,3,1,21
212682731,1532703842999673,325157742,-1169559308,54844,20741,0.28300002,0.033192668,1.1420001,1.389,0.57,0.79999995,81,10,11.494,3.233,-11.030001,2.3270001,4.9975586,0,nan,3,1,21
212871786,1532703843199672,325157794,-1169559544,54237,20133,0.254,0.032366257,1.143,1.3900001,0.57,0.79999995,81,10,11.662001,2.8760002,-11.301001,2.7050002,4.9616184,0,nan,3,1,21
213071672,1532703843399672,325157842,-1169559787,53612,19509,0.268,0.033419736,1.144,1.3920001,0.57,0.79999995,81,10,11.833,2.6520002,-11.532001,2.769,4.938399,0,nan,3,1,21
213277314,1532703843599672,325157886,-1169560035,53010,18906,0.32000002,0.03436169,1.1470001,1.3980001,0.57,0.79999995,81,5,12.074,2.265,-11.860001,2.832,4.9010944,0,nan,3,1,21
213471804,1532703843799671,325157921,-1169560288,52419,18316,0.35000002,0.03486574,1.151,1.4050001,0.57,0.79999995,81,5,12.011001,1.725,-11.887001,2.9060001,4.856475,0,nan,3,1,21
213673977,1532703843999672,325157944,-1169560543,51838,17735,0.379,0.035303995,1.156,1.4120001,0.57,0.79999995,81,5,12.166,1.1290001,-12.114,2.548,4.8052855,0,nan,3,1,21
213868677,1532703844199671,325157951,-1169560800,51380,17277,0.45000002,0.03748618,1.1620001,1.422,0.57,0.79999995,81,5,11.985001,-0.22000001,-11.983001,2.1750002,4.6940165,0,nan,3,1,21
214069671,1532703844399671,325157935,-1169561055,51068,16965,0.48100004,0.041912857,1.171,1.434,0.57,0.79999995,81,5,12.055,-1.447,-11.968,0.99500006,4.5920987,0,nan,3,1,21
214272672,1532703844599671,325157894,-1169561306,50986,16883,0.416,0.040344678,1.1800001,1.447,0.57,0.79999995,81,5,12.058001,-2.894,-11.705001,0.17,4.4699945,0,nan,3,1,21
214466054,1532703844799671,325157824,-1169561551,50915,16811,0.39000002,0.040410127,1.187,1.457,0.57,0.79999995,81,5,12.055,-4.3970003,-11.224001,-0.34100002,4.3390155,0,nan,3,1,21
214673692,1532703844999672,325157735,-1169561786,51113,17010,0.38900003,0.04146937,1.195,1.468,0.57,0.79999995,81,5,12.067,-5.229,-10.876,-1.136,4.264216,0,nan,3,1,21
214869674,1532703845199671,325157634,-1169562014,51426,17323,0.39200002,0.042579398,1.2030001,1.48,0.57,0.79999995,81,5,12.195001,-5.9220004,-10.661,-1.3720001,4.205332,0,nan,3,1,21
215067776,1532703845399671,325157525,-1169562238,51786,17683,0.45600003,0.05071368,1.2140001,1.496,0.62,0.87,81,5,12.163,-6.236,-10.443001,-1.6570001,4.174062,0,nan,3,1,20
215272673,1532703845599671,325157399,-1169562452,52112,18008,0.49600002,0.0554615,1.2290001,1.514,0.62,0.87,88,5,12.3810005,-7.452,-9.887,-1.5690001,4.066515,0,nan,3,1,20
215470742,1532703845799671,325157258,-1169562662,52338,18235,0.30600002,0.03667757,1.238,1.519,0.62,0.87,88,5,12.593,-7.852,-9.845,-0.99500006,4.039105,0,nan,3,1,20
215677729,1532703845999672,325157107,-1169562869,52502,18398,0.272,0.029470755,1.2370001,1.5180001,0.62,0.87,88,5,12.589001,-8.403001,-9.374001,-0.772,3.9815216,0,nan,3,1,20
215869698,1532703846199671,325156953,-1169563067,52643,18539,0.27800003,0.031729385,1.235,1.5200001,0.62,0.87,88,5,12.678,-8.632,-9.285001,-0.48900002,3.9633892,0,nan,3,1,20
216071915,1532703846399671,325156789,-1169563263,52589,18486,0.321,0.03221476,1.235,1.524,0.62,0.87,88,5,13.012001,-9.179001,-9.222,-0.020000001,3.9293313,0,nan,3,1,20
216272090,1532703846599671,325156621,-1169563458,52611,18507,0.34,0.035014268,1.238,1.5330001,0.62,0.87,89,6,13.121,-9.314,-9.242001,-0.036000002,3.9231591,0,nan,3,1,20
216471752,1532703846799671,325156453,-1169563657,52606,18503,0.372,0.035974026,1.2440001,1.5430001,0.62,0.87,89,6,13.253,-9.316,-9.427,0.469,3.9329464,0,nan,3,1,20
216671706,1532703846999672,325156279,-1169563853,52408,18304,0.358,0.036130235,1.2490001,1.5530001,0.62,0.87,89,6,13.286,-9.745001,-9.030001,0.66,3.8889146,0,nan,3,1,20
216871796,1532703847199671,325156100,-1169564047,52231,18127,0.43400002,0.04198913,1.2570001,1.565,0.62,0.87,89,6,13.522,-9.955001,-9.150001,0.79700005,3.8848667,0,nan,3,1,20
217070698,1532703847399671,325155918,-1169564241,52110,18006,0.437,0.042214625,1.2670001,1.58,0.62,0.87,89,6,13.620001,-10.049001,-9.194,0.92100006,3.882577,0,nan,3,1,20
217282699,1532703847599671,325155732,-1169564437,51930,17826,0.44200003,0.03953659,1.2780001,1.5940001,0.62,0.87,89,3,13.905001,-10.424001,-9.204,0.82600003,3.8649032,0,nan,3,1,20
217467673,1532703847799671,325155538,-1169564630,51769,17665,0.43500003,0.03799477,1.2870001,1.6070001,0.62,0.87,89,3,14.14,-10.934001,-8.966001,0.70400006,3.8284366,0,nan,3,1,20
217673719,1532703847999672,325155335,-1169564815,51603,17499,0.43300003,0.03650583,1.296,1.6190001,0.62,0.87,89,3,14.062,-11.244,-8.445001,0.702,3.785776,0,nan,3,1,20
217870818,1532703848199671,325155122,-1169564989,51468,17364,0.41000003,0.035488475,1.304,1.6300001,0.62,0.87,89,3,14.403001,-12.018001,-7.938,0.59400004,3.725313,0,nan,3,1,20
218070904,1532703848399671,325154901,-1169565154,51354,17250,0.40800002,0.034853175,1.3110001,1.641,0.62,0.87,89,3,14.372001,-12.174001,-7.6380005,0.541,3.7019024,0,nan,3,1,20
218270818,1532703848599671,325154678,-1169565316,51256,17152,0.446,0.03723747,1.319,1.6530001,0.62,0.87,89,6,14.547001,-12.403001,-7.6010003,0.78800005,3.6913855,0,nan,3,1,20
218470786,1532703848799671,325154455,-1169565472,51096,16992,0.45100003,0.038562175,1.3280001,1.6660001,0.62,0.87,89,6,14.115001,-12.149,-7.1860003,1.006,3.67572,0,nan,3,1,20
218669673,1532703848999672,325154229,-1169565619,50943,16839,0.46,0.03758252,1.3360001,1.6790001,0.62,0.87,89,6,14.356001,-12.666,-6.7570004,1.034,3.6316824,0,nan,3,1,20
218868772,1532703849199671,325153997,-1169565753,50746,16641,0.45100003,0.037621967,1.3440001,1.69,0.62,0.87,89,6,14.187,-12.934001,-5.8300004,0.82100004,3.5650728,0,nan,3,1,20
219072728,1532703849399671,325153755,-1169565864,50614,16509,0.41400003,0.034557518,1.3510001,1.6960001,0.62,0.87,89,6,14.428,-13.625001,-4.7440004,0.526,3.4766676,0,nan,3,1,20
219269702,1532703849599671,325153505,-1169565951,50588,16483,0.388,0.03416726,1.3560001,1.7,0.62,0.87,88,5,14.416,-13.989,-3.4840002,0.134,3.3856509,0,nan,3,1,20
219469676,1532703849799671,325153250,-1169566012,50500,16396,0.367,0.032824405,1.3590001,1.7010001,0.62,0.87,88,5,14.188001,-14.008,-2.2510002,-0.106000006,3.3008978,0,nan,3,1,20
219668674,1532703849999672,325152995,-1169566045,50572,16467,0.33800003,0.032878336,1.3610001,1.7,0.62,0.87,88,5,14.114,-14.089001,-0.836,-0.555,3.200861,0,nan,3,1,20
219872669,1532703850199671,325152748,-1169566049,50929,16824,0.287,0.025605898,1.3510001,1.682,0.62,0.87,88,5,13.895,-13.865001,0.915,-1.149,3.0756881,0,nan,3,1,20
220077673,1532703850399671,325152502,-1169566014,51293,17188,0.22800002,0.020417385,1.325,1.6430001,0.62,0.87,88,5,13.827001,-13.609,2.443,-1.107,2.9639788,0,nan,3,1,20
220280674,1532703850599671,325152266,-1169565946,51491,17386,0.17300001,0.014919946,1.286,1.5840001,0.62,0.87,88,15,13.524,-13.008,3.6990001,-0.883,2.8645785,0,nan,3,1,20
220470713,1532703850799671,325152037,-1169565854,51436,17331,0.18900001,0.015536571,1.2570001,1.5480001,0.62,0.87,88,15,13.05,-12.098001,4.893,-0.84000003,2.7572913,0,nan,3,1,20
220674827,1532703850999672,325151827,-1169565741,51552,17447,0.20400001,0.018216524,1.2360001,1.529,0.62,0.87,88,15,13.129001,-11.583,6.1800003,-0.702,2.6514866,0,nan,3,1,20
220872001,1532703851199671,325151634,-1169565613,51531,17426,0.20500001,0.01680874,1.2140001,1.5020001,0.62,0.87,88,15,12.576,-10.431001,7.025,-0.81500006,2.5489128,0,nan,3,1,20
221070730,1532703851399671,325151450,-1169565443,51697,17592,0.201,0.01913282,1.1960001,1.475,0.62,0.87,88,15,12.526001,-9.346001,8.339001,-0.762,2.413103,0,nan,3,1,20
221268579,1532703851599671,325151287,-1169565261,51848,17744,0.216,0.01723216,1.1780001,1.4530001,0.62,0.87,88,9,11.989,-8.212001,8.735001,-0.58400005,2.3253405,0,nan,3,1,20
221473749,1532703851799671,325151134,-1169565052,51988,17883,0.17500001,0.01811547,1.156,1.4300001,0.62,0.87,88,9,12.066001,-7.3500004,9.568001,0.21900001,2.225828,0,nan,3,1,20
221678718,1532703851999672,325151009,-1169564837,52124,18019,0.149,0.016668417,1.13,1.401,0.62,0.87,88,9,11.928,-6.471,10.021001,0.91400003,2.1442046,0,nan,3,1,20
221869671,1532703852199671,325150898,-1169564613,51949,17844,0.16800001,0.017291151,1.1090001,1.378,0.62,0.87,88,9,11.795001,-5.571,10.397,1.5610001,2.0626707,0,nan,3,1,20
222067806,1532703852399671,325150803,-1169564384,51544,17439,0.263,0.023121247,1.1040001,1.3750001,0.62,0.87,88,9,12.0130005,-4.7860003,11.018001,2.158,1.9805744,0,nan,3,1,20
222269675,1532703852599670,325150722,-1169564142,51084,16979,0.33200002,0.021413269,1.0990001,1.3690001,0.71,0.90999997,89,6,12.228001,-4.0730004,11.530001,2.592,1.910362,0,nan,3,1,19
222472699,1532703852799670,325150653,-1169563889,50602,16497,0.28300002,0.019862369,1.092,1.3560001,0.62,0.87,89,6,12.530001,-3.5620003,12.0130005,2.8400002,1.8590707,0,nan,3,1,20
222671672,1532703852999671,325150593,-1169563628,49979,15874,0.38200003,0.030173948,1.095,1.3590001,0.62,0.87,89,6,12.808001,-3.0030003,12.451,3.2020001,1.8074895,0,nan,3,1,20
222872751,1532703853199670,325150540,-1169563353,49264,15160,0.381,0.02982593,1.0990001,1.363,0.62,0.87,89,6,13.143001,-2.5790002,12.8880005,3.805,1.7682668,0,nan,3,1,20
