timestamp,states[0],states[1],states[2],states[3],states[4],states[5],states[6],states[7],states[8],states[9],states[10],states[11],states[12],states[13],states[14],states[15],states[16],states[17],states[18],states[19],states[20],states[21],states[22],states[23],n_states,vibe[0],vibe[1],vibe[2],covariances[0],covariances[1],covariances[2],covariances[3],covariances[4],covariances[5],covariances[6],covariances[7],covariances[8],covariances[9],covariances[10],covariances[11],covariances[12],covariances[13],covariances[14],covariances[15],covariances[16],covariances[17],covariances[18],covariances[19],covariances[20],covariances[21],covariances[22],covariances[23],control_mode_flags,pos_horiz_accuracy,pos_vert_accuracy,mag_test_ratio,vel_test_ratio,pos_test_ratio,hgt_test_ratio,tas_test_ratio,hagl_test_ratio,beta_test_ratio,time_slip,gps_check_fail_flags,filter_fault_flags,innovation_check_flags,solution_status_flags,nan_flags,health_flags,timeout_flags,pre_flt_fail
1060172972,0.9964891,-0.013269839,-0.004120009,-0.082561105,-0.0065430934,-0.015242459,0.02946774,3.872345,-3.1577532,0.14936739,9.7170385e-05,-0.00010213639,-8.2321657e-07,-0.00014747163,0.00019576767,-8.594342e-05,0.2392643,0.052960288,0.39006686,-0.0023671773,-4.7829024e-05,0.0059983563,0.0,0.0,0.0,3.0824043e-10,5.9806057e-06,0.00040804927,2.7335858e-07,3.9777988e-06,3.978234e-06,3.551738e-05,0.01215268,0.012153087,0.006032237,0.0502205,0.050220825,0.046972483,1.0439257e-11,1.0442507e-11,1.810163e-11,1.3008083e-08,1.301295e-08,1.0000074e-08,0.0,0.0,0.0,0.0,0.0,0.0,0.0,0.0,663,0.31692478,0.21673137,0.007027985,0.01265045,0.024416229,0.004960869,0.0,0.0,0.0,8e-06,0,0,0,831,0,0,0,0
1060377768,0.9964858,-0.013244521,-0.0041314554,-0.082605705,-0.0059840577,-0.0155403,0.02894642,3.8733006,-3.1512008,0.14841479,9.714374e-05,-0.00010213019,-8.333038e-07,-0.00014747257,0.0001957698,-8.479501e-05,0.2392643,0.052960288,0.39006686,-0.0023671773,-4.7829024e-05,0.0059983563,0.0,0.0,0.0,2.9406604e-09,4.4739987e-05,0.0012665886,2.7379724e-07,3.9837096e-06,3.9841266e-06,3.552284e-05,0.012200637,0.012201032,0.006067019,0.05043825,0.050438594,0.047462985,1.0443888e-11,1.0447127e-11,1.8103631e-11,1.300906e-08,1.3013927e-08,1.00000745e-08,0.0,0.0,0.0,0.0,0.0,0.0,0.0,0.0,663,0.31761116,0.21786001,0.047119573,0.0060121915,0.024716603,0.020328416,0.0,0.0,0.0,6e-06,0,0,0,831,0,0,0,0
1060581778,0.9964798,-0.012899335,-0.0037846537,-0.08274827,-0.0063323565,-0.013445143,0.024734082,3.8736386,-3.1482747,0.14784174,9.713689e-05,-0.00010212781,-7.662103e-07,-0.00014747241,0.00019577063,-8.400333e-05,0.2392643,0.052960288,0.39006686,-0.0023671773,-4.7829024e-05,0.0059983563,0.0,0.0,0.0,1.2177596e-08,0.00013333213,0.0038373272,2.7400347e-07,3.9841707e-06,3.984423e-06,3.556564e-05,0.01220293,0.012203309,0.0060461215,0.050373346,0.050373677,0.04718646,1.04452376e-11,1.044847e-11,1.8113245e-11,1.3009998e-08,1.3014866e-08,1.0000037e-08,0.0,0.0,0.0,0.0,0.0,0.0,0.0,0.0,663,0.3174067,0.21722445,0.014267771,0.010612367,0.019977689,0.020427585,0.0,0.0,0.0,1.5e-05,0,0,0,831,0,0,0,0
1060781725,0.99647176,-0.012879818,-0.0036964817,-0.08285197,-0.004558238,-0.015736882,0.028304966,3.8735225,-3.143938,0.13376154,9.71206e-05,-0.00010213212,-6.6520187e-07,-0.00014747411,0.00019577492,-8.137755e-05,0.2392643,0.052960288,0.39006686,-0.0023671773,-4.7829024e-05,0.0059983563,0.0,0.0,0.0,1.1749864e-07,0.00042170196,0.008693399,2.735959e-07,3.983304e-06,3.9835654e-06,3.5607907e-05,0.012186002,0.012186323,0.0060252696,0.050237793,0.05023812,0.046903573,1.0444336e-11,1.0447564e-11,1.8120927e-11,1.3010924e-08,1.3015791e-08,1e-08,0.0,0.0,0.0,0.0,0.0,0.0,0.0,0.0,663,0.31697935,0.21657233,0.07995226,0.022400776,0.01917408,0.035778135,0.0,0.0,0.0,-4e-05,0,0,0,831,0,0,0,0
1060986568,0.9964292,-0.010064857,-0.0022245497,-0.08380135,-0.022925813,0.0070442045,-0.0150063755,3.873731,-3.1403034,0.15148872,9.7109696e-05,-0.00010212427,-5.6681756e-07,-0.00014746997,0.00019576914,-8.358473e-05,0.2392643,0.052960288,0.39006686,-0.0023671773,-4.7829024e-05,0.0059983563,0.0,0.0,0.0,1.030479e-06,0.0012351343,0.029036868,2.777074e-07,3.9891243e-06,3.9878496e-06,3.5610155e-05,0.012262785,0.0122631155,0.006056443,0.050422937,0.05042327,0.047352698,1.0447682e-11,1.0450899e-11,1.8120653e-11,1.3011885e-08,1.3016752e-08,1.0000036e-08,0.0,0.0,0.0,0.0,0.0,0.0,0.0,0.0,663,0.3175629,0.21760675,0.04566272,0.012056518,0.017904619,0.055189762,0.0,0.0,0.0,-3e-05,0,0,0,831,0,0,0,0
1061190546,0.99527925,0.019827832,-0.011388954,-0.09432066,-0.091757804,0.2632122,-1.1588196,3.8624613,-3.1138654,0.038817964,9.7120224e-05,-0.000102129525,-4.3164383e-07,-0.00014747192,0.00019576399,-8.243808e-05,0.2392643,0.052960288,0.39006686,-0.0023671773,-4.7829024e-05,0.0059983563,0.0,0.0,0.0,1.798427e-06,0.0018529237,0.04774447,3.4634465e-07,3.9886154e-06,3.9945458e-06,3.5520243e-05,0.012986787,0.012978632,0.0060352273,0.050411683,0.050412025,0.047066607,1.0447412e-11,1.04506525e-11,1.8118094e-11,1.301282e-08,1.3017688e-08,1.0000037e-08,0.0,0.0,0.0,0.0,0.0,0.0,0.0,0.0,663,0.3175275,0.21694839,0.06816853,0.07225663,0.018625684,0.014371616,0.0,0.0,0.0,-1.6e-05,0,0,0,831,0,0,0,0
1061390566,0.9950785,-0.030221809,-0.015223965,-0.0931334,-0.17017446,0.42652518,-1.7883117,3.8295064,-3.047153,-0.2697559,9.717702e-05,-0.0001021731,-3.0678623e-07,-0.00014754235,0.0001956463,-8.287332e-05,0.2392643,0.052960288,0.39006686,-0.0023671773,-4.7829024e-05,0.0059983563,0.0,0.0,0.0,1.8136358e-06,0.0018150214,0.04618322,3.3670568e-07,3.9790743e-06,3.99607e-06,3.5494442e-05,0.013347467,0.013326861,0.0060176183,0.050460473,0.050460536,0.046793588,1.0438118e-11,1.0441576e-11,1.8113002e-11,1.3013504e-08,1.3018374e-08,1e-08,0.0,0.0,0.0,0.0,0.0,0.0,0.0,0.0,663,0.31768066,0.21631825,0.055867106,0.04629637,0.014414237,0.030062089,0.0,0.0,0.0,3e-06,0,0,0,831,0,0,0,0
1061595372,0.99336654,-0.056308717,-0.02875846,-0.09604884,-0.21855883,0.46260166,-1.8888497,3.7890515,-2.9409935,-0.63092226,9.712825e-05,-0.00010220679,-1.9557814e-07,-0.00014760258,0.00019574918,-8.563014e-05,0.2392643,0.052960288,0.39006686,-0.0023671773,-4.7829024e-05,0.0059983563,0.0,0.0,0.0,1.4264667e-06,0.001733951,0.04156143,3.65737e-07,3.978241e-06,4.051999e-06,3.5380424e-05,0.013357543,0.013338079,0.0060098604,0.050689764,0.050688926,0.046648625,1.042772e-11,1.0431442e-11,1.8107975e-11,1.3014077e-08,1.30189495e-08,1e-08,0.0,0.0,0.0,0.0,0.0,0.0,0.0,0.0,663,0.3184002,0.21598293,0.09165618,0.027207956,0.016625514,0.005238805,0.0,0.0,0.0,7e-06,0,0,0,831,0,0,0,0
1061799358,0.99195755,-0.068719186,-0.03600719,-0.10000798,-0.17103815,0.42090312,-1.8587539,3.7460155,-2.846816,-0.997962,9.715432e-05,-0.00010223364,-6.461127e-08,-0.00014765229,0.00019573886,-8.8759276e-05,0.2392643,0.052960288,0.39006686,-0.0023671773,-4.7829024e-05,0.0059983563,0.0,0.0,0.0,1.0484176e-06,0.0018049167,0.040045526,3.9909722e-07,3.9790534e-06,4.089456e-06,3.5286645e-05,0.013302908,0.013288224,0.0060082236,0.051067628,0.05106562,0.04660833,1.0422388e-11,1.042636e-11,1.8106575e-11,1.3014712e-08,1.3019579e-08,1.0000037e-08,0.0,0.0,0.0,0.0,0.0,0.0,0.0,0.0,663,0.3195829,0.21588962,0.045600843,0.026435684,0.01351808,0.0008237314,0.0,0.0,0.0,-5e-06,0,0,0,831,0,0,0,0
1062000168,0.9921678,-0.06699296,-0.03336878,-0.10000814,-0.10473048,0.29225892,-1.8776469,3.7303114,-2.7745447,-1.3704568,9.715282e-05,-0.00010218768,2.9529033e-08,-0.00014755916,0.00019574388,-8.8267996e-05,0.2392643,0.052960288,0.39006686,-0.0023671773,-4.7829024e-05,0.0059983563,0.0,0.0,0.0,7.9650744e-07,0.0017234804,0.03675238,3.9566135e-07,3.958936e-06,4.067529e-06,3.528172e-05,0.013214112,0.013209439,0.005991731,0.051135007,0.05113238,0.046383534,1.04142415e-11,1.0418419e-11,1.8101607e-11,1.30153435e-08,1.30202e-08,1e-08,0.0,0.0,0.0,0.0,0.0,0.0,0.0,0.0,663,0.31979272,0.21536836,0.023635492,0.031726036,0.009907216,0.0064662383,0.0,0.0,0.0,4e-06,0,0,0,831,0,0,0,0
1062204167,0.99193597,-0.070728734,-0.033069257,-0.09983437,-0.054752126,0.1956523,-1.8600916,3.7124755,-2.7303503,-1.7588121,9.720824e-05,-0.00010219393,7.575317e-08,-0.00014757391,0.00019563947,-8.5822125e-05,0.2392643,0.052960288,0.39006686,-0.0023671773,-4.7829024e-05,0.0059983563,0.0,0.0,0.0,6.354106e-07,0.0016664246,0.0369438,3.9584995e-07,3.944263e-06,4.0705827e-06,3.5307323e-05,0.013117454,0.013116918,0.0060165282,0.051252395,0.051249728,0.04672722,1.0409318e-11,1.0413644e-11,1.8110805e-11,1.3016021e-08,1.3020862e-08,1.00000745e-08,0.0,0.0,0.0,0.0,0.0,0.0,0.0,0.0,663,0.32015952,0.2161648,0.018536044,0.045627486,0.00678624,0.02940849,0.0,0.0,0.0,5e-06,0,0,0,831,0,0,0,0
1062408174,0.9922045,-0.066229604,-0.031132244,-0.100870155,-0.006390573,0.10260464,-1.880086,3.7113354,-2.6968863,-2.163533,9.718877e-05,-0.00010217949,2.1851346e-07,-0.00014752762,0.00019568231,-8.3867664e-05,0.2392643,0.052960288,0.39006686,-0.0023671773,-4.7829024e-05,0.0059983563,0.0,0.0,0.0,6.1324175e-07,0.0016983034,0.038002726,3.9767642e-07,3.935063e-06,4.0425557e-06,3.5273446e-05,0.0130917365,0.013092918,0.0059810206,0.0516408,0.05163858,0.04618214,1.0406475e-11,1.0410849e-11,1.809881e-11,1.3016721e-08,1.3021531e-08,1e-08,0.0,0.0,0.0,0.0,0.0,0.0,0.0,0.0,663,0.3213711,0.2149003,0.026100043,0.012924977,0.005782082,0.03207412,0.0,0.0,0.0,9e-06,0,0,0,831,0,0,0,0
1062608956,0.9921145,-0.06833157,-0.028782763,-0.10105051,0.015516138,0.05809571,-1.8112121,3.7202008,-2.6785479,-2.5247138,9.718314e-05,-0.00010215112,3.1913768e-07,-0.00014747065,0.00019568823,-8.4282234e-05,0.2392643,0.052960288,0.39006686,-0.0023671773,-4.7829024e-05,0.0059983563,0.0,0.0,0.0,6.077626e-07,0.0016754403,0.03671815,3.9751853e-07,3.9192364e-06,4.040048e-06,3.5254412e-05,0.012972845,0.012974288,0.005970611,0.051796585,0.05179497,0.046003427,1.04017975e-11,1.0406187e-11,1.8094757e-11,1.3017427e-08,1.3022194e-08,1e-08,0.0,0.0,0.0,0.0,0.0,0.0,0.0,0.0,663,0.3218564,0.2144841,0.04437935,0.030351987,0.0071314224,0.004117732,0.0,0.0,0.0,-2.3e-05,0,0,0,831,0,0,0,0
1062812945,0.99273825,-0.061813712,-0.024618236,-0.1002191,0.022946315,0.04134865,-1.7955775,3.7193518,-2.6503794,-2.8939483,9.710404e-05,-0.00010221858,4.4963974e-07,-0.00014749276,0.0001957718,-8.174275e-05,0.2392643,0.052960288,0.39006686,-0.0023671773,-4.7829024e-05,0.0059983563,0.0,0.0,0.0,5.859316e-07,0.0016272512,0.03750899,3.8550976e-07,3.908765e-06,4.006866e-06,3.5282097e-05,0.012909746,0.012911438,0.0060360464,0.05206683,0.052065898,0.046908263,1.0401077e-11,1.0405463e-11,1.8092706e-11,1.3018176e-08,1.3022889e-08,1.0000074e-08,0.0,0.0,0.0,0.0,0.0,0.0,0.0,0.0,663,0.32269603,0.21658316,0.055876743,0.062025737,0.0091450745,0.012101721,0.0,0.0,0.0,-1.9e-05,0,0,0,831,0,0,0,0
1063016938,0.99262047,-0.06707475,-0.023385823,-0.09827891,0.018521428,0.02210688,-1.7276698,3.723951,-2.631132,-3.241946,9.704775e-05,-0.00010224916,5.4394485e-07,-0.00014749094,0.00019584248,-8.355942e-05,0.2392643,0.052960288,0.39006686,-0.0023671773,-4.7829024e-05,0.0059983563,0.0,0.0,0.0,5.504765e-07,0.0016855212,0.0385564,3.7298372e-07,3.9074266e-06,4.029112e-06,3.52826e-05,0.012887677,0.012889308,0.0059985523,0.052697588,0.05269731,0.04634846,1.0404531e-11,1.040891e-11,1.8092982e-11,1.3018956e-08,1.302358e-08,1e-08,0.0,0.0,0.0,0.0,0.0,0.0,0.0,0.0,663,0.32464582,0.21528693,0.018569842,0.069918536,0.012103127,0.07626365,0.0,0.0,0.0,-2.6e-05,0,0,0,831,0,0,0,0
1063217760,0.99274623,-0.066605404,-0.023079313,-0.09739597,0.046633366,-0.01810139,-1.7038817,3.7269375,-2.6245408,-3.5861926,9.7026474e-05,-0.00010228282,6.0721027e-07,-0.0001474461,0.00019576088,-8.1555634e-05,0.2392643,0.052960288,0.39006686,-0.0023671773,-4.7829024e-05,0.0059983563,0.0,0.0,0.0,6.255218e-07,0.0017767407,0.039201543,3.662881e-07,3.9044635e-06,4.022156e-06,3.533391e-05,0.012831748,0.012833468,0.006024076,0.053000078,0.053000372,0.046694677,1.0404364e-11,1.0408723e-11,1.8100977e-11,1.3019729e-08,1.3024248e-08,1.0000074e-08,0.0,0.0,0.0,0.0,0.0,0.0,0.0,0.0,663,0.3255771,0.21608952,0.0012541381,0.09237912,0.012174128,0.034856245,0.0,0.0,0.0,-4e-06,0,0,0,831,0,0,0,0
1063421752,0.9930983,-0.063596256,-0.021440037,-0.09618607,0.030887341,-0.09100859,-1.7662504,3.7326922,-2.6214695,-3.920227,9.6963886e-05,-0.00010231358,6.001316e-07,-0.00014740847,0.0001957476,-8.175303e-05,0.2392643,0.052960288,0.39006686,-0.0023671773,-4.7829024e-05,0.0059983563,0.0,0.0,0.0,5.9536984e-07,0.001770033,0.038131297,3.5652948e-07,3.902615e-06,4.0073264e-06,3.5342015e-05,0.012845589,0.012843587,0.0060479855,0.05334417,0.053344984,0.04703738,1.0406734e-11,1.0411057e-11,1.809888e-11,1.3020527e-08,1.3024919e-08,1.00000745e-08,0.0,0.0,0.0,0.0,0.0,0.0,0.0,0.0,663,0.32663307,0.21688104,0.0008171746,0.08411702,0.013338749,0.02101327,0.0,0.0,0.0,-1.1e-05,0,0,0,831,0,0,0,0
1063622567,0.9930249,-0.06356332,-0.025311267,-0.096024744,0.031546142,-0.15590698,-1.8115566,3.7457986,-2.6420963,-4.3029428,9.69513e-05,-0.00010228184,5.9746895e-07,-0.00014726084,0.00019550904,-7.779825e-05,0.2392643,0.052960288,0.39006686,-0.0023671773,-4.7829024e-05,0.0059983563,0.0,0.0,0.0,5.5104755e-07,0.0016841398,0.03644091,3.573625e-07,3.914207e-06,4.009288e-06,3.5398305e-05,0.012900276,0.012895354,0.0060789194,0.054012302,0.05401343,0.047504887,1.041188e-11,1.0416103e-11,1.811069e-11,1.3021342e-08,1.3025576e-08,1.0000037e-08,0.0,0.0,0.0,0.0,0.0,0.0,0.0,0.0,663,0.32867268,0.21795616,0.015185197,0.12083356,0.0105465995,0.012218442,0.0,0.0,0.0,5e-06,0,0,0,831,0,0,0,0
1063822575,0.9933086,-0.05987518,-0.02584268,-0.09531695,0.07825389,-0.20037493,-1.7641854,3.766637,-2.6708484,-4.6541696,9.69141e-05,-0.00010223167,5.88955e-07,-0.00014714689,0.0001953848,-7.682336e-05,0.2392643,0.052960288,0.39006686,-0.0023671773,-4.7829024e-05,0.0059983563,0.0,0.0,0.0,5.6639635e-07,0.0017152732,0.03645904,3.5191783e-07,3.9156766e-06,3.992187e-06,3.5453817e-05,0.012832314,0.012826921,0.0060844696,0.054293104,0.054294292,0.04764925,1.0410672e-11,1.0414774e-11,1.8114628e-11,1.3022085e-08,1.3026135e-08,1.0000037e-08,0.0,0.0,0.0,0.0,0.0,0.0,0.0,0.0,663,0.329526,0.21828708,0.0039620553,0.093116805,0.010947881,0.018992636,0.0,0.0,0.0,1.1e-05,0,0,0,831,0,0,0,0
1064026618,0.99388945,-0.05338329,-0.020913325,-0.09432209,0.10719029,-0.26525614,-1.8002832,3.7913034,-2.714653,-5.0330515,9.689162e-05,-0.000102212885,5.7088715e-07,-0.00014698431,0.00019511131,-7.20669e-05,0.2392643,0.052960288,0.39006686,-0.0023671773,-4.7829024e-05,0.0059983563,0.0,0.0,0.0,5.725497e-07,0.0017034314,0.036568254,3.41659e-07,3.909764e-06,3.968333e-06,3.5472196e-05,0.012814769,0.012806904,0.0060563153,0.054597575,0.054598626,0.047313835,1.041104e-11,1.0415011e-11,1.8110222e-11,1.3022863e-08,1.302669e-08,1e-08,0.0,0.0,0.0,0.0,0.0,0.0,0.0,0.0,663,0.33044848,0.21751744,0.011334921,0.10465051,0.0104748,0.046835847,0.0,0.0,0.0,1.2e-05,0,0,0,831,0,0,0,0
1064231347,0.9944581,-0.046701334,-0.01258787,-0.09334784,0.114847004,-0.24906163,-1.815361,3.8174977,-2.7529163,-5.419209,9.680925e-05,-0.000102236554,5.610016e-07,-0.00014684907,0.0001949381,-6.915616e-05,0.2392643,0.052960288,0.39006686,-0.0023671773,-4.7829024e-05,0.0059983563,0.0,0.0,0.0,6.15888e-07,0.0017455252,0.038451646,3.3130556e-07,3.9137867e-06,3.9594197e-06,3.550795e-05,0.012865602,0.01286165,0.0060455855,0.05531868,0.05531956,0.047187123,1.0418272e-11,1.0422145e-11,1.8109887e-11,1.3023684e-08,1.30272575e-08,1e-08,0.0,0.0,0.0,0.0,0.0,0.0,0.0,0.0,663,0.33262327,0.21722597,0.012958581,0.106698535,0.014047404,0.0047693616,0.0,0.0,0.0,-1.7e-05,0,0,0,831,0,0,0,0
1064435347,0.9945723,-0.04278266,-0.012394071,-0.09403286,0.12136531,-0.19524905,-1.8812549,3.8458834,-2.7889588,-5.8196063,9.676222e-05,-0.000102220016,5.474956e-07,-0.00014663293,0.00019456232,-6.2916944e-05,0.2392643,0.052960288,0.39006686,-0.0023671773,-4.7829024e-05,0.0059983563,0.0,0.0,0.0,6.0152587e-07,0.0017574242,0.03936631,3.3480455e-07,3.9179354e-06,3.951414e-06,3.5496774e-05,0.012880513,0.012882525,0.006063219,0.055676892,0.055677842,0.04746242,1.0422432e-11,1.0426265e-11,1.8107498e-11,1.302449e-08,1.30277975e-08,1.00000745e-08,0.0,0.0,0.0,0.0,0.0,0.0,0.0,0.0,663,0.33369857,0.21785872,0.003471609,0.11835457,0.014060361,0.042246517,0.0,0.0,0.0,-1.7e-05,0,0,0,831,0,0,0,0
1064635339,0.9945556,-0.046011526,-0.01017282,-0.09294496,0.068309434,-0.1376102,-2.0560248,3.8725011,-2.8163524,-6.231778,9.6736774e-05,-0.0001021958,5.2652916e-07,-0.00014650782,0.00019434583,-5.9770362e-05,0.2392643,0.052960288,0.39006686,-0.0023671773,-4.7829024e-05,0.0059983563,0.0,0.0,0.0,6.264376e-07,0.0017812151,0.04022715,3.2892535e-07,3.9175643e-06,3.9599013e-06,3.5537712e-05,0.012959023,0.012963805,0.0060415734,0.055984892,0.05598638,0.047168814,1.0424194e-11,1.04280725e-11,1.811513e-11,1.3025264e-08,1.30282505e-08,1.0000037e-08,0.0,0.0,0.0,0.0,0.0,0.0,0.0,0.0,663,0.3346211,0.21718383,0.0073161763,0.07609602,0.015761677,0.021602463,0.0,0.0,0.0,-2.5e-05,0,0,0,831,0,0,0,0
1064840141,0.99404967,-0.053811923,-0.01276847,-0.093843885,0.045486122,-0.10345104,-2.1851127,3.8973956,-2.8283923,-6.708052,9.6672586e-05,-0.00010217224,5.0992264e-07,-0.00014628583,0.00019396924,-5.352844e-05,0.2392643,0.052960288,0.39006686,-0.0023671773,-4.7829024e-05,0.0059983563,0.0,0.0,0.0,5.9959547e-07,0.0017930866,0.039933536,3.3836625e-07,3.925622e-06,3.9879633e-06,3.551278e-05,0.013071956,0.013078223,0.006037889,0.056632496,0.056634955,0.047089204,1.0430432e-11,1.0434403e-11,1.8114909e-11,1.3026071e-08,1.3028692e-08,1.0000036e-08,0.0,0.0,0.0,0.0,0.0,0.0,0.0,0.0,663,0.3365523,0.21700047,0.0041812933,0.06898263,0.014757183,0.061228894,0.0,0.0,0.0,-2.1e-05,0,0,0,831,0,0,0,0
1065044151,0.9940212,-0.05548911,-0.009069115,-0.09359848,0.101568565,-0.0850834,-2.2025392,3.9176652,-2.832924,-7.175949,9.659689e-05,-0.000102174155,4.889046e-07,-0.00014612182,0.000193704,-4.9204464e-05,0.2392643,0.052960288,0.39006686,-0.0023671773,-4.7829024e-05,0.0059983563,0.0,0.0,0.0,6.1583955e-07,0.0018863569,0.042748585,3.3687425e-07,3.9260376e-06,3.9950646e-06,3.5495974e-05,0.013064486,0.013071863,0.0060213106,0.05696534,0.056968685,0.046840448,1.04342255e-11,1.0438361e-11,1.8112395e-11,1.3026852e-08,1.3029059e-08,1e-08,0.0,0.0,0.0,0.0,0.0,0.0,0.0,0.0,663,0.33754113,0.21642654,0.023291998,0.053526435,0.014941422,0.01680063,0.0,0.0,0.0,-1.1e-05,0,0,0,831,0,0,0,0
1065244982,0.99409664,-0.0550406,-0.005473623,-0.0933404,0.08045664,-0.12842794,-2.4000669,3.9407585,-2.8489976,-7.6531286,9.6579126e-05,-0.00010216749,4.840293e-07,-0.00014605929,0.00019358906,-4.7872814e-05,0.2392643,0.052960288,0.39006686,-0.0023671773,-4.7829024e-05,0.0059983563,0.0,0.0,0.0,6.405736e-07,0.0018713833,0.042525537,3.3453847e-07,3.931368e-06,3.9988076e-06,3.550404e-05,0.013205071,0.013211683,0.00602109,0.05748425,0.05748849,0.046792682,1.0438385e-11,1.04427526e-11,1.811204e-11,1.30276545e-08,1.30293945e-08,1.0000037e-08,0.0,0.0,0.0,0.0,0.0,0.0,0.0,0.0,663,0.3390763,0.21631616,0.0062362817,0.046854544,0.01405648,3.982035e-05,0.0,0.0,0.0,1.8e-05,0,0,0,831,0,0,0,0
1065449008,0.99419737,-0.055896476,-0.010577344,-0.0912979,0.08589264,-0.13069186,-2.5167832,3.9634898,-2.863484,-8.136342,9.652997e-05,-0.00010214586,4.8247523e-07,-0.00014603659,0.0001935893,-4.8165355e-05,0.2392643,0.052960288,0.39006686,-0.0023671773,-4.7829024e-05,0.0059983563,0.0,0.0,0.0,7.1374524e-07,0.001832357,0.04141805,3.228945e-07,3.932291e-06,3.9984243e-06,3.5494526e-05,0.013232569,0.01323929,0.0060024792,0.057625405,0.057630263,0.046486706,1.0436295e-11,1.04408825e-11,1.8104027e-11,1.3028382e-08,1.3029613e-08,1e-08,0.0,0.0,0.0,0.0,0.0,0.0,0.0,0.0,663,0.33949324,0.21560776,0.017876657,0.026195524,0.012673554,0.046443675,0.0,0.0,0.0,2.4e-05,0,0,0,831,0,0,0,0
1065652972,0.994718,-0.051278688,-0.0017766374,-0.08890169,0.08016371,-0.1329737,-2.6381404,3.9861,-2.883675,-8.657478,9.649581e-05,-0.00010214172,4.555197e-07,-0.00014607218,0.00019368707,-4.9945364e-05,0.2392643,0.052960288,0.39006686,-0.0023671773,-4.7829024e-05,0.0059983563,0.0,0.0,0.0,7.0437943e-07,0.0018375266,0.043096684,3.0505427e-07,3.94039e-06,3.9937954e-06,3.5528592e-05,0.01334802,0.013354665,0.0060057677,0.05821468,0.058220174,0.04647044,1.0441705e-11,1.0446571e-11,1.8103638e-11,1.3029181e-08,1.3029844e-08,1e-08,0.0,0.0,0.0,0.0,0.0,0.0,0.0,0.0,663,0.34122553,0.21557003,0.011512687,0.029464997,0.01150967,0.002396464,0.0,0.0,0.0,7e-06,0,0,0,831,0,0,0,0
1065854542,0.99502766,-0.049380984,-0.0003436417,-0.086495824,0.047075603,-0.16814879,-2.7601573,4.0097904,-2.9108586,-9.197577,9.6483425e-05,-0.00010209967,4.2969938e-07,-0.00014602467,0.00019358598,-4.9168808e-05,0.2392643,0.052960288,0.39006686,-0.0023671773,-4.7829024e-05,0.0059983563,0.0,0.0,0.0,6.694908e-07,0.0019139576,0.045149866,2.899111e-07,3.9406627e-06,3.9873094e-06,3.553188e-05,0.013385892,0.01339231,0.006031703,0.05838738,0.05839328,0.04680548,1.0441559e-11,1.0446728e-11,1.8099106e-11,1.3029958e-08,1.303005e-08,1.0000073e-08,0.0,0.0,0.0,0.0,0.0,0.0,0.0,0.0,663,0.34173185,0.21634574,0.020880839,0.050760582,0.010482755,0.0073741428,0.0,0.0,0.0,-2.1e-05,0,0,0,831,0,0,0,0
1066058639,0.99504006,-0.04898142,0.0006179376,-0.08657766,0.03662651,-0.12610492,-2.9445453,4.0323625,-2.9247954,-9.776054,9.639428e-05,-0.000102052596,4.3069412e-07,-0.00014593398,0.00019341805,-4.7667465e-05,0.2392643,0.052960288,0.39006686,-0.0023671773,-4.7829024e-05,0.0059983563,0.0,0.0,0.0,6.7262914e-07,0.0019051699,0.04537484,2.9023997e-07,3.77704e-06,3.821407e-06,3.5573783e-05,0.012009403,0.012014719,0.0059596743,0.05081328,0.05081743,0.04637455,1.0342547e-11,1.0348454e-11,1.8109788e-11,1.3030706e-08,1.3029906e-08,1e-08,0.0,0.0,0.0,0.0,0.0,0.0,0.0,0.0,663,0.3187957,0.2153475,0.010805121,0.044356886,0.008825215,0.0046406,0.0,0.0,0.0,7.4e-05,0,0,0,831,0,0,0,0
1066259351,0.9948118,-0.050996505,-0.0013983462,-0.088016815,-0.013462122,-0.08938623,-3.0767763,4.034605,-2.9443321,-10.381261,9.6372896e-05,-0.00010205216,4.1806126e-07,-0.00014590184,0.00019332126,-4.675269e-05,0.2392643,0.052960288,0.39006686,-0.0023671773,-4.7829024e-05,0.0059983563,0.0,0.0,0.0,6.5411007e-07,0.0018630112,0.041561358,3.0016153e-07,3.7744474e-06,3.823879e-06,3.5543155e-05,0.012043262,0.012048595,0.005948126,0.05090822,0.05091258,0.04617827,1.0341741e-11,1.0348027e-11,1.8104523e-11,1.3031472e-08,1.3029947e-08,1e-08,0.0,0.0,0.0,0.0,0.0,0.0,0.0,0.0,663,0.3190937,0.2148913,0.0010280291,0.049923774,0.0072073108,0.054210756,0.0,0.0,0.0,-1.3e-05,0,0,0,831,0,0,0,0
1066463333,0.9943665,-0.05652097,-0.0041708183,-0.08957347,-0.07911799,-0.10748259,-3.0859394,4.0218754,-2.9555748,-10.999547,9.6320015e-05,-0.000102075144,4.323995e-07,-0.00014605057,0.00019368312,-5.1398452e-05,0.2392643,0.052960288,0.39006686,-0.0023671773,-4.7829024e-05,0.0059983563,0.0,0.0,0.0,7.17781e-07,0.0019010445,0.042972617,3.1227222e-07,3.776956e-06,3.8421153e-06,3.5521414e-05,0.012054498,0.0120619675,0.0059536374,0.05124151,0.051246203,0.04620102,1.0346131e-11,1.0352768e-11,1.810509e-11,1.3032298e-08,1.3030012e-08,1e-08,0.0,0.0,0.0,0.0,0.0,0.0,0.0,0.0,663,0.32013702,0.21494423,0.008924774,0.04228158,0.0036464368,0.09573126,0.0,0.0,0.0,-2.9e-05,0,0,0,831,0,0,0,0
1066667357,0.9945879,-0.050382126,-0.010383393,-0.090270765,-0.14650181,-0.14366369,-3.1077244,4.0034957,-2.9748647,-11.604685,9.6285985e-05,-0.00010204542,4.191105e-07,-0.00014609369,0.00019380238,-5.3151318e-05,0.2392643,0.052960288,0.39006686,-0.0023671773,-4.7829024e-05,0.0059983563,0.0,0.0,0.0,7.299479e-07,0.0019491997,0.04215157,3.1622935e-07,3.779174e-06,3.821645e-06,3.5513454e-05,0.012011699,0.012022598,0.005942996,0.051221967,0.05122684,0.046020713,1.03450954e-11,1.0352016e-11,1.8099645e-11,1.3033071e-08,1.302999e-08,1e-08,0.0,0.0,0.0,0.0,0.0,0.0,0.0,0.0,663,0.32007626,0.21452439,0.00036484495,0.034500316,0.004770976,0.019744074,0.0,0.0,0.0,-5e-06,0,0,0,831,0,0,0,0
1066868206,0.9946309,-0.04937014,-0.016307205,-0.08947712,-0.16355085,-0.13975395,-3.0965726,3.974674,-3.0070078,-12.20712,9.630745e-05,-0.00010202776,4.120153e-07,-0.00014615165,0.0001939437,-5.5072036e-05,0.2392643,0.052960288,0.39006686,-0.0023671773,-4.7829024e-05,0.0059983563,0.0,0.0,0.0,6.233247e-07,0.0018766985,0.04019503,3.1268124e-07,3.7827754e-06,3.815749e-06,3.5498073e-05,0.011948498,0.011958811,0.005932334,0.05112931,0.051134363,0.045846608,1.0344479e-11,1.0351703e-11,1.8094e-11,1.3033847e-08,1.302994e-08,1e-08,0.0,0.0,0.0,0.0,0.0,0.0,0.0,0.0,663,0.3197869,0.21411821,0.010337768,0.023829408,0.0024246008,0.050789975,0.0,0.0,0.0,4.3e-05,0,0,0,831,0,0,0,0
1067072163,0.9946644,-0.049008135,-0.019691642,-0.08861855,-0.12169594,-0.12836118,-3.0563436,3.9479237,-3.0391147,-12.849536,9.63212e-05,-0.00010199425,4.0175965e-07,-0.00014616209,0.00019396543,-5.540971e-05,0.2392643,0.052960288,0.39006686,-0.0023671773,-4.7829024e-05,0.0059983563,0.0,0.0,0.0,5.368403e-07,0.0018178154,0.041267928,3.0863438e-07,3.7936825e-06,3.8204303e-06,3.5503166e-05,0.011930659,0.011936641,0.0059393686,0.05132538,0.051330745,0.04589607,1.03505034e-11,1.0358112e-11,1.809438e-11,1.30346764e-08,1.3029909e-08,1e-08,0.0,0.0,0.0,0.0,0.0,0.0,0.0,0.0,663,0.32039994,0.21423368,0.005853593,0.02006928,0.0043029,0.018600779,0.0,0.0,0.0,-2e-06,0,0,0,831,0,0,0,0
1067276186,0.99470764,-0.049242307,-0.016650224,-0.08862728,-0.0967164,-0.096373096,-3.1181002,3.9343755,-3.0633514,-13.450772,9.631679e-05,-0.00010196852,4.0323377e-07,-0.00014620004,0.00019404166,-5.652115e-05,0.2392643,0.052960288,0.39006686,-0.0023671773,-4.7829024e-05,0.0059983563,0.0,0.0,0.0,5.530819e-07,0.0018908387,0.04276405,3.078878e-07,3.7904465e-06,3.8211933e-06,3.5488534e-05,0.011911976,0.011914201,0.005929533,0.051122222,0.05112762,0.045737475,1.03505945e-11,1.03586835e-11,1.8088775e-11,1.3035456e-08,1.3029794e-08,1e-08,0.0,0.0,0.0,0.0,0.0,0.0,0.0,0.0,663,0.3197653,0.21386321,0.004840396,0.032036413,0.0049717827,0.015821012,0.0,0.0,0.0,2.4e-05,0,0,0,831,0,0,0,0
1067476973,0.9945385,-0.05279716,-0.009535648,-0.08952569,-0.036067564,-0.07788328,-3.054593,3.9256387,-3.08464,-14.078849,9.6310214e-05,-0.000101964586,4.17318e-07,-0.00014622184,0.00019408792,-5.717439e-05,0.2392643,0.052960288,0.39006686,-0.0023671773,-4.7829024e-05,0.0059983563,0.0,0.0,0.0,5.7169495e-07,0.0018582046,0.040734667,3.127806e-07,3.7904176e-06,3.8374824e-06,3.548039e-05,0.011861895,0.011860051,0.0059320116,0.051088884,0.05109414,0.045712456,1.0352608e-11,1.0361254e-11,1.8083696e-11,1.3036239e-08,1.3029653e-08,1.0000004e-08,0.0,0.0,0.0,0.0,0.0,0.0,0.0,0.0,663,0.3196608,0.21380472,0.007077784,0.010893637,0.0059877937,0.010138404,0.0,0.0,0.0,-1e-05,0,0,0,831,0,0,0,0
1067680952,0.9947434,-0.04669803,-0.011600637,-0.09039041,-0.07330397,-0.06467444,-3.0528677,3.9168534,-3.098181,-14.660022,9.629072e-05,-0.00010196799,4.1317054e-07,-0.00014631831,0.00019431826,-6.015369e-05,0.2392643,0.052960288,0.39006686,-0.0023671773,-4.7829024e-05,0.0059983563,0.0,0.0,0.0,6.1835505e-07,0.001853232,0.040683,3.168835e-07,3.7959255e-06,3.824525e-06,3.5470388e-05,0.011819652,0.01181716,0.0059604216,0.050843623,0.050848503,0.046096943,1.035386e-11,1.0363109e-11,1.8077866e-11,1.3037024e-08,1.302956e-08,1.0000036e-08,0.0,0.0,0.0,0.0,0.0,0.0,0.0,0.0,663,0.31889203,0.21470198,0.0012099087,0.037738334,0.0065933433,0.016985817,0.0,0.0,0.0,-1.2e-05,0,0,0,831,0,0,0,0
1067882533,0.9946797,-0.047371726,-0.013573041,-0.09046642,-0.08950275,-0.039887004,-3.0938838,3.9037557,-3.10595,-15.272959,9.625725e-05,-0.000101958,4.3379185e-07,-0.00014633613,0.0001943115,-6.0444512e-05,0.2392643,0.052960288,0.39006686,-0.0023671773,-4.7829024e-05,0.0059983563,0.0,0.0,0.0,5.6056786e-07,0.0018005975,0.040158186,3.1830433e-07,3.7994926e-06,3.8279686e-06,3.550464e-05,0.0117995925,0.011795214,0.005982483,0.050568137,0.050572563,0.04643605,1.0354973e-11,1.0364877e-11,1.8083438e-11,1.3037804e-08,1.3029422e-08,1.0000036e-08,0.0,0.0,0.0,0.0,0.0,0.0,0.0,0.0,663,0.31802624,0.21549025,0.012232556,0.03410556,0.0036576658,0.005638056,0.0,0.0,0.0,-2.9e-05,0,0,0,831,0,0,0,0
1068086614,0.9946472,-0.048817378,-0.014272627,-0.08994563,-0.06883079,-0.008279126,-3.0438623,3.8848116,-3.1007693,-15.902138,9.61997e-05,-0.00010199241,4.4309218e-07,-0.00014634838,0.0001943211,-6.122339e-05,0.2392643,0.052960288,0.39006686,-0.0023671773,-4.7829024e-05,0.0059983563,0.0,0.0,0.0,5.490065e-07,0.0018093245,0.04148371,3.1619703e-07,3.8109345e-06,3.8426174e-06,3.5562723e-05,0.011799535,0.011791827,0.006022567,0.050629426,0.05063324,0.04700875,1.0364439e-11,1.0375064e-11,1.8096805e-11,1.3038649e-08,1.3029333e-08,1.0000111e-08,0.0,0.0,0.0,0.0,0.0,0.0,0.0,0.0,663,0.31821796,0.21681501,0.007918369,0.050380476,0.00075096986,0.0010641391,0.0,0.0,0.0,7e-06,0,0,0,831,0,0,0,0
1068291316,0.9946852,-0.049273282,-0.017566143,-0.0886851,-0.0843571,-0.011449878,-3.0492847,3.8697488,-3.094588,-16.514765,9.615294e-05,-0.000101993566,4.5890675e-07,-0.00014633594,0.0001942166,-6.0612183e-05,0.2392643,0.052960288,0.39006686,-0.0023671773,-4.7829024e-05,0.0059983563,0.0,0.0,0.0,5.3800835e-07,0.0018174942,0.04036171,3.0921464e-07,3.8173675e-06,3.8464086e-06,3.5546127e-05,0.011762084,0.011754711,0.006001315,0.050319787,0.05032281,0.046763793,1.0365896e-11,1.0377242e-11,1.8090154e-11,1.3039405e-08,1.3029044e-08,1.0000036e-08,0.0,0.0,0.0,0.0,0.0,0.0,0.0,0.0,663,0.31724218,0.21624938,0.0038668425,0.05660351,0.0023482111,0.057963092,0.0,0.0,0.0,-4.6e-05,0,0,0,831,0,0,0,0
1068492199,0.99453115,-0.05076842,-0.017894305,-0.089499325,-0.060156114,0.0097240675,-3.0623512,3.864352,-3.0856867,-17.152454,9.6093136e-05,-0.00010195379,4.7439306e-07,-0.00014624873,0.00019381451,-5.6743833e-05,0.2392643,0.052960288,0.39006686,-0.0023671773,-4.7829024e-05,0.0059983563,0.0,0.0,0.0,5.185345e-07,0.0018250005,0.040854942,3.1474104e-07,3.821851e-06,3.8549565e-06,3.551838e-05,0.011741175,0.01173167,0.006018153,0.050050326,0.050052427,0.04707419,1.0370963e-11,1.0383065e-11,1.8087276e-11,1.3040205e-08,1.3028868e-08,1.0000037e-08,0.0,0.0,0.0,0.0,0.0,0.0,0.0,0.0,663,0.3163902,0.21696587,7.211761e-05,0.040680718,0.0035946525,0.03185249,0.0,0.0,0.0,3.4e-05,0,0,0,831,0,0,0,0
1068696988,0.9943147,-0.05268712,-0.017129453,-0.09093501,-0.060974196,0.008460886,-3.0859601,3.8572247,-3.0817125,-17.82217,9.60719e-05,-0.00010192953,4.8897897e-07,-0.000146112,0.00019333795,-5.176353e-05,0.2392643,0.052960288,0.39006686,-0.0023671773,-4.7829024e-05,0.0059983563,0.0,0.0,0.0,5.3452663e-07,0.0018143918,0.03995746,3.2424146e-07,3.831751e-06,3.8716853e-06,3.550579e-05,0.011779561,0.011769904,0.006011166,0.05004218,0.050043263,0.047005124,1.0377377e-11,1.0390258e-11,1.8085007e-11,1.304099e-08,1.3028591e-08,1.0000074e-08,0.0,0.0,0.0,0.0,0.0,0.0,0.0,0.0,663,0.31636283,0.21680665,0.006166421,0.04299319,0.0045016273,0.030228902,0.0,0.0,0.0,2.4e-05,0,0,0,831,0,0,0,0
1068900967,0.9941265,-0.054472957,-0.022280876,-0.090823315,-0.06356859,-0.005451938,-3.1098676,3.8508556,-3.0742455,-18.465965,9.60214e-05,-0.000101891535,5.125389e-07,-0.00014608912,0.000193129,-4.9910475e-05,0.2392643,0.052960288,0.39006686,-0.0023671773,-4.7829024e-05,0.0059983563,0.0,0.0,0.0,5.162625e-07,0.0017729657,0.04030257,3.2565364e-07,3.847794e-06,3.8855896e-06,3.5492918e-05,0.011807538,0.01179901,0.006002223,0.049950678,0.049950767,0.04687662,1.0380747e-11,1.0394378e-11,1.8079227e-11,1.3041739e-08,1.3028288e-08,1.0000074e-08,0.0,0.0,0.0,0.0,0.0,0.0,0.0,0.0,663,0.3160719,0.21651009,0.0059477766,0.04898312,0.0044853664,0.016141884,0.0,0.0,0.0,3e-06,0,0,0,831,0,0,0,0
1069100968,0.99437696,-0.053758133,-0.01999962,-0.0890201,-0.022923276,-0.035216033,-3.0961087,3.8469846,-3.067027,-19.106394,9.595471e-05,-0.00010188349,5.202849e-07,-0.00014601457,0.00019279806,-4.6991685e-05,0.2392643,0.052960288,0.39006686,-0.0023671773,-4.7829024e-05,0.0059983563,0.0,0.0,0.0,5.4119363e-07,0.0017907401,0.042197656,3.1324433e-07,3.848386e-06,3.88807e-06,3.549062e-05,0.011766854,0.011760131,0.0059838453,0.049643427,0.04964268,0.046641786,1.0381895e-11,1.0396317e-11,1.8073145e-11,1.304247e-08,1.3027973e-08,1.0000037e-08,0.0,0.0,0.0,0.0,0.0,0.0,0.0,0.0,663,0.31509697,0.21596709,0.008093496,0.042862166,0.008851831,0.00864649,0.0,0.0,0.0,-1.3e-05,0,0,0,831,0,0,0,0
1069306533,0.9943329,-0.056189768,-0.018689422,-0.08829254,-0.006460625,-0.004216614,-3.1089566,3.8511267,-3.0567255,-19.752512,9.587846e-05,-0.00010185845,5.359043e-07,-0.00014592566,0.00019236434,-4.3028744e-05,0.2392643,0.052960288,0.39006686,-0.0023671773,-4.7829024e-05,0.0059983563,0.0,0.0,0.0,5.301274e-07,0.0017642197,0.040838785,3.0908518e-07,3.850834e-06,3.9007555e-06,3.5470977e-05,0.011758287,0.01175003,0.005966704,0.049383182,0.04938161,0.046413973,1.0383857e-11,1.0399105e-11,1.8066944e-11,1.3043195e-08,1.3027654e-08,1e-08,0.0,0.0,0.0,0.0,0.0,0.0,0.0,0.0,663,0.31426865,0.21543902,0.010248841,0.0454121,0.011980888,0.0002544768,0.0,0.0,0.0,-2.9e-05,0,0,0,831,0,0,0,0
1069506548,0.9942194,-0.058961093,-0.01815032,-0.08787463,0.010946125,-0.019154193,-3.0716193,3.8566842,-3.0432565,-20.409832,9.578214e-05,-0.00010184724,5.4225353e-07,-0.0001458248,0.00019189212,-3.8907983e-05,0.2392643,0.052960288,0.39006686,-0.0023671773,-4.7829024e-05,0.0059983563,0.0,0.0,0.0,5.2834025e-07,0.0015782891,0.03937199,3.0784994e-07,3.8551043e-06,3.915886e-06,3.550486e-05,0.011727247,0.011720562,0.0059907995,0.04916746,0.04916519,0.046766784,1.03892025e-11,1.0405307e-11,1.8076492e-11,1.3043963e-08,1.3027476e-08,1.0000074e-08,0.0,0.0,0.0,0.0,0.0,0.0,0.0,0.0,663,0.31358036,0.21625629,0.0016244411,0.058507603,0.017603347,0.0062443856,0.0,0.0,0.0,-1.5e-05,0,0,0,831,0,0,0,0
1069707372,0.99351317,-0.07084543,-0.021941328,-0.086204045,0.019294972,-0.029350035,-2.6684725,3.8700352,-3.0312467,-20.98699,9.5696654e-05,-0.00010180137,5.528804e-07,-0.00014589928,0.00019178742,-3.8814724e-05,0.2392643,0.052960288,0.39006686,-0.0023671773,-4.7829024e-05,0.0059983563,0.0,0.0,0.0,4.4370356e-07,0.0013790237,0.03475619,3.041208e-07,3.8622093e-06,3.964185e-06,3.544911e-05,0.011489059,0.011483756,0.005973947,0.048894975,0.048892144,0.046541896,1.0392425e-11,1.0409337e-11,1.8070571e-11,1.3044616e-08,1.3027099e-08,1.0000036e-08,0.0,0.0,0.0,0.0,0.0,0.0,0.0,0.0,663,0.31270933,0.2157357,0.0012415767,0.04584818,0.021808667,0.054628413,0.0,0.0,0.0,1e-05,0,0,0,831,0,0,0,0
1069911356,0.99361354,-0.074413575,-0.01703502,-0.08309411,0.042700786,-0.07447557,-2.147817,3.8823218,-3.0266173,-21.53332,9.561799e-05,-0.00010179185,5.559057e-07,-0.00014572444,0.00019106954,-3.2441967e-05,0.2392643,0.052960288,0.39006686,-0.0023671773,-4.7829024e-05,0.0059983563,0.0,0.0,0.0,3.8815153e-07,0.0012350309,0.03157798,2.8632402e-07,3.8727276e-06,3.997937e-06,3.5461464e-05,0.011257771,0.011255392,0.00597354,0.048902575,0.048899494,0.046528116,1.0403996e-11,1.0421658e-11,1.8070916e-11,1.3045173e-08,1.3026639e-08,1e-08,0.0,0.0,0.0,0.0,0.0,0.0,0.0,0.0,663,0.31273323,0.21570377,0.014069147,0.03970639,0.025302248,0.023279171,0.0,0.0,0.0,-7e-06,0,0,0,831,0,0,0,0
1070115360,0.9942575,-0.06799877,-0.013534753,-0.081517816,0.043620627,-0.11228812,-1.6988943,3.9047525,-3.0279148,-21.957802,9.552746e-05,-0.000101744874,5.606896e-07,-0.00014563707,0.0001902434,-2.5427356e-05,0.2392643,0.052960288,0.39006686,-0.0023671773,-4.7829024e-05,0.0059983563,0.0,0.0,0.0,3.3873684e-07,0.0011913631,0.030564072,2.7320502e-07,3.8865032e-06,3.987366e-06,3.5481524e-05,0.01102543,0.011024536,0.0059893103,0.04856491,0.048561953,0.046802502,1.0411046e-11,1.042937e-11,1.8065575e-11,1.304549e-08,1.3026034e-08,1e-08,0.0,0.0,0.0,0.0,0.0,0.0,0.0,0.0,663,0.31165183,0.21633886,0.0063211955,0.04139905,0.028604466,0.039586835,0.0,0.0,0.0,-4e-06,0,0,0,831,0,0,0,0
1070316162,0.994676,-0.06299957,-0.011458855,-0.080743454,0.02895786,-0.14626089,-1.3771182,3.9251118,-3.040291,-22.31666,9.546617e-05,-0.000101702564,5.6114015e-07,-0.00014550511,0.0001893834,-1.721875e-05,0.24206209,0.040297337,0.38027075,-0.0013424056,0.00041369267,0.0038553444,0.0,0.0,0.0,9.1881856e-07,0.0011956589,0.030985577,2.6718467e-07,3.904989e-06,3.988008e-06,3.5655983e-05,0.010890369,0.0108898925,0.0059701623,0.04825615,0.0482534,0.04655203,1.0420176e-11,1.0439173e-11,1.8095338e-11,1.3045657e-08,1.3025196e-08,1.0000036e-08,0.0014204191,0.0011208957,0.0014287054,0.0014108919,0.0012730154,0.0014258084,0.0,0.0,743,0.31065986,0.21575919,0.016830295,0.033579353,0.030312125,0.008846073,0.0,0.0,0.0,-2e-06,0,0,0,831,0,0,0,0
1070520154,0.99755347,-0.055788077,-0.011058817,-0.040652607,0.033619918,-0.1473505,-1.0476956,3.9448948,-3.055507,-22.648302,9.540597e-05,-0.00010165785,5.727819e-07,-0.00014527015,0.00018820862,-5.4598613e-06,0.2427681,0.04044157,0.38183984,-0.00073110237,0.00034033274,0.0054458478,0.0,0.0,0.0,1.8484553e-06,0.0013633056,0.0336207,9.605224e-08,3.9343336e-06,3.9935353e-06,3.636296e-05,0.010818157,0.010817495,0.0059722303,0.048242044,0.048239235,0.046550266,1.0435888e-11,1.0455774e-11,1.8200455e-11,1.3045732e-08,1.3024238e-08,1.00000745e-08,0.0012779379,0.0006564103,0.0012999502,0.0012463077,0.00079772057,0.0012913223,0.0,0.0,743,0.31061435,0.2157551,0.01476053,0.054516528,0.031843763,0.08163585,0.0,0.0,0.0,-1.1e-05,0,0,0,831,0,0,0,0
1070724147,0.99742484,-0.0577087,-0.04230983,0.004835763,0.0737937,-0.16087322,-0.7356344,3.961314,-3.0628083,-22.915949,9.5298994e-05,-0.00010164877,5.8220974e-07,-0.00014490153,0.00018668808,7.844018e-06,0.24268912,0.04047806,0.38232478,-0.0005165613,0.00030884883,0.0058451374,0.0,0.0,0.0,1.774442e-06,0.0011952608,0.030357433,5.3815093e-08,4.0115824e-06,4.0123086e-06,3.6857582e-05,0.010711753,0.010711584,0.0059584077,0.047946136,0.047943402,0.046343695,1.0446434e-11,1.0467159e-11,1.8300202e-11,1.3045586e-08,1.3023112e-08,1.0000036e-08,0.001212558,0.0004761665,0.0012760324,0.0011879221,0.0005897293,0.0012636264,0.0,0.0,743,0.30966035,0.21527585,0.008035749,0.05516674,0.033681843,0.09582607,0.0,0.0,0.0,-1.7e-05,0,0,0,831,0,0,0,0
1070924976,0.99478054,-0.04756351,-0.08196268,0.03783697,0.2497782,-0.13189389,-0.45579755,4.0038543,-3.0671985,-23.138823,9.517613e-05,-0.000101628626,5.913028e-07,-0.00014455568,0.00018490417,2.3381708e-05,0.24213377,0.04051556,0.38295692,0.00025264118,0.0002938001,0.005850483,0.0,0.0,0.0,1.5855571e-06,0.0011714358,0.030758552,1.2983242e-07,4.209086e-06,3.9899123e-06,3.719342e-05,0.010687895,0.01069403,0.0059604044,0.04793502,0.047932398,0.04634098,1.0461728e-11,1.048344e-11,1.8404316e-11,1.3045269e-08,1.3021846e-08,1.0000037e-08,0.001103493,0.00037206273,0.0012362399,0.001092196,0.0004619508,0.0012189513,0.0,0.0,743,0.30962464,0.21526955,0.03161718,0.06445527,0.035663735,0.098422155,0.0,0.0,0.0,1.2e-05,0,0,0,831,0,0,0,0
1071128967,0.9919445,-0.04097778,-0.10598005,0.05599382,0.5447998,-0.10180606,-0.29672658,4.0936475,-3.0622344,-23.330778,9.504302e-05,-0.00010160355,5.960238e-07,-0.00014421175,0.00018288115,4.1605403e-05,0.24032186,0.040332094,0.38378027,0.0021880132,0.0006466964,0.0058981124,0.0,0.0,0.0,1.3831955e-06,0.0013474278,0.030871015,2.1500578e-07,4.373662e-06,3.9703864e-06,3.7497568e-05,0.01063863,0.010672169,0.005942387,0.047466625,0.047464386,0.04606935,1.0466401e-11,1.0489475e-11,1.8500276e-11,1.3044691e-08,1.3020329e-08,1e-08,0.0009803815,0.00030422088,0.0011746353,0.0009799183,0.0003771802,0.0011534331,0.0,0.0,743,0.30810875,0.21463771,0.031929467,0.06436923,0.042002834,0.10413523,0.0,0.0,0.0,-1.1e-05,0,0,0,831,0,0,0,0
1071330574,0.98979133,-0.03943376,-0.12066545,0.06479266,0.9161804,-0.024011737,-0.03645946,4.2447596,-3.0509307,-23.454449,9.494633e-05,-0.00010161437,5.914955e-07,-0.00014381816,0.00018125912,5.594004e-05,0.23810509,0.04007198,0.38480705,0.0045756167,0.00097458804,0.0057593617,0.0,0.0,0.0,1.1110411e-06,0.0014303653,0.032062877,2.7273535e-07,4.4973226e-06,3.973655e-06,3.785519e-05,0.010596343,0.01069223,0.005969811,0.047223225,0.047222693,0.046413094,1.0476603e-11,1.0501455e-11,1.8598435e-11,1.3043982e-08,1.3018762e-08,1.0000074e-08,0.0008868286,0.00026175324,0.0011158062,0.00089270686,0.0003245087,0.0010922935,0.0,0.0,743,0.30732054,0.21543698,0.025279764,0.04276389,0.040944204,0.09179256,0.0,0.0,0.0,1.1e-05,0,0,0,831,0,0,0,0
1071534584,0.98800075,-0.037062827,-0.13405153,0.06716556,1.2732487,0.04529515,0.1246126,4.4877167,-3.026527,-23.555088,9.485046e-05,-0.00010157715,5.9280546e-07,-0.00014356275,0.00017958712,7.2668874e-05,0.23745938,0.040031657,0.3855621,0.005363342,0.0008297349,0.005426398,0.0,0.0,0.0,8.6772775e-07,0.001446705,0.03362804,3.0226377e-07,4.6277355e-06,3.985295e-06,3.8260387e-05,0.010697415,0.010874825,0.005979348,0.04740397,0.047409132,0.04645007,1.0495738e-11,1.0522785e-11,1.8702151e-11,1.3043162e-08,1.3016983e-08,1.0000037e-08,0.0008081058,0.00022692363,0.0010564103,0.00081847276,0.00028157607,0.0010315006,0.0,0.0,743,0.30791736,0.21552278,0.032466006,0.04289427,0.040424537,0.20811883,0.0,0.0,0.0,2.1e-05,0,0,0,831,0,0,0,0
1071738647,0.98628163,-0.03772025,-0.14531797,0.06861843,1.6825267,0.11980507,0.154763,4.791915,-2.9835932,-23.622845,9.473952e-05,-0.000101580146,5.74488e-07,-0.00014331214,0.00017787456,8.77828e-05,0.23619448,0.039842594,0.3859161,0.006653322,0.0009582045,0.005403378,0.0,0.0,0.0,7.5155407e-07,0.0014404565,0.032591566,3.2702312e-07,4.7299295e-06,3.9931274e-06,3.8640126e-05,0.010804226,0.01110204,0.0059727663,0.047277536,0.047293916,0.04624908,1.0504433e-11,1.0534164e-11,1.879423e-11,1.3042057e-08,1.3014889e-08,1e-08,0.00074442656,0.0002008494,0.0009954693,0.00075705675,0.0002498129,0.00097028766,0.0,0.0,743,0.3075247,0.21505599,0.013692219,0.05262447,0.041293237,0.13801388,0.0,0.0,0.0,8.3e-05,0,0,0,831,0,0,0,0
1071939366,0.9839046,-0.0356383,-0.16077612,0.069373935,2.120652,0.17022647,0.19139259,5.1828027,-2.9212484,-23.675428,9.4579525e-05,-0.00010157713,5.3102843e-07,-0.00014343146,0.00017629421,0.00010002987,0.23349789,0.039364822,0.38576874,0.009306303,0.0012322703,0.00608464,0.0,0.0,0.0,6.5538967e-07,0.0013453001,0.033674043,3.5396263e-07,4.8741176e-06,3.9868255e-06,3.896403e-05,0.010914088,0.011367346,0.006006724,0.04721679,0.047253195,0.046591505,1.0513033e-11,1.05457535e-11,1.8883646e-11,1.3040823e-08,1.3012714e-08,1.0000037e-08,0.00069621025,0.00018226448,0.0009419389,0.0007100329,0.00022722242,0.00091700547,0.0,0.0,743,0.3073597,0.21585065,0.02830075,0.08839086,0.046121377,0.12846787,0.0,0.0,0.0,2e-06,0,0,0,831,0,0,0,0
1072139363,0.98219824,-0.03313691,-0.17091419,0.0705487,2.571853,0.21423715,0.29270032,5.6505575,-2.8428142,-23.674965,9.4408686e-05,-0.00010162026,4.568756e-07,-0.00014373151,0.00017493166,0.000106775726,0.23237285,0.03918575,0.38587904,0.010451015,0.0013402377,0.0061104237,0.0,0.0,0.0,6.076235e-07,0.0013834466,0.035176903,3.7745912e-07,4.959691e-06,3.9831843e-06,3.9310828e-05,0.010983884,0.011620818,0.0060038255,0.04713824,0.047205787,0.046378087,1.05185e-11,1.0554392e-11,1.8965503e-11,1.3039304e-08,1.301014e-08,1.0000037e-08,0.00065049576,0.00016674655,0.000884305,0.00066484354,0.00020841036,0.00086005277,0.0,0.0,743,0.30715472,0.21535572,0.022237936,0.10113162,0.050525703,0.010163062,0.0,0.0,0.0,-2e-06,0,0,0,831,0,0,0,0
1072344121,0.981826,-0.030524824,-0.17301998,0.07176385,3.0747573,0.29113045,0.3265978,6.2546015,-2.7436936,-23.62213,9.419285e-05,-0.00010156486,3.720858e-07,-0.00014472687,0.00017436636,0.00010931157,0.2311409,0.03897611,0.38614967,0.0116384635,0.0014248597,0.0060380036,0.0,0.0,0.0,5.643187e-07,0.0013432604,0.034711152,3.9017914e-07,4.95215e-06,3.995858e-06,3.973904e-05,0.011154179,0.012009103,0.0060211504,0.04735799,0.047476236,0.046363708,1.0527104e-11,1.05661495e-11,1.9044334e-11,1.3037574e-08,1.3007306e-08,1e-08,0.00060886296,0.00015209311,0.0008303475,0.0006239233,0.00019052748,0.00080667663,0.0,0.0,743,0.30795166,0.21532233,0.011201276,0.12253119,0.05578644,0.013803653,0.0,0.0,0.0,-4.1e-05,0,0,0,831,0,0,0,0
1072548128,0.9804092,-0.032123182,-0.1815721,0.069264896,3.5544708,0.37992305,0.3693632,6.9326077,-2.6326575,-23.559502,9.4016534e-05,-0.000101620295,2.6527957e-07,-0.00014538161,0.00017344045,0.00011022887,0.22993557,0.038749512,0.38590503,0.012863055,0.0014863822,0.0064094146,0.0,0.0,0.0,5.804837e-07,0.0013233753,0.03369997,3.9219853e-07,5.005063e-06,4.0011955e-06,4.0072802e-05,0.011295148,0.0123611055,0.0060347444,0.04750195,0.047687784,0.046273228,1.0530957e-11,1.0572905e-11,1.9111995e-11,1.3035583e-08,1.3004172e-08,1e-08,0.0005755267,0.0001398305,0.00078514375,0.0005910963,0.00017553096,0.0007621045,0.0,0.0,743,0.30852833,0.21511213,0.03509268,0.09910739,0.061162267,0.037004467,0.0,0.0,0.0,-3.6e-05,0,0,0,831,0,0,0,0
1072748164,0.9844938,-0.035107065,-0.15876119,0.06583555,3.9827101,0.45930663,0.38355744,7.6880145,-2.5032732,-23.485998,9.383082e-05,-0.00010164531,1.5486523e-07,-0.00014621954,0.00017282713,0.000110357934,0.2297465,0.0387233,0.3859354,0.0130552985,0.0015025083,0.0063812435,0.0,0.0,0.0,7.26851e-07,0.0012564813,0.034684353,3.427153e-07,4.7146623e-06,4.0501873e-06,4.068814e-05,0.011407013,0.012632019,0.006074961,0.04746871,0.04773334,0.046614222,1.0532877e-11,1.0577192e-11,1.9172051e-11,1.3033344e-08,1.3000829e-08,1.0000074e-08,0.0005541805,0.00012966094,0.0007556285,0.0005700068,0.00016309862,0.0007332784,0.0,0.0,743,0.3085483,0.21590327,0.028410012,0.09603084,0.06991704,0.04580126,0.0,0.0,0.0,-1e-06,0,0,0,831,0,0,0,0
1072952967,0.9885476,-0.040632214,-0.13185446,0.061131496,4.2724113,0.5317321,0.3746619,8.525877,-2.3508077,-23.4209,9.359182e-05,-0.00010161968,1.884369e-08,-0.00014744521,0.00017236847,0.00011167872,0.22974937,0.03873651,0.3860659,0.013062554,0.0014979499,0.0062319525,0.0,0.0,0.0,7.6935356e-07,0.0012433381,0.033271067,2.8688066e-07,4.452596e-06,4.1072863e-06,4.1261363e-05,0.011528725,0.012766021,0.006068686,0.047478404,0.047831517,0.04642575,1.0535193e-11,1.05809155e-11,1.9229065e-11,1.30309035e-08,1.2997207e-08,1.0000037e-08,0.0005485078,0.00012213411,0.00074941275,0.00056467764,0.0001538615,0.0007274403,0.0,0.0,743,0.30872306,0.21546635,0.027266487,0.12722568,0.07776183,0.0023692308,0.0,0.0,0.0,5e-06,0,0,0,831,0,0,0,0
1073156949,0.99128526,-0.042952355,-0.110954635,0.05654844,4.5061464,0.50752544,0.3123128,9.446797,-2.1890647,-23.352108,9.338039e-05,-0.000101634876,-1.10825624e-07,-0.00014852843,0.0001718281,0.0001119923,0.22985654,0.03876494,0.38598934,0.013044076,0.0014318894,0.006144468,0.0,0.0,0.0,7.0590374e-07,0.0012317708,0.036074117,2.4351777e-07,4.3040354e-06,4.149659e-06,4.175674e-05,0.011712509,0.012903803,0.006073109,0.047746483,0.04819782,0.046443686,1.0542695e-11,1.0588733e-11,1.9292035e-11,1.3028303e-08,1.2993435e-08,1.0000037e-08,0.0005467329,0.00011484563,0.00074794644,0.00056309276,0.00014494413,0.0007264501,0.0,0.0,743,0.30974877,0.21550797,0.013315703,0.10619095,0.08133679,0.007892362,0.0,0.0,0.0,-1.4e-05,0,0,0,831,0,0,0,0
1073356965,0.9931521,-0.041761946,-0.09576412,0.05228902,4.65388,0.5163254,0.19487071,10.379753,-2.03636,-23.310896,9.318109e-05,-0.00010158435,-2.0992468e-07,-0.00014955466,0.00017166008,0.00011395897,0.22975577,0.038758043,0.3858186,0.013177677,0.0013775907,0.006207674,0.0,0.0,0.0,6.15255e-07,0.0012505159,0.038358353,2.0948275e-07,4.221181e-06,4.1655803e-06,4.218374e-05,0.011880574,0.01293183,0.00609167,0.04784348,0.048373397,0.046785768,1.0545448e-11,1.05905605e-11,1.9352284e-11,1.3025553e-08,1.2989634e-08,1.0000074e-08,0.0005449523,0.000109134635,0.0007450112,0.00056138734,0.00013787702,0.0007240452,0.0,0.0,743,0.31018844,0.21630017,0.012854334,0.08969576,0.08296418,0.003846746,0.0,0.0,0.0,-1.5e-05,0,0,0,831,0,0,0,0
1073561729,0.9937992,-0.044701315,-0.08939587,0.048718154,4.776322,0.492222,0.10503299,11.336891,-1.883243,-23.288397,9.296703e-05,-0.00010154656,-3.1898946e-07,-0.00015074757,0.00017152006,0.00011495392,0.22975133,0.038758636,0.38565335,0.013229822,0.0012511238,0.0063691908,0.0,0.0,0.0,5.525717e-07,0.0012644739,0.039656863,1.9056945e-07,4.187389e-06,4.184538e-06,4.25658e-05,0.012035601,0.012934603,0.006068482,0.0481211,0.048714623,0.046573713,1.054859e-11,1.0591466e-11,1.9417233e-11,1.3022655e-08,1.2985676e-08,1.0000037e-08,0.0005417339,0.00010340099,0.00073901785,0.0005580662,0.00013083211,0.0007187209,0.0,0.0,743,0.31118438,0.21580943,0.02395534,0.10273649,0.08404882,0.04081737,0.0,0.0,0.0,-3.4e-05,0,0,0,831,0,0,0,0
1073765765,0.99428195,-0.042722702,-0.0867872,0.045233954,4.8246665,0.48513544,0.090273544,12.345153,-1.7235775,-23.303535,9.271798e-05,-0.00010153991,-4.4558126e-07,-0.00015198867,0.00017098572,0.000119349126,0.22959374,0.03873602,0.38547033,0.013417161,0.001182639,0.006420845,0.0,0.0,0.0,5.1147003e-07,0.0013277169,0.043218743,1.7345961e-07,4.1763224e-06,4.1877174e-06,4.3003856e-05,0.012193361,0.012895912,0.006057684,0.048807494,0.049453486,0.046583444,1.0556738e-11,1.0596112e-11,1.9494316e-11,1.3019685e-08,1.298174e-08,1.0000036e-08,0.0005383956,9.832024e-05,0.0007327193,0.00055456924,0.00012461616,0.00071306806,0.0,0.0,743,0.31346607,0.21583198,0.011327909,0.13204189,0.08413735,0.013935974,0.0,0.0,0.0,2e-06,0,0,0,831,0,0,0,0
1073965759,0.9942946,-0.042559892,-0.087235436,0.044239666,4.859927,0.50024974,0.090654604,13.325193,-1.5703399,-23.27087,9.249294e-05,-0.000101492806,-5.419065e-07,-0.00015345364,0.00017126702,0.000117028925,0.22921243,0.038679276,0.3851712,0.013825837,0.0011297808,0.006432444,0.0,0.0,0.0,5.829902e-07,0.0014248872,0.040218946,1.7055194e-07,4.165469e-06,4.1859053e-06,4.3427546e-05,0.0122820325,0.012805462,0.0060688886,0.049238574,0.049900346,0.04692214,1.0559391e-11,1.0594594e-11,1.9571338e-11,1.3016621e-08,1.2977882e-08,1.0000074e-08,0.00053539354,9.378666e-05,0.00072707585,0.00055139937,0.000119084485,0.00070802245,0.0,0.0,743,0.31486332,0.21661519,0.052395534,0.11187205,0.08452024,0.008606202,0.0,0.0,0.0,-4e-06,0,0,0,831,0,0,0,0
1074166570,0.99440974,-0.04041012,-0.086013414,0.046023276,4.890893,0.49935308,0.12122252,14.319182,-1.4132379,-23.248924,9.225739e-05,-0.00010144182,-6.289512e-07,-0.00015479661,0.00017137766,0.00011795027,0.22888054,0.03863045,0.38482177,0.014215177,0.0009995538,0.006532099,0.0,0.0,0.0,5.4330206e-07,0.0013927046,0.040648084,1.7664561e-07,4.155324e-06,4.177596e-06,4.3881875e-05,0.012346481,0.012717585,0.0060776453,0.049726915,0.050382517,0.0472408,1.0564167e-11,1.0594617e-11,1.96555e-11,1.3013507e-08,1.2974096e-08,1.0000074e-08,0.00053253194,8.970051e-05,0.00072167016,0.00054839294,0.000114083356,0.0007031683,0.0,0.0,743,0.31640074,0.21734948,0.016011558,0.119089715,0.08533751,0.005261811,0.0,0.0,0.0,5e-06,0,0,0,831,0,0,0,0
1074370549,0.99423206,-0.045162525,-0.084845066,0.04758479,4.92079,0.49798334,0.11549054,15.309868,-1.2519361,-23.171135,9.201381e-05,-0.00010140267,-7.088239e-07,-0.00015678439,0.00017201649,0.000110006105,0.22870867,0.038603097,0.38467544,0.014378788,0.0009082817,0.0065811183,0.0,0.0,0.0,4.9808096e-07,0.0013258206,0.04112007,1.8639383e-07,4.1443277e-06,4.1925227e-06,4.433747e-05,0.012428367,0.012674288,0.006081059,0.05021023,0.050837547,0.047494814,1.0567021e-11,1.0592375e-11,1.9742308e-11,1.3010312e-08,1.2970378e-08,1.0000074e-08,0.00052976236,8.63755e-05,0.0007165402,0.00054551655,0.00011001787,0.0006984748,0.0,0.0,743,0.31788012,0.21793304,0.026479699,0.12407143,0.09074971,0.06565772,0.0,0.0,0.0,-1.6e-05,0,0,0,831,0,0,0,0
1074571348,0.99408275,-0.045051143,-0.08516427,0.05017028,4.9360332,0.49955657,0.14077169,16.30841,-1.0912548,-23.12944,9.177107e-05,-0.00010136457,-7.736907e-07,-0.00015842551,0.00017230948,0.000107463995,0.22848392,0.038560376,0.38453212,0.014587107,0.0008099511,0.006571845,0.0,0.0,0.0,4.3578663e-07,0.001223661,0.039373018,1.9972323e-07,4.1378053e-06,4.1879616e-06,4.4833865e-05,0.012485943,0.0126296105,0.0060458295,0.05074859,0.051332004,0.04718338,1.0570454e-11,1.0590382e-11,1.9833234e-11,1.3007045e-08,1.2966731e-08,1e-08,0.0005271751,8.295325e-05,0.00071190053,0.0005428544,0.00010588618,0.00069419853,0.0,0.0,743,0.31950054,0.21721736,0.03894543,0.11893665,0.09605386,0.019174915,0.0,0.0,0.0,-1.5e-05,0,0,0,831,0,0,0,0
1074771339,0.99462026,-0.041929428,-0.07806046,0.053655755,4.9842944,0.48979518,0.13857417,17.31759,-0.9327519,-23.08923,9.153163e-05,-0.0001013057,-8.228641e-07,-0.00015995625,0.00017271828,0.00010578379,0.22857472,0.038566243,0.38458833,0.01442868,0.00070037704,0.0066245417,0.0,0.0,0.0,3.9338215e-07,0.0012187713,0.03831469,2.1051623e-07,4.1341523e-06,4.17544e-06,4.5361012e-05,0.012546702,0.012622735,0.006051378,0.051275678,0.05180322,0.04741953,1.0574462e-11,1.0589083e-11,1.9928902e-11,1.30037625e-08,1.2963289e-08,1e-08,0.0005240681,7.9814614e-05,0.000706431,0.00053969317,0.00010202146,0.0006891196,0.0,0.0,743,0.32105902,0.21776025,0.036524072,0.114817075,0.09679441,0.0017921079,0.0,0.0,0.0,-2.5e-05,0,0,0,831,0,0,0,0
1074975351,0.9945857,-0.04392955,-0.076444566,0.055007756,4.9835415,0.5006159,0.09501317,18.359438,-0.7722921,-23.04693,9.1307935e-05,-0.00010128533,-8.6094224e-07,-0.00016162204,0.00017303014,0.00010168769,0.22881937,0.03859084,0.38471386,0.014112521,0.0005113698,0.006639517,0.0,0.0,0.0,3.8378292e-07,0.0012214236,0.03978907,2.1954781e-07,4.134817e-06,4.1830617e-06,4.5918998e-05,0.012668074,0.0126882,0.0060309,0.05201816,0.05248122,0.04727208,1.0579737e-11,1.0589115e-11,2.0028857e-11,1.3000382e-08,1.2959942e-08,1e-08,0.0005198585,7.6905846e-05,0.0006991365,0.0005354019,9.840411e-05,0.0006822518,0.0,0.0,743,0.32326365,0.21742143,0.030014688,0.10155228,0.09980159,0.031962384,0.0,0.0,0.0,-1.3e-05,0,0,0,831,0,0,0,0
1075180165,0.99455184,-0.044525273,-0.07633383,0.05529323,4.993659,0.48051512,0.071025066,19.365126,-0.6215445,-22.991903,9.111217e-05,-0.000101243866,-8.835468e-07,-0.00016329688,0.00017363859,9.510855e-05,0.22883146,0.038584504,0.38472864,0.014049511,0.00037258462,0.006639725,0.0,0.0,0.0,3.1756045e-07,0.001164051,0.03774268,2.2325409e-07,4.1273934e-06,4.1766934e-06,4.648259e-05,0.012706339,0.012697542,0.0060381824,0.052378703,0.052767742,0.047495633,1.0580036e-11,1.0584704e-11,2.01259e-11,1.2996998e-08,1.2956789e-08,1.00000745e-08,0.0005165321,7.452566e-05,0.0006935074,0.0005320112,9.546898e-05,0.0006769463,0.0,0.0,743,0.32426292,0.21793494,0.031551443,0.08039997,0.098022364,0.0561602,0.0,0.0,0.0,1e-06,0,0,0,831,0,0,0,0
1075380202,0.9946761,-0.043288715,-0.07469036,0.056276005,5.0071745,0.47482297,0.048831865,20.374603,-0.4786181,-22.952967,9.096093e-05,-0.00010121444,-9.167488e-07,-0.00016467851,0.00017399486,8.992888e-05,0.22886477,0.038588088,0.3845922,0.014044317,0.00018846188,0.0067546493,0.0,0.0,0.0,3.0332419e-07,0.0011576127,0.039680656,2.2792545e-07,4.1181675e-06,4.1572043e-06,4.7017882e-05,0.01272601,0.012712339,0.006010732,0.0526951,0.053013217,0.04718759,1.0577998e-11,1.0576712e-11,2.0207747e-11,1.2993482e-08,1.2953718e-08,1e-08,0.00051305717,7.2048584e-05,0.0006876994,0.00052848516,9.240933e-05,0.00067146355,0.0,0.0,743,0.32512817,0.21722704,0.02312146,0.072352916,0.09551887,0.026752338,0.0,0.0,0.0,3.7e-05,0,0,0,831,0,0,0,0
1075584179,0.9944545,-0.04624852,-0.07546571,0.056801572,5.005853,0.48487005,0.055178184,21.423315,-0.33417055,-22.906105,9.082602e-05,-0.00010118499,-9.4663864e-07,-0.000166139,0.000174506,8.326775e-05,0.22910485,0.0386217,0.38462877,0.01378238,2.735896e-05,0.006845286,0.0,0.0,0.0,3.5825556e-07,0.0012375182,0.039347142,2.3521338e-07,4.10769e-06,4.156494e-06,4.7535315e-05,0.012772387,0.012774768,0.0060348203,0.05326551,0.053515833,0.047600005,1.0576067e-11,1.0568367e-11,2.0277205e-11,1.2990061e-08,1.2950905e-08,1.0000074e-08,0.0005093777,6.974433e-05,0.00068160676,0.00052473956,8.95767e-05,0.00066568,0.0,0.0,743,0.32677415,0.21817425,0.02561224,0.050280947,0.09084826,0.077001736,0.0,0.0,0.0,1.5e-05,0,0,0,831,0,0,0,0
1075788983,0.99422604,-0.04731568,-0.076763466,0.058166683,4.9992323,0.504462,0.038234785,22.435394,-0.19139634,-22.858862,9.068766e-05,-0.00010112463,-9.661255e-07,-0.00016743937,0.00017515857,7.765888e-05,0.22932146,0.03865465,0.38460654,0.013563581,-0.00014769418,0.0069830534,0.0,0.0,0.0,3.5254638e-07,0.0011925905,0.035738,2.462285e-07,4.090244e-06,4.140994e-06,4.803666e-05,0.012761786,0.012797847,0.006007713,0.053442325,0.053630423,0.047271013,1.05698506e-11,1.05565365e-11,2.0341187e-11,1.29865265e-08,1.294822e-08,1.0000037e-08,0.00050617935,6.761345e-05,0.000676464,0.0005214839,8.697899e-05,0.00066079805,0.0,0.0,743,0.32721972,0.21741898,0.015385945,0.053557042,0.0856116,0.016428126,0.0,0.0,0.0,5e-06,0,0,0,831,0,0,0,0
1075988967,0.9940286,-0.048342254,-0.077349834,0.05989234,4.978308,0.5073847,-0.08387792,23.446093,-0.048050717,-22.859257,9.055695e-05,-0.000101072495,-9.86493e-07,-0.0001682993,0.00017550579,7.666022e-05,0.2295984,0.038696323,0.38463238,0.013279054,-0.0003481899,0.007085759,0.0,0.0,0.0,3.7142775e-07,0.0012676811,0.036652837,2.5910975e-07,4.0721134e-06,4.1245135e-06,4.85334e-05,0.01279679,0.012883136,0.0059845457,0.05354176,0.053676233,0.046977337,1.0563789e-11,1.0545795e-11,2.040423e-11,1.2982943e-08,1.2945718e-08,1e-08,0.00050341553,6.564165e-05,0.0006722379,0.0005186808,8.4573454e-05,0.00065679685,0.0,0.0,743,0.3274416,0.21674256,0.021941097,0.05293675,0.08101764,0.038333762,0.0,0.0,0.0,-2.1e-05,0,0,0,831,0,0,0,0
1076192961,0.99377006,-0.051542852,-0.07791853,0.060772754,4.985472,0.5289725,-0.04084584,24.487122,0.09414609,-22.84515,9.046652e-05,-0.00010105603,-1.0103709e-06,-0.00016926997,0.0001759223,7.298783e-05,0.23019302,0.03879229,0.38496765,0.012593274,-0.0005252547,0.0070991847,0.0,0.0,0.0,3.1972175e-07,0.0011936789,0.03569078,2.6915987e-07,4.0596155e-06,4.1254666e-06,4.904482e-05,0.012770435,0.012909717,0.005978125,0.053854935,0.053944163,0.046875212,1.0560131e-11,1.0538192e-11,2.0466785e-11,1.2979395e-08,1.2943451e-08,1e-08,0.0005008308,6.3801934e-05,0.00066828536,0.0005160169,8.235256e-05,0.0006530699,0.0,0.0,743,0.32832772,0.21650684,0.03439493,0.026872398,0.07518164,0.02442266,0.0,0.0,0.0,-3e-06,0,0,0,831,0,0,0,0
1076394574,0.99372786,-0.050435673,-0.07825513,0.061947294,4.964986,0.52733415,-0.06549531,25.466759,0.23163357,-22.838575,9.036482e-05,-0.000101054866,-1.0085635e-06,-0.00017021575,0.00017614021,6.974798e-05,0.23031683,0.03880683,0.38505188,0.01243782,-0.00062858255,0.0070729977,0.0,0.0,0.0,3.412913e-07,0.0012662278,0.034511253,2.7736473e-07,4.0411805e-06,4.0987684e-06,4.95545e-05,0.012690533,0.012892706,0.005991836,0.05351809,0.05357403,0.047062263,1.0549702e-11,1.0524869e-11,2.05226e-11,1.2975943e-08,1.294136e-08,1.0000041e-08,0.0004988853,6.227919e-05,0.00066546584,0.0005140118,8.050625e-05,0.00065043295,0.0,0.0,743,0.32724932,0.21693839,0.024183283,0.031605467,0.07004558,0.05741567,0.0,0.0,0.0,1.2e-05,0,0,0,831,0,0,0,0
1076594566,0.9935555,-0.051814664,-0.07879095,0.06288795,4.967576,0.52285004,-0.040122047,26.475624,0.37272927,-22.836836,9.025878e-05,-0.00010100059,-1.0043956e-06,-0.0001708873,0.00017665976,6.857888e-05,0.23075461,0.038876273,0.3853607,0.011889215,-0.0007696758,0.007060079,0.0,0.0,0.0,3.952217e-07,0.0012978249,0.033344615,2.8639323e-07,4.0223067e-06,4.0846e-06,5.0035054e-05,0.012581659,0.012842486,0.0060100486,0.053119004,0.053154007,0.047330126,1.054299e-11,1.0515356e-11,2.0576214e-11,1.2972509e-08,1.2939485e-08,1.0000036e-08,0.0004967089,6.0667677e-05,0.0006623064,0.00051174726,7.85593e-05,0.00064748246,0.0,0.0,743,0.32599542,0.21755488,0.009292037,0.055056147,0.070776686,0.040292423,0.0,0.0,0.0,3e-06,0,0,0,831,0,0,0,0
1076799359,0.9933909,-0.049860872,-0.08084201,0.06444432,4.9657764,0.51210856,-0.048576724,27.513094,0.5064526,-22.831371,9.0210866e-05,-0.00010098301,-1.0327966e-06,-0.00017152133,0.00017694298,6.589262e-05,0.2310247,0.038919836,0.38554955,0.011558601,-0.00084604154,0.0070448485,0.0,0.0,0.0,3.9354725e-07,0.0012485012,0.033676133,2.9583447e-07,4.013349e-06,4.0630152e-06,5.0142567e-05,0.01254295,0.012865035,0.006000455,0.05286633,0.052891213,0.04719273,1.0541388e-11,1.05125925e-11,2.0556045e-11,1.2968978e-08,1.29378135e-08,1e-08,0.0,0.0,0.0,0.0,0.0,0.0,0.0,0.0,663,0.32520384,0.21723887,0.008019212,0.01583309,0.06894424,0.073539965,0.0,0.0,0.0,-6e-06,0,0,0,831,0,0,0,0
1077003377,0.99347055,-0.046163287,-0.0793223,0.06777432,4.9545784,0.48449072,-0.0652589,28.512636,0.6318196,-22.816126,9.015888e-05,-0.00010096479,-1.0760253e-06,-0.00017224542,0.00017720097,6.2113126e-05,0.2310247,0.038919836,0.38554955,0.011558601,-0.00084604154,0.0070448485,0.0,0.0,0.0,4.8876404e-07,0.001451109,0.037310265,3.11269e-07,4.008654e-06,4.0374066e-06,4.9819264e-05,0.012479069,0.01285741,0.0060164896,0.05233687,0.052362386,0.047434874,1.0541751e-11,1.051363e-11,2.0464547e-11,1.29656765e-08,1.2936391e-08,1.0000074e-08,0.0,0.0,0.0,0.0,0.0,0.0,0.0,0.0,663,0.32357264,0.21779549,0.026605261,0.011027403,0.07013639,0.0040830644,0.0,0.0,0.0,1.3e-05,0,0,0,831,0,0,0,0
