timestamp,baro_alt_meter,baro_temp_celcius,baro_pressure_pa,rho
367898545,30.767168,24.75,100956.0,1.1995243
367921176,30.849081,24.76,100955.0,1.1995124
367932699,30.682615,24.76,100957.0,1.1995362
367943175,30.349682,24.76,100961.0,1.1995836
367965179,30.600702,24.76,100957.99,1.199548
367975183,30.682615,24.76,100957.0,1.1995362
367986257,31.266567,24.76,100950.0,1.199453
368008980,30.849081,24.76,100955.0,1.1995124
368018256,31.102743,24.76,100951.99,1.1994767
368029172,30.767168,24.76,100956.0,1.1995243
368051172,30.849081,24.76,100955.0,1.1995124
368062258,30.600702,24.76,100957.99,1.199548
368073175,30.849081,24.76,100955.0,1.1995124
368095179,31.266567,24.769999,100950.0,1.199453
368105671,30.349682,24.769999,100961.0,1.1995836
368116172,30.849081,24.769999,100955.0,1.1995124
368136172,30.767168,24.769999,100956.0,1.1995243
368147227,30.431595,24.769999,100960.0,1.1995718
368158259,30.516148,24.769999,100959.0,1.1995599
368180173,30.600702,24.779999,100957.99,1.199548
368191172,30.767168,24.779999,100956.0,1.1995243
368202258,30.682615,24.779999,100957.0,1.1995362
368224173,30.933636,24.779999,100954.0,1.1995006
368235173,30.933636,24.779999,100954.0,1.1995006
368245173,30.849081,24.779999,100955.0,1.1995124
368266364,30.849081,24.779999,100955.0,1.1995124
368278293,31.266567,24.779999,100950.0,1.199453
368290544,30.849081,24.779999,100955.0,1.1995124
368311538,30.600702,24.789999,100957.99,1.199548
368323207,31.018188,24.789999,100953.0,1.1994886
368334570,30.516148,24.789999,100959.0,1.1995599
368358091,30.682615,24.789999,100957.0,1.1995362
368369140,30.600702,24.789999,100957.99,1.199548
368379332,30.849081,24.789999,100955.0,1.1995124
368401479,31.018188,24.789999,100953.0,1.1994886
368413078,30.516148,24.789999,100959.0,1.1995599
368422817,30.767168,24.789999,100956.0,1.1995243
368443287,30.431595,24.8,100960.0,1.1995718
368454088,30.849081,24.8,100955.0,1.1995124
368463961,30.516148,24.8,100959.0,1.1995599
368486559,30.767168,24.8,100956.0,1.1995243
368498275,30.933636,24.8,100954.0,1.1995006
368508551,30.600702,24.8,100957.99,1.199548
368532357,30.349682,24.8,100961.0,1.1995836
368544481,30.767168,24.8,100956.0,1.1995243
368556485,30.767168,24.8,100956.0,1.1995243
368580679,30.600702,24.81,100957.99,1.199548
368591721,30.265127,24.81,100962.0,1.1995956
368602541,30.933636,24.81,100954.0,1.1995006
368623875,30.349682,24.81,100961.0,1.1995836
368634094,30.516148,24.81,100959.0,1.1995599
368644554,30.682615,24.81,100957.0,1.1995362
368666566,30.767168,24.81,100956.0,1.1995243
368677575,30.349682,24.81,100961.0,1.1995836
368687518,30.682615,24.81,100957.0,1.1995362
368709103,30.265127,24.81,100962.0,1.1995956
368720384,30.933636,24.81,100954.0,1.1995006
368730559,30.682615,24.81,100957.0,1.1995362
368751487,30.183216,24.82,100963.0,1.1996075
368762153,31.102743,24.82,100951.99,1.1994767
368773071,30.767168,24.82,100956.0,1.1995243
368795479,31.018188,24.83,100953.0,1.1994886
368807129,30.431595,24.83,100960.0,1.1995718
368817554,30.431595,24.83,100960.0,1.1995718
368840480,30.600702,24.82,100957.99,1.199548
368851194,30.600702,24.82,100957.99,1.199548
368862565,30.767168,24.82,100956.0,1.1995243
368885981,30.767168,24.83,100956.0,1.1995243
368896043,30.767168,24.83,100956.0,1.1995243
368906571,30.767168,24.83,100956.0,1.1995243
368929850,30.431595,24.83,100960.0,1.1995718
368941619,30.516148,24.83,100959.0,1.1995599
368952544,31.018188,24.83,100953.0,1.1994886
368974459,30.682615,24.84,100957.0,1.1995362
368986092,30.767168,24.84,100956.0,1.1995243
368996485,30.516148,24.84,100959.0,1.1995599
369019480,31.102743,24.84,100951.99,1.1994767
369031218,31.184654,24.84,100950.99,1.1994648
369042652,30.767168,24.84,100956.0,1.1995243
369064480,30.431595,24.84,100960.0,1.1995718
369075132,30.600702,24.84,100957.99,1.199548
369086515,30.933636,24.84,100954.0,1.1995006
369110545,31.018188,24.84,100953.0,1.1994886
369122094,30.767168,24.84,100956.0,1.1995243
369132553,31.266567,24.84,100950.0,1.199453
369153629,30.516148,24.84,100959.0,1.1995599
369164136,30.849081,24.84,100955.0,1.1995124
369174883,31.351122,24.84,100949.0,1.1994411
369196542,30.767168,24.85,100956.0,1.1995243
369208175,30.933636,24.85,100954.0,1.1995006
369218541,30.682615,24.85,100957.0,1.1995362
369238538,31.018188,24.85,100953.0,1.1994886
369249078,30.849081,24.85,100955.0,1.1995124
369258537,31.102743,24.85,100951.99,1.1994767
369280163,30.767168,24.859999,100956.0,1.1995243
369292517,31.102743,24.859999,100951.99,1.1994767
369302545,30.682615,24.859999,100957.0,1.1995362
369324655,30.849081,24.859999,100955.0,1.1995124
369337553,31.018188,24.859999,100953.0,1.1994886
369348676,30.600702,24.859999,100957.99,1.199548
369372493,30.849081,24.859999,100955.0,1.1995124
369383605,30.600702,24.859999,100957.99,1.199548
369394558,30.516148,24.859999,100959.0,1.1995599
369416560,30.849081,24.859999,100955.0,1.1995124
369427185,31.018188,24.859999,100953.0,1.1994886
369438272,30.516148,24.859999,100959.0,1.1995599
369460830,30.682615,24.859999,100957.0,1.1995362
369471186,30.600702,24.859999,100957.99,1.199548
369482267,30.600702,24.859999,100957.99,1.199548
369504380,30.933636,24.859999,100954.0,1.1995006
369515248,31.018188,24.859999,100953.0,1.1994886
369526266,31.266567,24.859999,100950.0,1.199453
369546253,31.184654,24.869999,100950.99,1.1994648
369556845,31.184654,24.869999,100950.99,1.1994648
369567519,30.933636,24.869999,100954.0,1.1995006
369589499,31.102743,24.869999,100951.99,1.1994767
369600050,31.018188,24.869999,100953.0,1.1994886
369610568,31.018188,24.869999,100953.0,1.1994886
369632555,30.767168,24.88,100956.0,1.1995243
369644047,31.435675,24.88,100948.0,1.1994293
369653480,31.266567,24.88,100950.0,1.199453
369674568,30.849081,24.88,100955.0,1.1995124
369686286,30.933636,24.88,100954.0,1.1995006
369698083,30.600702,24.88,100957.99,1.199548
369719480,30.682615,24.89,100957.0,1.1995362
369731325,30.933636,24.89,100954.0,1.1995006
369742255,30.682615,24.89,100957.0,1.1995362
369762684,31.018188,24.89,100953.0,1.1994886
369773170,30.431595,24.89,100960.0,1.1995718
369783865,31.102743,24.89,100951.99,1.1994767
369806341,30.767168,24.89,100956.0,1.1995243
369818443,30.767168,24.89,100956.0,1.1995243
369829971,31.102743,24.89,100951.99,1.1994767
369851492,30.933636,24.89,100954.0,1.1995006
369862096,31.184654,24.89,100950.99,1.1994648
369872553,30.516148,24.89,100959.0,1.1995599
369893483,30.849081,24.89,100955.0,1.1995124
369904337,31.435675,24.89,100948.0,1.1994293
369915568,30.600702,24.89,100957.99,1.199548
369940295,30.849081,24.9,100955.0,1.1995124
369951669,30.849081,24.9,100955.0,1.1995124
369962558,30.265127,24.9,100962.0,1.1995956
369984051,30.600702,24.9,100957.99,1.199548
369995997,31.018188,24.9,100953.0,1.1994886
370006537,30.933636,24.9,100954.0,1.1995006
370028488,30.849081,24.91,100955.0,1.1995124
370040485,30.600702,24.91,100957.99,1.199548
370052682,30.600702,24.91,100957.99,1.199548
370074537,30.767168,24.91,100956.0,1.1995243
370086098,30.431595,24.91,100960.0,1.1995718
370096485,30.682615,24.91,100957.0,1.1995362
370118669,31.184654,24.91,100950.99,1.1994648
370129561,30.767168,24.91,100956.0,1.1995243
370140853,31.184654,24.91,100950.99,1.1994648
370164082,30.600702,24.91,100957.99,1.199548
370175064,31.266567,24.91,100950.0,1.199453
370185080,31.602142,24.91,100946.0,1.1994054
370208388,30.516148,24.91,100959.0,1.1995599
370220762,31.853163,24.91,100943.0,1.1993698
370231479,30.682615,24.91,100957.0,1.1995362
370253766,31.184654,24.92,100950.99,1.1994648
370264487,31.184654,24.92,100950.99,1.1994648
370275480,31.435675,24.92,100948.0,1.1994293
370297539,30.682615,24.92,100957.0,1.1995362
370308172,30.516148,24.92,100959.0,1.1995599
370319488,31.517588,24.92,100947.0,1.1994174
370341495,30.431595,24.92,100960.0,1.1995718
370353574,30.682615,24.92,100957.0,1.1995362
370364480,31.266567,24.92,100950.0,1.199453
370386276,30.600702,24.92,100957.99,1.199548
370397204,30.849081,24.92,100955.0,1.1995124
370409717,31.266567,24.92,100950.0,1.199453
370429654,30.682615,24.93,100957.0,1.1995362
370441710,30.600702,24.93,100957.99,1.199548
370452661,30.767168,24.93,100956.0,1.1995243
370474514,31.351122,24.93,100949.0,1.1994411
370485172,30.682615,24.93,100957.0,1.1995362
370496172,31.517588,24.93,100947.0,1.1994174
370518082,30.682615,24.93,100957.0,1.1995362
370529075,30.516148,24.93,100959.0,1.1995599
370539479,30.933636,24.93,100954.0,1.1995006
370560547,30.767168,24.93,100956.0,1.1995243
370572065,31.266567,24.93,100950.0,1.199453
370582569,31.018188,24.93,100953.0,1.1994886
370603577,30.849081,24.939999,100955.0,1.1995124
370614799,30.600702,24.939999,100957.99,1.199548
370624852,30.849081,24.939999,100955.0,1.1995124
370647261,30.682615,24.939999,100957.0,1.1995362
370660267,31.018188,24.939999,100953.0,1.1994886
370671252,31.102743,24.939999,100951.99,1.1994767
370693505,30.933636,24.949999,100954.0,1.1995006
370705075,31.184654,24.949999,100950.99,1.1994648
370715535,31.351122,24.949999,100949.0,1.1994411
370736488,31.602142,24.949999,100946.0,1.1994054
370749757,30.516148,24.949999,100959.0,1.1995599
370759879,31.351122,24.949999,100949.0,1.1994411
370780378,31.018188,24.949999,100953.0,1.1994886
370791667,30.933636,24.949999,100954.0,1.1995006
370802676,30.933636,24.949999,100954.0,1.1995006
370824052,31.184654,24.96,100950.99,1.1994648
370836372,31.435675,24.96,100948.0,1.1994293
370846544,31.102743,24.96,100951.99,1.1994767
370868675,31.351122,24.96,100949.0,1.1994411
370881485,31.351122,24.96,100949.0,1.1994411
370892852,31.351122,24.96,100949.0,1.1994411
370915492,31.018188,24.96,100953.0,1.1994886
370926094,31.435675,24.96,100948.0,1.1994293
370935484,31.602142,24.96,100946.0,1.1994054
370957564,31.102743,24.97,100951.99,1.1994767
370970351,31.517588,24.97,100947.0,1.1994174
370981475,31.768608,24.97,100944.0,1.1993817
371004093,31.935074,24.97,100942.0,1.199358
371015068,31.351122,24.97,100949.0,1.1994411
371025492,31.686695,24.97,100944.99,1.1993935
371050091,31.351122,24.97,100949.0,1.1994411
371061453,31.517588,24.97,100947.0,1.1994174
371073603,31.602142,24.97,100946.0,1.1994054
371096543,31.351122,24.97,100949.0,1.1994411
371107137,30.933636,24.97,100954.0,1.1995006
371118253,32.186096,24.97,100938.99,1.1993222
371140172,31.768608,24.97,100944.0,1.1993817
371151172,31.935074,24.97,100942.0,1.199358
371162254,31.517588,24.97,100947.0,1.1994174
371183182,31.184654,24.98,100950.99,1.1994648
371194390,31.184654,24.98,100950.99,1.1994648
371205179,31.935074,24.98,100942.0,1.199358
371226572,32.104183,24.98,100940.0,1.1993341
371237187,31.602142,24.98,100946.0,1.1994054
371248244,32.104183,24.98,100940.0,1.1993341
371268485,31.686695,24.99,100944.99,1.1993935
371279167,32.437115,24.99,100936.0,1.1992867
371290338,31.602142,24.99,100946.0,1.1994054
371314367,31.435675,24.99,100948.0,1.1994293
371326092,31.768608,24.99,100944.0,1.1993817
371335492,31.853163,24.99,100943.0,1.1993698
371356482,32.27065,24.99,100938.0,1.1993104
371368171,31.935074,24.99,100942.0,1.199358
371379182,31.686695,24.99,100944.99,1.1993935
371399498,32.519028,24.99,100935.0,1.1992748
371411470,32.104183,24.99,100940.0,1.1993341
371422894,31.935074,24.99,100942.0,1.199358
371444481,32.104183,25.0,100940.0,1.1993341
371455464,31.768608,25.0,100944.0,1.1993817
371465485,31.935074,25.0,100942.0,1.199358
371488051,31.686695,25.0,100944.99,1.1993935
371500012,31.768608,25.0,100944.0,1.1993817
371510669,32.27065,25.0,100938.0,1.1993104
371532282,32.104183,25.0,100940.0,1.1993341
371543591,32.352562,25.0,100937.0,1.1992985
371554544,32.019627,25.0,100941.0,1.1993461
371576487,32.688133,25.0,100932.99,1.1992509
371588051,32.519028,25.0,100935.0,1.1992748
371598534,32.688133,25.0,100932.99,1.1992509
371620480,31.935074,25.01,100942.0,1.199358
371631768,32.27065,25.01,100938.0,1.1993104
371642559,32.60358,25.01,100934.0,1.1992629
371665273,32.519028,25.01,100935.0,1.1992748
371677555,31.935074,25.01,100942.0,1.199358
371689363,32.688133,25.01,100932.99,1.1992509
371711480,33.02107,25.019999,100929.0,1.1992035
371722090,32.60358,25.019999,100934.0,1.1992629
371732887,32.27065,25.019999,100938.0,1.1993104
371755493,32.437115,25.019999,100936.0,1.1992867
371766096,32.770046,25.019999,100932.0,1.1992391
371777286,32.939156,25.019999,100930.0,1.1992154
371799538,32.854603,25.019999,100931.0,1.1992272
371810369,32.770046,25.019999,100932.0,1.1992391
371821175,33.190174,25.019999,100926.99,1.1991796
371841911,33.272087,25.019999,100925.99,1.1991677
371853599,33.10562,25.019999,100928.0,1.1991916
371864480,33.438553,25.019999,100924.0,1.1991441
371886561,33.190174,25.029999,100926.99,1.1991796
371898669,33.60502,25.029999,100922.0,1.1991203
371908541,33.02107,25.029999,100929.0,1.1992035
371929873,32.688133,25.029999,100932.99,1.1992509
371941079,32.688133,25.029999,100932.99,1.1992509
371951493,33.356644,25.029999,100925.0,1.1991559
371974564,32.770046,25.029999,100932.0,1.1992391
371985100,33.190174,25.029999,100926.99,1.1991796
371994673,33.438553,25.029999,100924.0,1.1991441
372016559,33.356644,25.029999,100925.0,1.1991559
372027321,33.190174,25.029999,100926.99,1.1991796
372038085,33.272087,25.029999,100925.99,1.1991677
372058748,33.02107,25.039999,100929.0,1.1992035
372069166,33.940594,25.039999,100918.0,1.1990728
372080487,33.52311,25.039999,100923.0,1.1991322
372102790,33.774128,25.039999,100919.99,1.1990964
372114109,34.022507,25.039999,100917.0,1.1990609
372123499,33.52311,25.039999,100923.0,1.1991322
372143499,33.438553,25.05,100924.0,1.1991441
372154101,33.60502,25.05,100922.0,1.1991203
372163481,33.60502,25.05,100922.0,1.1991203
372185851,33.60502,25.05,100922.0,1.1991203
372197944,33.60502,25.05,100922.0,1.1991203
372208480,33.52311,25.05,100923.0,1.1991322
372230560,33.940594,25.05,100918.0,1.1990728
372242099,33.689575,25.05,100921.0,1.1991085
372252550,33.689575,25.05,100921.0,1.1991085
372274660,33.940594,25.05,100918.0,1.1990728
372285114,33.774128,25.05,100919.99,1.1990964
372294681,33.689575,25.05,100921.0,1.1991085
372316854,34.022507,25.06,100917.0,1.1990609
372329553,34.022507,25.06,100917.0,1.1990609
372340661,34.442635,25.06,100912.0,1.1990016
372364482,34.10706,25.06,100916.0,1.199049
372376527,34.191616,25.06,100915.0,1.1990372
372387521,34.27617,25.06,100913.99,1.1990252
372408764,33.774128,25.06,100919.99,1.1990964
372420788,34.27617,25.06,100913.99,1.1990252
372431499,34.6091,25.06,100910.0,1.1989777
372453652,34.693657,25.06,100909.0,1.1989659
372464396,34.27617,25.06,100913.99,1.1990252
372475480,34.775566,25.06,100907.99,1.1989539
372497552,34.022507,25.06,100917.0,1.1990609
372509723,34.775566,25.06,100907.99,1.1989539
372520854,34.94203,25.06,100906.0,1.1989301
372541875,35.02659,25.06,100905.0,1.1989183
372552043,34.35808,25.06,100913.0,1.1990134
372562560,34.94203,25.06,100906.0,1.1989301
372585604,35.02659,25.07,100905.0,1.1989183
372597624,34.94203,25.07,100906.0,1.1989301
372608481,35.1085,25.07,100904.0,1.1989064
372630571,34.94203,25.07,100906.0,1.1989301
372641262,34.94203,25.07,100906.0,1.1989301
372651492,35.02659,25.07,100905.0,1.1989183
372672489,34.860123,25.08,100907.0,1.1989421
372683142,34.94203,25.08,100906.0,1.1989301
372694343,35.02659,25.08,100905.0,1.1989183
372714563,35.277607,25.08,100901.99,1.1988826
372726352,35.1085,25.08,100904.0,1.1989064
372738085,35.444073,25.08,100900.0,1.1988589
372759492,35.193054,25.08,100903.0,1.1988945
372771143,35.1085,25.08,100904.0,1.1989064
372782355,35.52863,25.08,100899.0,1.198847
372804172,35.52863,25.08,100899.0,1.198847
372815173,35.02659,25.08,100905.0,1.1989183
372825173,35.610542,25.08,100898.0,1.1988351
372846485,35.1085,25.09,100904.0,1.1989064
372857172,35.777008,25.09,100896.0,1.1988114
372868177,35.1085,25.09,100904.0,1.1989064
372889173,35.277607,25.09,100901.99,1.1988826
372899474,35.777008,25.09,100896.0,1.1988114
372911187,35.695095,25.09,100897.0,1.1988232
372932480,35.193054,25.09,100903.0,1.1988945
372943591,35.777008,25.09,100896.0,1.1988114
372954563,36.11258,25.09,100892.0,1.1987638
372976481,35.277607,25.1,100901.99,1.1988826
372988082,35.610542,25.1,100898.0,1.1988351
372998544,35.86156,25.1,100894.99,1.1987994
373018537,35.695095,25.1,100897.0,1.1988232
373029872,36.27905,25.1,100890.0,1.1987401
373040274,36.11258,25.1,100892.0,1.1987638
373063294,36.11258,25.1,100892.0,1.1987638
373074367,35.610542,25.1,100898.0,1.1988351
373084851,36.3636,25.1,100888.99,1.1987281
373108850,35.777008,25.109999,100896.0,1.1988114
373121557,35.444073,25.109999,100900.0,1.1988589
373132706,35.946114,25.109999,100894.0,1.1987876
373155492,36.530067,25.1,100887.0,1.1987045
373166102,36.530067,25.1,100887.0,1.1987045
373177286,36.028027,25.1,100893.0,1.1987758
373199480,36.530067,25.1,100887.0,1.1987045
373211129,36.028027,25.1,100893.0,1.1987758
373221483,36.947556,25.1,100882.0,1.198645
373243486,36.197136,25.109999,100891.0,1.1987519
373255143,36.197136,25.109999,100891.0,1.1987519
373265480,37.198574,25.109999,100879.0,1.1986094
373286560,36.530067,25.109999,100887.0,1.1987045
373298517,36.696533,25.109999,100885.0,1.1986806
373309488,36.445515,25.109999,100888.0,1.1987163
373333176,36.78109,25.109999,100884.0,1.1986688
373345566,36.78109,25.109999,100884.0,1.1986688
373356555,37.280487,25.109999,100878.0,1.1985976
373376480,36.3636,25.119999,100888.99,1.1987281
373387166,36.445515,25.119999,100888.0,1.1987163
373397551,36.3636,25.119999,100888.99,1.1987281
373419480,36.530067,25.119999,100887.0,1.1987045
373430099,36.696533,25.119999,100885.0,1.1986806
373439479,37.198574,25.119999,100879.0,1.1986094
373461970,36.696533,25.13,100885.0,1.1986806
373473075,36.947556,25.13,100882.0,1.198645
373483480,36.78109,25.13,100884.0,1.1986688
373504544,36.61462,25.13,100886.0,1.1986926
373516044,36.530067,25.13,100887.0,1.1987045
373526571,37.03211,25.13,100881.0,1.1986332
373549966,36.696533,25.13,100885.0,1.1986806
373561161,37.531506,25.13,100875.0,1.1985619
373571867,37.531506,25.13,100875.0,1.1985619
373593487,37.36504,25.13,100876.99,1.1985855
373605080,37.700615,25.13,100873.0,1.1985381
373614876,37.36504,25.13,100876.99,1.1985855
373635483,37.616062,25.14,100874.0,1.19855
373646093,37.198574,25.14,100879.0,1.1986094
373656481,37.449596,25.14,100875.99,1.1985737
373677540,37.11402,25.14,100880.0,1.1986213
373688686,37.531506,25.14,100875.0,1.1985619
373698886,37.616062,25.14,100874.0,1.19855
373720850,37.449596,25.14,100875.99,1.1985737
373733066,37.449596,25.14,100875.99,1.1985737
373742883,37.700615,25.14,100873.0,1.1985381
373766665,37.782528,25.15,100872.0,1.1985263
373778255,37.531506,25.15,100875.0,1.1985619
373788682,37.86708,25.15,100871.0,1.1985143
373809651,37.36504,25.15,100876.99,1.1985855
373821076,37.616062,25.15,100874.0,1.19855
373830658,36.947556,25.15,100882.0,1.198645
373852685,37.198574,25.15,100879.0,1.1986094
373865483,37.198574,25.15,100879.0,1.1986094
373876088,36.78109,25.15,100884.0,1.1986688
373897552,38.033546,25.15,100869.0,1.1984906
373909292,37.616062,25.15,100874.0,1.19855
373921282,37.700615,25.15,100873.0,1.1985381
373942559,37.280487,25.15,100878.0,1.1985976
373953614,37.198574,25.15,100879.0,1.1986094
373963479,37.86708,25.15,100871.0,1.1985143
373985482,37.36504,25.16,100876.99,1.1985855
373998419,37.449596,25.16,100875.99,1.1985737
374009465,36.947556,25.16,100882.0,1.198645
374032515,37.531506,25.16,100875.0,1.1985619
374044040,37.951637,25.16,100869.99,1.1985024
374054572,37.03211,25.16,100881.0,1.1986332
374076480,37.700615,25.16,100873.0,1.1985381
374088175,37.616062,25.16,100874.0,1.19855
374099489,37.280487,25.16,100878.0,1.1985976
374122285,37.531506,25.16,100875.0,1.1985619
374133295,37.86708,25.16,100871.0,1.1985143
374144480,37.280487,25.16,100878.0,1.1985976
374166568,37.11402,25.16,100880.0,1.1986213
374177075,37.782528,25.16,100872.0,1.1985263
374186670,38.033546,25.16,100869.0,1.1984906
374210881,37.11402,25.17,100880.0,1.1986213
374223176,37.782528,25.17,100872.0,1.1985263
374235158,37.700615,25.17,100873.0,1.1985381
374258964,37.616062,25.17,100874.0,1.19855
374271089,37.86708,25.17,100871.0,1.1985143
374282519,38.118103,25.17,100868.0,1.1984787
374303493,37.531506,25.17,100875.0,1.1985619
374315522,37.531506,25.17,100875.0,1.1985619
374327078,37.531506,25.17,100875.0,1.1985619
374349629,37.951637,25.17,100869.99,1.1985024
374361075,38.118103,25.17,100868.0,1.1984787
374371508,38.200012,25.17,100867.0,1.1984668
374391545,38.45368,25.18,100863.99,1.1984311
374403479,37.951637,25.18,100869.99,1.1985024
374414863,37.951637,25.18,100869.99,1.1985024
374436680,37.951637,25.18,100869.99,1.1985024
374447739,38.36912,25.18,100865.0,1.198443
374457550,38.28457,25.18,100866.0,1.198455
374478542,37.86708,25.18,100871.0,1.1985143
374489079,38.702053,25.18,100861.0,1.1983955
374498537,38.200012,25.18,100867.0,1.1984668
374520365,38.535587,25.189999,100863.0,1.1984193
374533070,38.45368,25.189999,100863.99,1.1984311
374542545,38.535587,25.189999,100863.0,1.1984193
374564481,38.118103,25.189999,100868.0,1.1984787
374575878,38.28457,25.189999,100866.0,1.198455
374586538,38.28457,25.189999,100866.0,1.198455
374608072,38.78661,25.189999,100860.0,1.1983837
374619142,38.78661,25.189999,100860.0,1.1983837
374629494,38.36912,25.189999,100865.0,1.198443
374651480,38.200012,25.199999,100867.0,1.1984668
374663130,38.535587,25.199999,100863.0,1.1984193
374674276,38.28457,25.199999,100866.0,1.198455
374695180,38.6175,25.199999,100862.0,1.1984074
374706262,37.951637,25.199999,100869.99,1.1985024
374717180,38.118103,25.199999,100868.0,1.1984787
374739173,38.200012,25.199999,100867.0,1.1984668
374750254,38.871162,25.199999,100859.0,1.1983718
374760867,38.78661,25.199999,100860.0,1.1983837
374782334,38.6175,25.199999,100862.0,1.1984074
374793546,38.78661,25.199999,100860.0,1.1983837
374803230,38.6175,25.199999,100862.0,1.1984074
374824294,38.535587,25.21,100863.0,1.1984193
374834671,38.6175,25.21,100862.0,1.1984074
374845653,38.6175,25.21,100862.0,1.1984074
374868480,39.03763,25.22,100857.0,1.198348
374880048,38.78661,25.22,100860.0,1.1983837
374890564,38.45368,25.22,100863.99,1.1984311
374911479,38.6175,25.22,100862.0,1.1984074
374923469,38.6175,25.22,100862.0,1.1984074
374934669,38.6175,25.22,100862.0,1.1984074
374956480,38.45368,25.21,100863.99,1.1984311
374967142,39.11954,25.21,100856.0,1.1983361
374978658,38.45368,25.21,100863.99,1.1984311
375002678,38.871162,25.22,100859.0,1.1983718
375014404,39.37056,25.22,100853.0,1.1983005
375026494,39.11954,25.22,100856.0,1.1983361
375046805,39.204094,25.22,100855.0,1.1983242
375057075,39.11954,25.22,100856.0,1.1983361
375067716,39.11954,25.22,100856.0,1.1983361
375091502,38.78661,25.22,100860.0,1.1983837
375103480,39.204094,25.22,100855.0,1.1983242
375115539,39.455116,25.22,100851.99,1.1982886
375139536,39.11954,25.22,100856.0,1.1983361
375151360,38.871162,25.22,100859.0,1.1983718
375161487,39.286007,25.22,100854.0,1.1983124
375182575,38.953075,25.22,100857.99,1.1983598
375193137,39.621582,25.22,100850.0,1.1982648
375204475,39.621582,25.22,100850.0,1.1982648
375226549,39.204094,25.23,100855.0,1.1983242
375238256,39.286007,25.23,100854.0,1.1983124
375249480,39.706135,25.23,100849.0,1.1982529
375270546,39.53967,25.23,100850.99,1.1982766
375281077,39.621582,25.23,100850.0,1.1982648
375292387,39.286007,25.23,100854.0,1.1983124
375313480,39.621582,25.23,100850.0,1.1982648
375324917,39.37056,25.23,100853.0,1.1983005
375334698,39.954514,25.23,100846.0,1.1982173
375356869,40.123623,25.24,100844.0,1.1981936
375368810,39.286007,25.24,100854.0,1.1983124
375379543,39.204094,25.24,100855.0,1.1983242
375401273,39.621582,25.24,100850.0,1.1982648
375413502,39.37056,25.24,100853.0,1.1983005
375423496,39.286007,25.24,100854.0,1.1983124
375444684,39.954514,25.24,100846.0,1.1982173
375456860,39.621582,25.24,100850.0,1.1982648
375466559,39.455116,25.24,100851.99,1.1982886
375489479,39.8726,25.25,100847.0,1.1982292
375500400,39.8726,25.25,100847.0,1.1982292
375510568,39.37056,25.25,100853.0,1.1983005
375533496,39.954514,25.25,100846.0,1.1982173
375545586,39.706135,25.25,100849.0,1.1982529
375555481,39.706135,25.25,100849.0,1.1982529
375575483,39.8726,25.25,100847.0,1.1982292
375586669,39.706135,25.25,100849.0,1.1982529
375596480,40.37464,25.25,100841.0,1.1981579
375617941,39.204094,25.26,100855.0,1.1983242
375629359,40.123623,25.26,100844.0,1.1981936
375639480,40.123623,25.26,100844.0,1.1981936
375661990,40.039066,25.26,100844.99,1.1982054
375672130,39.954514,25.26,100846.0,1.1982173
375682413,40.123623,25.26,100844.0,1.1981936
375703492,39.8726,25.26,100847.0,1.1982292
375714915,40.123623,25.26,100844.0,1.1981936
375726003,39.788048,25.26,100848.0,1.1982411
375746328,40.29009,25.26,100842.0,1.1981698
375758348,40.123623,25.26,100844.0,1.1981936
375768481,40.208176,25.26,100843.0,1.1981816
375789994,40.541107,25.269999,100838.99,1.1981341
375800040,39.788048,25.269999,100848.0,1.1982411
375811370,40.37464,25.269999,100841.0,1.1981579
375835915,39.954514,25.269999,100846.0,1.1982173
375847353,40.29009,25.269999,100842.0,1.1981698
375859374,40.456554,25.269999,100840.0,1.198146
375883329,40.039066,25.269999,100844.99,1.1982054
375895675,40.541107,25.269999,100838.99,1.1981341
375907322,40.625664,25.269999,100838.0,1.1981223
375930560,40.37464,25.269999,100841.0,1.1981579
375941183,40.37464,25.269999,100841.0,1.1981579
375952480,40.707573,25.269999,100837.0,1.1981103
375976068,40.625664,25.269999,100838.0,1.1981223
375988136,40.79213,25.269999,100836.0,1.1980985
375998545,40.456554,25.269999,100840.0,1.198146
376020287,40.958595,25.279999,100834.0,1.1980747
376032486,40.958595,25.279999,100834.0,1.1980747
376044677,40.958595,25.279999,100834.0,1.1980747
376065480,41.12506,25.279999,100832.0,1.198051
376076818,41.376083,25.279999,100829.0,1.1980153
376088051,41.460636,25.279999,100828.0,1.1980034
376109489,41.79621,25.279999,100824.0,1.197956
376121325,40.958595,25.279999,100834.0,1.1980747
376131484,40.79213,25.279999,100836.0,1.1980985
376152678,41.29417,25.279999,100830.0,1.1980273
376163150,41.460636,25.279999,100828.0,1.1980034
376173480,41.209614,25.279999,100831.0,1.198039
376194799,41.209614,25.289999,100831.0,1.198039
376205877,41.54519,25.289999,100826.99,1.1979915
376216678,41.209614,25.289999,100831.0,1.198039
376238559,41.12506,25.289999,100832.0,1.198051
376250133,41.629745,25.289999,100825.99,1.1979796
376261501,41.54519,25.289999,100826.99,1.1979915
376283179,41.460636,25.289999,100828.0,1.1980034
376294264,41.711655,25.289999,100825.0,1.1979678
376304172,41.29417,25.289999,100830.0,1.1980273
376326254,41.376083,25.3,100829.0,1.1980153
376337200,40.625664,25.3,100838.0,1.1981223
376348173,41.629745,25.3,100825.99,1.1979796
376369304,41.460636,25.3,100828.0,1.1980034
376379173,41.54519,25.3,100826.99,1.1979915
376389672,41.460636,25.3,100828.0,1.1980034
376410385,41.209614,25.3,100831.0,1.198039
376421172,41.711655,25.3,100825.0,1.1979678
376431230,41.209614,25.3,100831.0,1.198039
376452309,41.460636,25.31,100828.0,1.1980034
376463173,41.12506,25.31,100832.0,1.198051
376473285,41.629745,25.31,100825.99,1.1979796
376493977,41.878124,25.31,100823.0,1.197944
376505137,41.79621,25.31,100824.0,1.197956
376516175,41.629745,25.31,100825.99,1.1979796
376538421,41.962677,25.31,100822.0,1.1979321
376549141,41.79621,25.31,100824.0,1.197956
376559495,41.878124,25.31,100823.0,1.197944
376579875,41.54519,25.32,100826.99,1.1979915
376591087,42.04459,25.32,100821.0,1.1979202
376601479,41.79621,25.32,100824.0,1.197956
376624173,41.962677,25.32,100822.0,1.1979321
376635867,42.631184,25.32,100813.99,1.197837
376645172,42.631184,25.32,100813.99,1.197837
376666880,41.460636,25.32,100828.0,1.1980034
376677946,41.878124,25.32,100823.0,1.197944
376688356,41.629745,25.32,100825.99,1.1979796
376709843,41.962677,25.32,100822.0,1.1979321
376721556,42.213696,25.32,100819.0,1.1978965
376732658,41.629745,25.32,100825.99,1.1979796
376756854,41.79621,25.33,100824.0,1.197956
376769557,42.213696,25.33,100819.0,1.1978965
376780693,42.54663,25.33,100815.0,1.1978489
376804343,41.878124,25.33,100823.0,1.197944
376815911,41.629745,25.33,100825.99,1.1979796
376826546,41.376083,25.33,100829.0,1.1980153
376846572,42.129143,25.33,100819.99,1.1979083
376857643,41.79621,25.33,100824.0,1.197956
376868373,41.79621,25.33,100824.0,1.197956
376889877,41.209614,25.33,100831.0,1.198039
376901489,41.29417,25.33,100830.0,1.1980273
376912085,41.376083,25.33,100829.0,1.1980153
376933480,41.043148,25.34,100832.99,1.1980628
376945604,41.460636,25.34,100828.0,1.1980034
376955487,41.79621,25.34,100824.0,1.197956
376977542,41.12506,25.34,100832.0,1.198051
376988487,41.711655,25.34,100825.0,1.1979678
376999479,41.878124,25.34,100823.0,1.197944
377021480,42.129143,25.34,100819.99,1.1979083
377032040,41.79621,25.34,100824.0,1.197956
377042560,42.464718,25.34,100816.0,1.1978608
377064480,42.38016,25.34,100817.0,1.1978728
377076050,41.79621,25.34,100824.0,1.197956
377086559,41.962677,25.34,100822.0,1.1979321
377109652,42.04459,25.34,100821.0,1.1979202
377121551,41.79621,25.34,100824.0,1.197956
377133176,41.878124,25.34,100823.0,1.197944
377155487,42.129143,25.34,100819.99,1.1979083
377166084,42.713097,25.34,100813.0,1.1978252
377176637,42.213696,25.34,100819.0,1.1978965
377199484,42.964115,25.35,100810.0,1.1977895
377211209,42.38016,25.35,100817.0,1.1978728
377221994,42.79765,25.35,100812.0,1.1978133
377242882,41.79621,25.35,100824.0,1.197956
377254166,42.129143,25.35,100819.99,1.1979083
377266519,42.713097,25.35,100813.0,1.1978252
377288547,42.964115,25.35,100810.0,1.1977895
377300130,42.54663,25.35,100815.0,1.1978489
377311172,42.213696,25.35,100819.0,1.1978965
377333173,42.29561,25.35,100818.0,1.1978846
377343469,42.713097,25.35,100813.0,1.1978252
377355714,42.631184,25.35,100813.99,1.197837
377379664,42.631184,25.35,100813.99,1.197837
377391466,42.464718,25.35,100816.0,1.1978608
377401490,43.466156,25.35,100804.0,1.1977183
377422668,42.54663,25.35,100815.0,1.1978489
377433137,42.882202,25.35,100811.0,1.1978015
377444487,42.882202,25.35,100811.0,1.1978015
377466545,42.713097,25.359999,100813.0,1.1978252
377477141,43.215137,25.359999,100807.0,1.1977539
377488053,43.466156,25.359999,100804.0,1.1977183
377510538,42.964115,25.359999,100810.0,1.1977895
377522089,43.04867,25.359999,100809.0,1.1977776
377532473,43.215137,25.359999,100807.0,1.1977539
377554564,43.04867,25.369999,100809.0,1.1977776
377566145,42.79765,25.369999,100812.0,1.1978133
377576554,42.631184,25.369999,100813.99,1.197837
377599479,43.29969,25.369999,100806.0,1.197742
377610284,42.54663,25.369999,100815.0,1.1978489
377621070,43.381603,25.369999,100805.0,1.1977302
377643487,43.381603,25.369999,100805.0,1.1977302
377654135,43.29969,25.369999,100806.0,1.197742
377665173,43.215137,25.369999,100807.0,1.1977539
377686573,43.215137,25.369999,100807.0,1.1977539
377698273,43.635265,25.369999,100801.99,1.1976944
377709163,43.968197,25.369999,100798.0,1.197647
377730560,43.55071,25.38,100803.0,1.1977063
377742401,43.466156,25.38,100804.0,1.1977183
377752541,43.968197,25.38,100798.0,1.197647
377773874,43.635265,25.38,100801.99,1.1976944
377784059,43.80173,25.38,100800.0,1.1976707
377794644,44.21922,25.38,100794.99,1.1976112
377817179,43.71982,25.38,100800.99,1.1976825
377828175,43.968197,25.38,100798.0,1.197647
377838669,43.883644,25.38,100799.0,1.1976589
377859552,43.883644,25.38,100799.0,1.1976589
377870674,44.134663,25.38,100796.0,1.1976233
377880677,43.883644,25.38,100799.0,1.1976589
377902344,43.80173,25.39,100800.0,1.1976707
377913076,43.883644,25.39,100799.0,1.1976589
377922668,43.71982,25.39,100800.99,1.1976825
377945997,44.21922,25.4,100794.99,1.1976112
377957075,43.883644,25.4,100799.0,1.1976589
377967519,44.385685,25.4,100793.0,1.1975876
377990424,44.385685,25.39,100793.0,1.1975876
378001075,44.55215,25.39,100791.0,1.1975638
378010571,44.134663,25.39,100796.0,1.1976233
378033967,44.55215,25.4,100791.0,1.1975638
378045136,44.470238,25.4,100792.0,1.1975757
378055886,44.05275,25.4,100797.0,1.197635
378079564,44.470238,25.4,100792.0,1.1975757
378091473,44.470238,25.4,100792.0,1.1975757
378103318,45.47432,25.4,100780.0,1.1974331
378127351,44.887726,25.4,100787.0,1.1975163
378139987,44.55215,25.4,100791.0,1.1975638
378150667,44.55215,25.4,100791.0,1.1975638
378172323,44.636703,25.4,100790.0,1.197552
378184487,44.303772,25.4,100794.0,1.1975994
378196569,44.72126,25.4,100788.99,1.1975399
378217546,44.470238,25.4,100792.0,1.1975757
378229064,44.636703,25.4,100790.0,1.197552
378238537,44.303772,25.4,100794.0,1.1975994
378260310,45.05419,25.4,100785.0,1.1974925
378272738,44.636703,25.4,100790.0,1.197552
378282538,44.97228,25.4,100786.0,1.1975044
378303895,44.636703,25.41,100790.0,1.197552
378316289,44.887726,25.41,100787.0,1.1975163
378326653,44.97228,25.41,100786.0,1.1975044
378347523,44.805813,25.41,100788.0,1.1975281
378358286,44.805813,25.41,100788.0,1.1975281
378369282,45.138744,25.41,100784.0,1.1974807
378393292,45.389767,25.41,100781.0,1.197445
378405339,45.30521,25.41,100782.0,1.1974568
378417071,45.30521,25.41,100782.0,1.1974568
378438561,45.05419,25.41,100785.0,1.1974925
378450081,45.05419,25.41,100785.0,1.1974925
378459571,45.138744,25.41,100784.0,1.1974807
378479536,44.97228,25.42,100786.0,1.1975044
378491134,45.556232,25.42,100779.0,1.1974212
378501270,45.223297,25.42,100782.99,1.1974686
378524490,45.725338,25.42,100776.99,1.1973974
378535133,44.97228,25.42,100786.0,1.1975044
378546259,45.389767,25.42,100781.0,1.197445
378568180,45.138744,25.42,100784.0,1.1974807
378579175,45.640785,25.42,100778.0,1.1974094
378590252,45.389767,25.42,100781.0,1.197445
378611173,45.640785,25.42,100778.0,1.1974094
378621455,45.809895,25.42,100775.99,1.1973855
378632245,45.640785,25.42,100778.0,1.1974094
378654273,45.138744,25.42,100784.0,1.1974807
378665172,45.556232,25.42,100779.0,1.1974212
378676177,46.058273,25.42,100773.0,1.1973499
378696172,45.891808,25.43,100775.0,1.1973737
378707173,46.058273,25.43,100773.0,1.1973499
378717172,45.30521,25.43,100782.0,1.1974568
378739173,45.556232,25.43,100779.0,1.1974212
378749172,46.475758,25.43,100768.0,1.1972905
378760179,45.640785,25.43,100778.0,1.1974094
378781192,45.809895,25.43,100775.99,1.1973855
378791187,45.97636,25.43,100774.0,1.1973618
378802497,46.058273,25.43,100773.0,1.1973499
378823480,46.22474,25.439999,100771.0,1.1973262
378834095,45.725338,25.439999,100776.99,1.1973974
378843483,46.058273,25.439999,100773.0,1.1973499
378867154,46.142826,25.439999,100772.0,1.1973381
378877179,46.72678,25.439999,100765.0,1.1972549
378887522,46.22474,25.439999,100771.0,1.1973262
378909483,46.142826,25.439999,100772.0,1.1973381
378921137,46.142826,25.439999,100772.0,1.1973381
378932275,46.644867,25.439999,100766.0,1.1972668
378953481,46.30929,25.439999,100769.99,1.1973143
378965081,46.22474,25.439999,100771.0,1.1973262
378976272,46.22474,25.439999,100771.0,1.1973262
379000053,45.97636,25.439999,100774.0,1.1973618
379011944,46.142826,25.439999,100772.0,1.1973381
379021659,46.811333,25.439999,100763.99,1.1972429
379042668,46.393845,25.439999,100769.0,1.1973025
379053083,46.560314,25.439999,100767.0,1.1972786
379064053,46.72678,25.439999,100765.0,1.1972549
379083546,46.72678,25.439999,100765.0,1.1972549
379094139,46.644867,25.439999,100766.0,1.1972668
379105073,46.644867,25.439999,100766.0,1.1972668
379125653,46.30929,25.449999,100769.99,1.1973143
379136761,46.811333,25.449999,100763.99,1.1972429
379146667,47.313374,25.449999,100757.99,1.1971716
379169492,46.393845,25.449999,100769.0,1.1973025
379180944,46.72678,25.449999,100765.0,1.1972549
379191479,46.811333,25.449999,100763.99,1.1972429
379214266,46.811333,25.449999,100763.99,1.1972429
379224496,46.811333,25.449999,100763.99,1.1972429
379235492,46.9778,25.449999,100762.0,1.1972193
379256550,46.811333,25.449999,100763.99,1.1972429
379268290,46.72678,25.449999,100765.0,1.1972549
379279492,47.313374,25.449999,100757.99,1.1971716
379301981,46.895885,25.46,100763.0,1.1972312
379312060,47.22882,25.46,100759.0,1.1971836
379322654,47.146908,25.46,100760.0,1.1971955
379344552,46.9778,25.46,100762.0,1.1972193
379355134,46.72678,25.46,100765.0,1.1972549
379366340,47.062355,25.46,100761.0,1.1972073
379388245,46.895885,25.46,100763.0,1.1972312
379398499,47.47984,25.46,100756.0,1.197148
379409983,46.644867,25.46,100766.0,1.1972668
379431542,47.313374,25.46,100757.99,1.1971716
379442169,46.9778,25.46,100762.0,1.1972193
379452654,47.73086,25.46,100753.0,1.1971123
379473972,46.9778,25.46,100762.0,1.1972193
379485077,47.313374,25.46,100757.99,1.1971716
379494694,47.313374,25.46,100757.99,1.1971716
379517172,47.73086,25.47,100753.0,1.1971123
379527579,47.146908,25.47,100760.0,1.1971955
379539077,47.47984,25.47,100756.0,1.197148
379559480,47.397926,25.47,100757.0,1.1971599
379571468,47.899967,25.47,100750.99,1.1970885
379583165,47.899967,25.47,100750.99,1.1970885
379604480,48.066433,25.47,100749.0,1.1970648
379616175,47.98188,25.47,100750.0,1.1970767
379626890,47.899967,25.47,100750.99,1.1970885
379646569,47.64895,25.47,100754.0,1.1971242
379657331,47.899967,25.47,100750.99,1.1970885
379668356,47.146908,25.47,100760.0,1.1971955
379689851,48.15099,25.48,100748.0,1.197053
379701543,47.899967,25.48,100750.99,1.1970885
379712673,47.564396,25.48,100755.0,1.197136
379737047,47.98188,25.47,100750.0,1.1970767
379748689,47.98188,25.47,100750.0,1.1970767
379758885,48.232903,25.47,100747.0,1.197041
379782662,47.397926,25.48,100757.0,1.1971599
379794089,47.64895,25.48,100754.0,1.1971242
379804052,47.146908,25.48,100760.0,1.1971955
379826560,47.73086,25.48,100753.0,1.1971123
379837645,47.64895,25.48,100754.0,1.1971242
379849064,47.73086,25.48,100753.0,1.1971123
379869482,47.64895,25.48,100754.0,1.1971242
379881613,48.15099,25.48,100748.0,1.197053
379892854,47.899967,25.48,100750.99,1.1970885
379913480,47.73086,25.48,100753.0,1.1971123
379925332,47.815414,25.48,100751.99,1.1971003
379937718,47.98188,25.48,100750.0,1.1970767
379959495,47.815414,25.48,100751.99,1.1971003
379971086,48.734943,25.48,100741.0,1.1969697
379982083,48.232903,25.48,100747.0,1.197041
380001506,48.232903,25.48,100747.0,1.197041
380012042,48.066433,25.48,100749.0,1.1970648
380022081,48.066433,25.48,100749.0,1.1970648
380041480,48.48392,25.48,100744.0,1.1970054
380052039,48.985962,25.48,100738.0,1.1969341
380062565,48.066433,25.48,100749.0,1.1970648
380084483,48.317455,25.48,100746.0,1.1970291
380096328,48.90405,25.48,100738.99,1.1969459
380107527,48.734943,25.48,100741.0,1.1969697
380130579,48.734943,25.49,100741.0,1.1969697
380141075,49.070515,25.49,100737.0,1.1969222
380150566,49.152428,25.49,100736.0,1.1969104
380172480,49.070515,25.49,100737.0,1.1969222
380183134,49.572556,25.49,100731.0,1.1968509
380194734,48.734943,25.49,100741.0,1.1969697
380215875,48.650387,25.49,100742.0,1.1969817
380227319,48.819496,25.49,100740.0,1.1969578
380238669,48.90405,25.49,100738.99,1.1969459
380260554,49.321537,25.49,100734.0,1.1968865
380272048,49.823578,25.49,100728.0,1.1968153
380283347,49.572556,25.49,100731.0,1.1968509
380307362,48.90405,25.49,100738.99,1.1969459
380318473,49.152428,25.49,100736.0,1.1969104
380328482,49.90813,25.49,100726.99,1.1968033
380349487,49.73902,25.49,100729.0,1.1968272
380360049,49.23698,25.49,100735.0,1.1968985
380371313,49.65447,25.49,100730.0,1.196839
380391877,49.65447,25.5,100730.0,1.196839
380402090,49.73902,25.5,100729.0,1.1968272
380412310,49.321537,25.5,100734.0,1.1968865
380436393,49.152428,25.5,100736.0,1.1969104
380448685,48.819496,25.5,100740.0,1.1969578
380460488,48.734943,25.5,100741.0,1.1969697
380482541,49.572556,25.5,100731.0,1.1968509
380494088,48.985962,25.5,100738.0,1.1969341
380503968,49.152428,25.5,100736.0,1.1969104
380524268,49.73902,25.5,100729.0,1.1968272
380535594,49.40609,25.5,100732.99,1.1968746
380546656,49.65447,25.5,100730.0,1.196839
380569487,48.734943,25.5,100741.0,1.1969697
380581734,49.321537,25.5,100734.0,1.1968865
380591480,49.40609,25.5,100732.99,1.1968746
380613072,49.40609,25.5,100732.99,1.1968746
380624482,48.48392,25.5,100744.0,1.1970054
380634559,49.23698,25.5,100735.0,1.1968985
380657081,48.819496,25.51,100740.0,1.1969578
380668758,49.40609,25.51,100732.99,1.1968746
380678572,49.321537,25.51,100734.0,1.1968865
380699492,49.321537,25.51,100734.0,1.1968865
380710133,49.488003,25.51,100732.0,1.1968628
380720480,49.73902,25.51,100729.0,1.1968272
380741491,48.985962,25.51,100738.0,1.1969341
380752048,49.65447,25.51,100730.0,1.196839
380761922,49.90813,25.51,100726.99,1.1968033
380783480,49.40609,25.519999,100732.99,1.1968746
380794665,49.070515,25.519999,100737.0,1.1969222
380804485,49.823578,25.519999,100728.0,1.1968153
380826561,49.73902,25.519999,100729.0,1.1968272
380837562,49.070515,25.519999,100737.0,1.1969222
380848484,49.070515,25.519999,100737.0,1.1969222
380869978,49.572556,25.519999,100731.0,1.1968509
380880062,49.488003,25.519999,100732.0,1.1968628
380890890,49.73902,25.519999,100729.0,1.1968272
380914481,49.65447,25.519999,100730.0,1.196839
380926095,49.572556,25.519999,100731.0,1.1968509
380935494,49.23698,25.519999,100735.0,1.1968985
380956737,49.73902,25.519999,100729.0,1.1968272
380967154,49.572556,25.519999,100731.0,1.1968509
380978467,49.823578,25.519999,100728.0,1.1968153
380998670,49.90813,25.529999,100726.99,1.1968033
381010456,49.488003,25.529999,100732.0,1.1968628
381021487,49.990044,25.529999,100725.99,1.1967914
381043488,49.990044,25.529999,100725.99,1.1967914
381055353,49.90813,25.529999,100726.99,1.1968033
381067274,50.322975,25.529999,100722.0,1.196744
381089501,49.40609,25.529999,100732.99,1.1968746
381101137,50.074596,25.529999,100725.0,1.1967796
381111487,49.73902,25.529999,100729.0,1.1968272
381134569,50.15651,25.529999,100724.0,1.1967677
381146113,49.488003,25.529999,100732.0,1.1968628
381156491,49.90813,25.529999,100726.99,1.1968033
381178554,49.65447,25.529999,100730.0,1.196839
381190092,50.074596,25.529999,100725.0,1.1967796
381199876,49.73902,25.529999,100729.0,1.1968272
381220545,49.90813,25.539999,100726.99,1.1968033
381231594,49.90813,25.539999,100726.99,1.1968033
381242543,50.074596,25.539999,100725.0,1.1967796
381263894,49.73902,25.539999,100729.0,1.1968272
381275982,50.074596,25.539999,100725.0,1.1967796
381286545,49.990044,25.539999,100725.99,1.1967914
381308742,50.576637,25.539999,100719.0,1.1967083
381318287,49.90813,25.539999,100726.99,1.1968033
381329480,50.407528,25.539999,100721.0,1.196732
381351537,49.823578,25.539999,100728.0,1.1968153
381363136,49.990044,25.539999,100725.99,1.1967914
381373282,50.074596,25.539999,100725.0,1.1967796
381395480,49.65447,25.55,100730.0,1.196839
381406089,49.321537,25.55,100734.0,1.1968865
381415491,50.407528,25.55,100721.0,1.196732
381438412,49.990044,25.55,100725.99,1.1967914
381449205,50.074596,25.55,100725.0,1.1967796
381459865,49.990044,25.55,100725.99,1.1967914
381482579,50.15651,25.55,100724.0,1.1967677
381494412,50.322975,25.55,100722.0,1.196744
381504882,49.823578,25.55,100728.0,1.1968153
381526560,50.407528,25.55,100721.0,1.196732
381538683,50.15651,25.55,100724.0,1.1967677
381549941,50.322975,25.55,100722.0,1.196744
381570569,50.492085,25.55,100719.99,1.1967201
381582412,50.15651,25.55,100724.0,1.1967677
381593758,50.15651,25.55,100724.0,1.1967677
381614563,49.823578,25.55,100728.0,1.1968153
381626859,50.994125,25.55,100713.99,1.1966488
381638107,50.994125,25.55,100713.99,1.1966488
381658887,50.407528,25.55,100721.0,1.196732
381670276,50.322975,25.55,100722.0,1.196744
381682480,50.90957,25.55,100715.0,1.1966608
381704480,50.65855,25.56,100718.0,1.1966964
381716043,50.65855,25.56,100718.0,1.1966964
381726071,50.074596,25.56,100725.0,1.1967796
381746530,50.492085,25.56,100719.99,1.1967201
381757088,50.90957,25.56,100715.0,1.1966608
381767524,50.743103,25.56,100717.0,1.1966846
381789485,50.407528,25.56,100721.0,1.196732
381801077,50.90957,25.56,100715.0,1.1966608
381811487,50.743103,25.56,100717.0,1.1966846
381832541,50.576637,25.56,100719.0,1.1967083
381844128,51.07868,25.56,100713.0,1.196637
381854913,50.241062,25.56,100723.0,1.1967559
381875163,50.576637,25.57,100719.0,1.1967083
381885167,50.074596,25.57,100725.0,1.1967796
381896244,50.90957,25.57,100715.0,1.1966608
381918552,50.492085,25.57,100719.99,1.1967201
381930271,50.65855,25.57,100718.0,1.1966964
381941483,50.576637,25.57,100719.0,1.1967083
381964269,50.492085,25.57,100719.99,1.1967201
381977572,50.241062,25.57,100723.0,1.1967559
381988481,49.990044,25.57,100725.99,1.1967914
382012660,50.407528,25.57,100721.0,1.196732
382024730,49.40609,25.57,100732.99,1.1968746
382037126,50.241062,25.57,100723.0,1.1967559
382058565,50.743103,25.57,100717.0,1.1966846
382069293,50.492085,25.57,100719.99,1.1967201
382081143,50.407528,25.57,100721.0,1.196732
382102568,50.407528,25.57,100721.0,1.196732
382113652,50.15651,25.57,100724.0,1.1967677
382123487,50.65855,25.57,100718.0,1.1966964
382145276,50.15651,25.58,100724.0,1.1967677
382157567,50.241062,25.58,100723.0,1.1967559
382169282,50.241062,25.58,100723.0,1.1967559
382192485,50.15651,25.58,100724.0,1.1967677
382204049,50.576637,25.58,100719.0,1.1967083
382213491,50.15651,25.58,100724.0,1.1967677
382233874,50.241062,25.58,100723.0,1.1967559
382244048,50.492085,25.58,100719.99,1.1967201
382253501,49.990044,25.58,100725.99,1.1967914
382273874,49.73902,25.59,100729.0,1.1968272
382285252,50.492085,25.59,100719.99,1.1967201
382296481,50.241062,25.59,100723.0,1.1967559
382318262,49.823578,25.59,100728.0,1.1968153
382328176,50.407528,25.59,100721.0,1.196732
382339498,50.576637,25.59,100719.0,1.1967083
382360632,50.241062,25.59,100723.0,1.1967559
382371144,50.074596,25.59,100725.0,1.1967796
382382743,50.241062,25.59,100723.0,1.1967559
382404479,49.321537,25.59,100734.0,1.1968865
382416043,49.40609,25.59,100732.99,1.1968746
382426569,50.492085,25.59,100719.99,1.1967201
382448480,49.823578,25.59,100728.0,1.1968153
382459134,49.823578,25.59,100728.0,1.1968153
382470518,49.40609,25.59,100732.99,1.1968746
382492172,49.572556,25.599998,100731.0,1.1968509
382502352,49.488003,25.599998,100732.0,1.1968628
382513487,50.074596,25.599998,100725.0,1.1967796
382535492,49.40609,25.599998,100732.99,1.1968746
382548459,50.241062,25.599998,100723.0,1.1967559
382559681,49.823578,25.599998,100728.0,1.1968153
382583759,49.990044,25.599998,100725.99,1.1967914
382596340,49.90813,25.599998,100726.99,1.1968033
382607881,49.65447,25.599998,100730.0,1.196839
382630558,49.90813,25.599998,100726.99,1.1968033
382641284,50.322975,25.599998,100722.0,1.196744
382652267,49.152428,25.599998,100736.0,1.1969104
382675907,49.23698,25.599998,100735.0,1.1968985
382688031,49.23698,25.599998,100735.0,1.1968985
382698546,49.40609,25.599998,100732.99,1.1968746
382720481,49.23698,25.599998,100735.0,1.1968985
382731729,49.40609,25.599998,100732.99,1.1968746
382741480,50.15651,25.599998,100724.0,1.1967677
382762890,49.488003,25.599998,100732.0,1.1968628
382774091,49.40609,25.599998,100732.99,1.1968746
382784863,49.73902,25.599998,100729.0,1.1968272
382808954,49.23698,25.609999,100735.0,1.1968985
382820485,49.90813,25.609999,100726.99,1.1968033
382831497,49.65447,25.609999,100730.0,1.196839
382853480,49.65447,25.609999,100730.0,1.196839
382864761,50.15651,25.609999,100724.0,1.1967677
382875479,49.823578,25.609999,100728.0,1.1968153
382897308,49.90813,25.609999,100726.99,1.1968033
382908482,49.73902,25.609999,100729.0,1.1968272
382918667,49.73902,25.609999,100729.0,1.1968272
382939544,49.90813,25.609999,100726.99,1.1968033
382950136,49.823578,25.609999,100728.0,1.1968153
382961873,49.65447,25.609999,100730.0,1.196839
382985704,49.90813,25.619999,100726.99,1.1968033
382997848,49.65447,25.619999,100730.0,1.196839
383008485,49.488003,25.619999,100732.0,1.1968628
383029505,49.572556,25.619999,100731.0,1.1968509
383041565,49.65447,25.619999,100730.0,1.196839
383052480,49.90813,25.619999,100726.99,1.1968033
383073981,49.65447,25.619999,100730.0,1.196839
383084128,49.070515,25.619999,100737.0,1.1969222
383093964,49.823578,25.619999,100728.0,1.1968153
383114333,49.23698,25.63,100735.0,1.1968985
383125173,49.23698,25.63,100735.0,1.1968985
383136481,48.985962,25.63,100738.0,1.1969341
383159480,48.734943,25.63,100741.0,1.1969697
383170400,49.40609,25.63,100732.99,1.1968746
383182164,49.152428,25.63,100736.0,1.1969104
383203481,49.823578,25.63,100728.0,1.1968153
383214165,48.650387,25.63,100742.0,1.1969817
383224547,49.572556,25.63,100731.0,1.1968509
383246580,49.65447,25.63,100730.0,1.196839
383258167,49.23698,25.63,100735.0,1.1968985
383269627,49.823578,25.63,100728.0,1.1968153
383289627,49.572556,25.63,100731.0,1.1968509
383300048,49.823578,25.63,100728.0,1.1968153
383310910,49.823578,25.63,100728.0,1.1968153
383331565,49.990044,25.64,100725.99,1.1967914
383343350,49.488003,25.64,100732.0,1.1968628
383355236,50.65855,25.64,100718.0,1.1966964
383378548,49.65447,25.64,100730.0,1.196839
383389137,49.73902,25.64,100729.0,1.1968272
383400172,50.241062,25.64,100723.0,1.1967559
383422231,50.074596,25.64,100725.0,1.1967796
383432493,49.990044,25.64,100725.99,1.1967914
383442538,49.823578,25.64,100728.0,1.1968153
383463876,49.90813,25.64,100726.99,1.1968033
383476136,49.990044,25.64,100725.99,1.1967914
383486539,49.73902,25.64,100729.0,1.1968272
383509499,49.321537,25.64,100734.0,1.1968865
383521138,49.572556,25.64,100731.0,1.1968509
383532494,49.572556,25.64,100731.0,1.1968509
383554570,49.23698,25.64,100735.0,1.1968985
383566135,49.823578,25.64,100728.0,1.1968153
383576769,49.990044,25.64,100725.99,1.1967914
383597541,50.241062,25.65,100723.0,1.1967559
383608471,50.241062,25.65,100723.0,1.1967559
383618562,49.90813,25.65,100726.99,1.1968033
383640854,48.90405,25.65,100738.99,1.1969459
383652860,49.65447,25.65,100730.0,1.196839
383663479,49.65447,25.65,100730.0,1.196839
383685068,49.488003,25.65,100732.0,1.1968628
383696048,49.73902,25.65,100729.0,1.1968272
383705896,49.73902,25.65,100729.0,1.1968272
383728544,49.90813,25.65,100726.99,1.1968033
383739131,49.572556,25.65,100731.0,1.1968509
383749492,49.321537,25.65,100734.0,1.1968865
383772480,49.823578,25.65,100728.0,1.1968153
383784041,49.40609,25.65,100732.99,1.1968746
383793946,49.40609,25.65,100732.99,1.1968746
383815480,49.23698,25.65,100735.0,1.1968985
383826442,49.321537,25.65,100734.0,1.1968865
383836545,49.572556,25.65,100731.0,1.1968509
383858937,49.40609,25.66,100732.99,1.1968746
383870092,49.823578,25.66,100728.0,1.1968153
383880485,49.823578,25.66,100728.0,1.1968153
383901978,49.40609,25.66,100732.99,1.1968746
383912049,49.823578,25.66,100728.0,1.1968153
383922710,49.321537,25.66,100734.0,1.1968865
383943485,49.488003,25.66,100732.0,1.1968628
383954504,49.23698,25.66,100735.0,1.1968985
383966287,49.90813,25.66,100726.99,1.1968033
383989995,49.823578,25.66,100728.0,1.1968153
384001130,49.572556,25.66,100731.0,1.1968509
384011170,49.90813,25.66,100726.99,1.1968033
384032485,49.65447,25.67,100730.0,1.196839
384044130,48.985962,25.67,100738.0,1.1969341
384055172,49.65447,25.67,100730.0,1.196839
384077184,49.572556,25.67,100731.0,1.1968509
384088173,49.488003,25.67,100732.0,1.1968628
384100057,49.40609,25.67,100732.99,1.1968746
384120172,49.65447,25.67,100730.0,1.196839
384132077,49.488003,25.67,100732.0,1.1968628
384142257,49.90813,25.67,100726.99,1.1968033
384164178,49.488003,25.67,100732.0,1.1968628
384175661,49.321537,25.67,100734.0,1.1968865
384186231,49.488003,25.67,100732.0,1.1968628
384206231,49.488003,25.67,100732.0,1.1968628
384216490,49.73902,25.67,100729.0,1.1968272
384228349,50.322975,25.67,100722.0,1.196744
384250538,50.074596,25.68,100725.0,1.1967796
384261157,49.990044,25.68,100725.99,1.1967914
384271892,49.73902,25.68,100729.0,1.1968272
384293480,49.990044,25.68,100725.99,1.1967914
384304466,49.23698,25.68,100735.0,1.1968985
384315479,49.90813,25.68,100726.99,1.1968033
384337543,49.40609,25.68,100732.99,1.1968746
384349721,49.152428,25.68,100736.0,1.1969104
384359487,49.65447,25.68,100730.0,1.196839
384381484,49.488003,25.68,100732.0,1.1968628
384392394,49.823578,25.68,100728.0,1.1968153
384402560,49.070515,25.68,100737.0,1.1969222
384423493,49.488003,25.68,100732.0,1.1968628
384434135,49.572556,25.68,100731.0,1.1968509
384444547,49.572556,25.68,100731.0,1.1968509
384466675,49.152428,25.689999,100736.0,1.1969104
384478528,49.823578,25.689999,100728.0,1.1968153
384489496,49.070515,25.689999,100737.0,1.1969222
384511495,49.40609,25.689999,100732.99,1.1968746
384522135,49.070515,25.689999,100737.0,1.1969222
384532480,49.321537,25.689999,100734.0,1.1968865
384553503,49.572556,25.689999,100731.0,1.1968509
384565648,49.23698,25.689999,100735.0,1.1968985
384575490,49.321537,25.689999,100734.0,1.1968865
384598699,48.90405,25.689999,100738.99,1.1969459
384610466,49.070515,25.689999,100737.0,1.1969222
384620485,49.152428,25.689999,100736.0,1.1969104
384642654,49.321537,25.689999,100734.0,1.1968865
384653280,49.572556,25.689999,100731.0,1.1968509
384664172,49.40609,25.689999,100732.99,1.1968746
384684173,48.985962,25.689999,100738.0,1.1969341
384695233,49.488003,25.689999,100732.0,1.1968628
384706445,48.985962,25.689999,100738.0,1.1969341
384727173,49.23698,25.699999,100735.0,1.1968985
384737259,49.321537,25.699999,100734.0,1.1968865
384748480,49.152428,25.699999,100736.0,1.1969104
384771258,49.23698,25.699999,100735.0,1.1968985
384782081,49.40609,25.699999,100732.99,1.1968746
384791494,49.321537,25.699999,100734.0,1.1968865
384813490,49.070515,25.699999,100737.0,1.1969222
384824057,49.23698,25.699999,100735.0,1.1968985
384835651,48.90405,25.699999,100738.99,1.1969459
384857540,48.90405,25.699999,100738.99,1.1969459
384869076,49.070515,25.699999,100737.0,1.1969222
384879876,48.90405,25.699999,100738.99,1.1969459
384900269,48.985962,25.71,100738.0,1.1969341
384911606,48.985962,25.71,100738.0,1.1969341
384922668,49.152428,25.71,100736.0,1.1969104
384944058,49.23698,25.71,100735.0,1.1968985
384955981,49.152428,25.71,100736.0,1.1969104
384966545,49.23698,25.71,100735.0,1.1968985
384986537,49.23698,25.71,100735.0,1.1968985
384997944,49.65447,25.71,100730.0,1.196839
385008356,49.152428,25.71,100736.0,1.1969104
385030900,48.985962,25.71,100738.0,1.1969341
385043063,48.985962,25.71,100738.0,1.1969341
385053071,49.321537,25.71,100734.0,1.1968865
385076104,48.734943,25.71,100741.0,1.1969697
385087075,49.40609,25.71,100732.99,1.1968746
385097732,48.568474,25.71,100743.0,1.1969935
385121654,48.90405,25.72,100738.99,1.1969459
385134292,48.568474,25.72,100743.0,1.1969935
385145652,49.152428,25.72,100736.0,1.1969104
385169519,49.152428,25.71,100736.0,1.1969104
385181337,49.152428,25.71,100736.0,1.1969104
385192480,49.572556,25.71,100731.0,1.1968509
385214566,49.488003,25.72,100732.0,1.1968628
385226383,49.321537,25.72,100734.0,1.1968865
385237730,48.568474,25.72,100743.0,1.1969935
385259479,48.90405,25.72,100738.99,1.1969459
385270291,48.90405,25.72,100738.99,1.1969459
385280479,49.070515,25.72,100737.0,1.1969222
385302559,48.985962,25.72,100738.0,1.1969341
385314472,48.568474,25.72,100743.0,1.1969935
385324480,48.734943,25.72,100741.0,1.1969697
385346669,49.152428,25.72,100736.0,1.1969104
385357136,48.734943,25.72,100741.0,1.1969697
385367527,48.819496,25.72,100740.0,1.1969578
385388485,48.90405,25.72,100738.99,1.1969459
385399208,48.985962,25.72,100738.0,1.1969341
385410674,48.90405,25.72,100738.99,1.1969459
385432827,49.070515,25.72,100737.0,1.1969222
385444915,48.650387,25.72,100742.0,1.1969817
385455479,48.568474,25.72,100743.0,1.1969935
385478896,48.48392,25.73,100744.0,1.1970054
385490083,48.402008,25.73,100744.99,1.1970172
385499895,48.15099,25.73,100748.0,1.197053
385521486,48.734943,25.73,100741.0,1.1969697
385533083,48.568474,25.73,100743.0,1.1969935
385543478,48.819496,25.73,100740.0,1.1969578
385563486,48.985962,25.74,100738.0,1.1969341
385576339,48.650387,25.74,100742.0,1.1969817
385587534,48.48392,25.74,100744.0,1.1970054
385610880,48.985962,25.73,100738.0,1.1969341
385622057,48.48392,25.73,100744.0,1.1970054
385632268,48.568474,25.73,100743.0,1.1969935
385654873,48.15099,25.73,100748.0,1.197053
385667308,48.90405,25.73,100738.99,1.1969459
385678542,48.568474,25.73,100743.0,1.1969935
385700544,48.232903,25.73,100747.0,1.197041
385711663,48.48392,25.73,100744.0,1.1970054
385722561,48.985962,25.73,100738.0,1.1969341
385744543,49.152428,25.73,100736.0,1.1969104
385755990,48.568474,25.73,100743.0,1.1969935
385766540,48.317455,25.73,100746.0,1.1970291
385788969,48.819496,25.74,100740.0,1.1969578
385799172,48.48392,25.74,100744.0,1.1970054
385810313,48.819496,25.74,100740.0,1.1969578
385831540,48.650387,25.74,100742.0,1.1969817
385843129,48.568474,25.74,100743.0,1.1969935
385853078,48.232903,25.74,100747.0,1.197041
385875479,48.819496,25.74,100740.0,1.1969578
385886135,48.317455,25.74,100746.0,1.1970291
385897173,48.819496,25.74,100740.0,1.1969578
385919172,48.568474,25.74,100743.0,1.1969935
385929324,48.90405,25.74,100738.99,1.1969459
385939843,48.568474,25.74,100743.0,1.1969935
385961906,48.232903,25.75,100747.0,1.197041
385973284,48.819496,25.75,100740.0,1.1969578
385984550,48.650387,25.75,100742.0,1.1969817
386005563,48.734943,25.74,100741.0,1.1969697
386016129,48.317455,25.74,100746.0,1.1970291
386026576,48.317455,25.74,100746.0,1.1970291
386048552,48.819496,25.75,100740.0,1.1969578
386060056,48.15099,25.75,100748.0,1.197053
386070576,48.15099,25.75,100748.0,1.197053
386092551,48.650387,25.75,100742.0,1.1969817
386104053,48.734943,25.75,100741.0,1.1969697
386114670,48.402008,25.75,100744.99,1.1970172
386135480,48.232903,25.75,100747.0,1.197041
386147254,48.48392,25.75,100744.0,1.1970054
386158572,48.48392,25.75,100744.0,1.1970054
386179498,48.650387,25.75,100742.0,1.1969817
386190099,48.650387,25.75,100742.0,1.1969817
386200480,48.48392,25.75,100744.0,1.1970054
386222667,48.568474,25.75,100743.0,1.1969935
386233075,48.568474,25.75,100743.0,1.1969935
386243876,48.232903,25.75,100747.0,1.197041
386267197,48.48392,25.75,100744.0,1.1970054
386279472,48.819496,25.75,100740.0,1.1969578
386291301,48.819496,25.75,100740.0,1.1969578
386313479,48.48392,25.75,100744.0,1.1970054
386324781,48.317455,25.75,100746.0,1.1970291
386334559,48.232903,25.75,100747.0,1.197041
386356371,48.317455,25.75,100746.0,1.1970291
386368751,48.317455,25.75,100746.0,1.1970291
386378539,48.568474,25.75,100743.0,1.1969935
386400179,48.650387,25.76,100742.0,1.1969817
386412780,48.48392,25.76,100744.0,1.1970054
386424068,48.48392,25.76,100744.0,1.1970054
386448051,48.48392,25.76,100744.0,1.1970054
386460176,48.90405,25.76,100738.99,1.1969459
386470656,48.48392,25.76,100744.0,1.1970054
386492180,48.819496,25.75,100740.0,1.1969578
386503767,48.734943,25.75,100741.0,1.1969697
386513172,48.90405,25.75,100738.99,1.1969459
386534566,48.232903,25.76,100747.0,1.197041
386546136,48.650387,25.76,100742.0,1.1969817
386557285,48.90405,25.76,100738.99,1.1969459
386578568,48.48392,25.76,100744.0,1.1970054
386589585,48.650387,25.76,100742.0,1.1969817
386600092,49.070515,25.76,100737.0,1.1969222
386621074,48.568474,25.76,100743.0,1.1969935
386632425,49.070515,25.76,100737.0,1.1969222
386643498,48.734943,25.76,100741.0,1.1969697
386665483,48.734943,25.76,100741.0,1.1969697
386676847,49.152428,25.76,100736.0,1.1969104
386687529,48.819496,25.76,100740.0,1.1969578
386709868,48.985962,25.769999,100738.0,1.1969341
386721469,48.48392,25.769999,100744.0,1.1970054
386732480,48.819496,25.769999,100740.0,1.1969578
386754570,48.48392,25.76,100744.0,1.1970054
386766423,48.90405,25.76,100738.99,1.1969459
386777748,48.650387,25.76,100742.0,1.1969817
386800513,48.819496,25.76,100740.0,1.1969578
386812040,49.23698,25.76,100735.0,1.1968985
386822005,49.152428,25.76,100736.0,1.1969104
386843252,49.23698,25.769999,100735.0,1.1968985
386855141,48.734943,25.769999,100741.0,1.1969697
386866498,49.070515,25.769999,100737.0,1.1969222
386888173,48.734943,25.769999,100741.0,1.1969697
386899173,48.317455,25.769999,100746.0,1.1970291
386910258,48.48392,25.769999,100744.0,1.1970054
386932173,48.985962,25.769999,100738.0,1.1969341
386942270,49.070515,25.769999,100737.0,1.1969222
386952172,49.572556,25.769999,100731.0,1.1968509
386973178,48.985962,25.769999,100738.0,1.1969341
386984173,48.985962,25.769999,100738.0,1.1969341
386995175,49.65447,25.769999,100730.0,1.196839
387016172,48.650387,25.769999,100742.0,1.1969817
387027230,49.23698,25.769999,100735.0,1.1968985
387037172,49.321537,25.769999,100734.0,1.1968865
387059197,48.90405,25.769999,100738.99,1.1969459
