timestamp,magnetometer_ga[0],magnetometer_ga[1],magnetometer_ga[2]
367909176,0.23735203,-0.07853695,0.37061685
367929173,0.23437029,-0.07853695,0.37061685
367951173,0.23735203,-0.07853695,0.37987742
367972466,0.23735203,-0.07853695,0.36753
367993177,0.24033377,-0.07853695,0.3737037
368015180,0.23735203,-0.07853695,0.38296425
368038257,0.23735203,-0.08146372,0.37679055
368059173,0.24033377,-0.08146372,0.3737037
368081575,0.23735203,-0.07853695,0.37987742
368102254,0.24033377,-0.07853695,0.3737037
368123179,0.2433155,-0.07853695,0.3737037
368144245,0.23437029,-0.07853695,0.3737037
368166269,0.24033377,-0.08146372,0.37679055
368188299,0.24033377,-0.07853695,0.37987742
368210254,0.23138854,-0.08439048,0.37061685
368232173,0.24033377,-0.08146372,0.37679055
368253173,0.23735203,-0.08146372,0.3737037
368277179,0.23735203,-0.07853695,0.3737037
368301172,0.23138854,-0.08146372,0.37679055
368322331,0.23437029,-0.08439048,0.37987742
368345173,0.23735203,-0.07853695,0.3737037
368368180,0.23437029,-0.07853695,0.37679055
368390479,0.22840682,-0.08439048,0.38913798
368412173,0.23735203,-0.08146372,0.38296425
368432173,0.23138854,-0.07853695,0.37987742
368453173,0.23437029,-0.08439048,0.38296425
368474260,0.23437029,-0.08146372,0.37679055
368497269,0.24033377,-0.07853695,0.37987742
368519560,0.23437029,-0.07853695,0.37987742
368543561,0.23735203,-0.07853695,0.3737037
368567697,0.23138854,-0.08146372,0.37061685
368590238,0.23138854,-0.07853695,0.37679055
368613173,0.23138854,-0.08146372,0.38296425
368633173,0.23735203,-0.08146372,0.37987742
368655594,0.23437029,-0.07853695,0.37679055
368676706,0.23138854,-0.07853695,0.3737037
368697173,0.23437029,-0.07853695,0.37679055
368719173,0.23735203,-0.08146372,0.37061685
368740946,0.23138854,-0.08146372,0.37987742
368761186,0.23138854,-0.08146372,0.3737037
368783185,0.23138854,-0.08439048,0.37061685
368806253,0.23437029,-0.08146372,0.37679055
368828245,0.23138854,-0.07853695,0.37061685
368850326,0.23437029,-0.07853695,0.38605112
368873455,0.24033377,-0.08146372,0.37679055
368895173,0.23437029,-0.07853695,0.37061685
368917674,0.23735203,-0.07853695,0.36753
368940247,0.23437029,-0.08146372,0.37679055
368963172,0.23437029,-0.07853695,0.36753
368985173,0.23138854,-0.08146372,0.3737037
369007173,0.23138854,-0.07853695,0.3737037
369030345,0.23138854,-0.07853695,0.37987742
369053179,0.23138854,-0.07853695,0.37061685
369074255,0.23437029,-0.07853695,0.37987742
369097281,0.23437029,-0.08146372,0.3737037
369121179,0.23138854,-0.08146372,0.37679055
369142485,0.23735203,-0.08146372,0.38296425
369163196,0.23735203,-0.07853695,0.37679055
369185173,0.24033377,-0.07853695,0.37987742
369207173,0.24033377,-0.07853695,0.39222485
369228164,0.23735203,-0.07853695,0.3737037
369248173,0.24033377,-0.07853695,0.38296425
369268173,0.23437029,-0.08146372,0.37679055
369290230,0.23437029,-0.08146372,0.37987742
369312488,0.23735203,-0.08146372,0.37987742
369336683,0.23735203,-0.08146372,0.38296425
369359592,0.23437029,-0.07853695,0.37061685
369382238,0.23437029,-0.07561019,0.39531168
369404174,0.24033377,-0.07561019,0.37987742
369424390,0.24033377,-0.07853695,0.39222485
369446253,0.23735203,-0.07853695,0.38296425
369468909,0.23437029,-0.08146372,0.38605112
369490253,0.23437029,-0.07853695,0.38296425
369512787,0.23735203,-0.07853695,0.38913798
369533180,0.22840682,-0.08146372,0.37679055
369555129,0.23138854,-0.08146372,0.38296425
369577863,0.24033377,-0.07853695,0.39222485
369599179,0.23735203,-0.07561019,0.38913798
369621200,0.23437029,-0.07561019,0.38296425
369643179,0.23735203,-0.07853695,0.37987742
369663172,0.24033377,-0.07853695,0.38913798
369685347,0.23138854,-0.07853695,0.38296425
369707173,0.23735203,-0.08146372,0.38605112
369730404,0.23437029,-0.08146372,0.3737037
369752173,0.23437029,-0.07561019,0.38913798
369772284,0.24033377,-0.07853695,0.38605112
369794477,0.23735203,-0.07853695,0.3737037
369817136,0.2433155,-0.07561019,0.38913798
369840173,0.23735203,-0.07853695,0.38296425
369861173,0.23735203,-0.07561019,0.40457225
369883176,0.23735203,-0.08146372,0.38605112
369903470,0.23735203,-0.08146372,0.37987742
369927534,0.23437029,-0.07853695,0.39222485
369950262,0.22840682,-0.08146372,0.38605112
369972282,0.23437029,-0.07853695,0.38296425
369994319,0.22840682,-0.07853695,0.38296425
370017172,0.23735203,-0.08146372,0.38296425
370039574,0.23735203,-0.07853695,0.39222485
370062231,0.23138854,-0.08146372,0.39222485
370085173,0.23437029,-0.07853695,0.38605112
370106231,0.23437029,-0.07853695,0.38605112
370128693,0.22840682,-0.07853695,0.37987742
370152525,0.23138854,-0.08146372,0.38913798
370174091,0.23735203,-0.08439048,0.39222485
370196854,0.23138854,-0.08146372,0.38605112
370219135,0.23437029,-0.08439048,0.38913798
370242261,0.23437029,-0.08439048,0.38296425
370263230,0.23437029,-0.08439048,0.38605112
370286253,0.23138854,-0.08731724,0.38913798
370307172,0.23437029,-0.08439048,0.38605112
370330254,0.23437029,-0.08146372,0.39531168
370352338,0.23735203,-0.08439048,0.37987742
370374179,0.23437029,-0.08439048,0.38296425
370396172,0.23437029,-0.08439048,0.39222485
370419180,0.23138854,-0.08439048,0.39839852
370440173,0.23138854,-0.08439048,0.4014854
370462259,0.23138854,-0.08146372,0.39531168
370482371,0.23138854,-0.07853695,0.39839852
370505137,0.22840682,-0.07561019,0.38605112
370528173,0.22542506,-0.07561019,0.38913798
370549178,0.22542506,-0.07268342,0.4014854
370571185,0.22542506,-0.07268342,0.4014854
370592381,0.22542506,-0.06975665,0.4014854
370613336,0.22244334,-0.06682989,0.4014854
370635487,0.22542506,-0.06390312,0.39222485
370659290,0.22542506,-0.06390312,0.4014854
370682482,0.22840682,-0.06390312,0.38605112
370704173,0.22840682,-0.06975665,0.39531168
370725179,0.22840682,-0.06682989,0.39839852
370747994,0.22840682,-0.06390312,0.39531168
370769172,0.23138854,-0.06390312,0.39222485
370790231,0.22542506,-0.06975665,0.39531168
370813173,0.22542506,-0.06975665,0.4014854
370834235,0.22840682,-0.06975665,0.39839852
370856484,0.22542506,-0.06682989,0.39839852
370880492,0.22840682,-0.06975665,0.39531168
370903173,0.22840682,-0.06975665,0.39839852
370925173,0.22542506,-0.06975665,0.39531168
370945264,0.23138854,-0.06975665,0.39839852
370969484,0.22840682,-0.06975665,0.39531168
370992787,0.22542506,-0.06975665,0.4014854
371014091,0.22542506,-0.07268342,0.4076591
371037335,0.22244334,-0.07268342,0.40457225
371060172,0.22840682,-0.07268342,0.39839852
371084180,0.23138854,-0.06975665,0.40457225
371106260,0.23138854,-0.06682989,0.39839852
371126253,0.23138854,-0.06975665,0.39531168
371148180,0.23138854,-0.06975665,0.39839852
371170173,0.23437029,-0.06975665,0.38913798
371192173,0.23138854,-0.07268342,0.39222485
371212244,0.23138854,-0.07561019,0.4014854
371234439,0.22840682,-0.07853695,0.39531168
371257172,0.22542506,-0.07853695,0.39839852
371278293,0.22840682,-0.07853695,0.39531168
371301291,0.22840682,-0.07853695,0.39531168
371325173,0.22840682,-0.07561019,0.38913798
371345172,0.23138854,-0.07853695,0.38296425
371367192,0.22542506,-0.07853695,0.4014854
371389173,0.22244334,-0.07853695,0.39531168
371410489,0.22244334,-0.08146372,0.4014854
371433189,0.22244334,-0.08146372,0.39839852
371454496,0.22244334,-0.08146372,0.40457225
371476176,0.22542506,-0.08146372,0.39222485
371498231,0.22542506,-0.07853695,0.39531168
371521177,0.22542506,-0.07853695,0.39839852
371542252,0.22542506,-0.07561019,0.39531168
371565173,0.22244334,-0.07561019,0.39531168
371586231,0.22244334,-0.07561019,0.39839852
371609173,0.22542506,-0.07853695,0.40457225
371630231,0.22542506,-0.07853695,0.4014854
371653176,0.22542506,-0.08146372,0.39531168
371676491,0.2194616,-0.08146372,0.39839852
371700360,0.22244334,-0.08146372,0.39531168
371721173,0.22542506,-0.08146372,0.39531168
371743172,0.22840682,-0.08146372,0.39222485
371765180,0.23138854,-0.08146372,0.39222485
371788176,0.23437029,-0.08146372,0.39531168
371809501,0.23437029,-0.08146372,0.39531168
371831173,0.23138854,-0.07853695,0.39531168
371852180,0.23138854,-0.08146372,0.39222485
371874296,0.23437029,-0.08146372,0.39531168
371897716,0.23735203,-0.07561019,0.39839852
371918258,0.23437029,-0.07561019,0.38296425
371940173,0.23735203,-0.07561019,0.38913798
371962574,0.23735203,-0.07853695,0.38605112
371984173,0.23735203,-0.08146372,0.37987742
372005173,0.23735203,-0.07561019,0.38605112
372026435,0.23735203,-0.07853695,0.38605112
372047230,0.23735203,-0.08146372,0.38296425
372068296,0.23735203,-0.08439048,0.37987742
372091243,0.24033377,-0.08439048,0.37987742
372113178,0.23735203,-0.08731724,0.38296425
372133173,0.24033377,-0.08439048,0.38296425
372153180,0.24033377,-0.08731724,0.37987742
372175114,0.23735203,-0.08731724,0.38605112
372197077,0.2433155,-0.08731724,0.38605112
372220115,0.23735203,-0.08731724,0.38296425
372241173,0.2433155,-0.09317078,0.37987742
372262230,0.24033377,-0.090244,0.37987742
372284176,0.24033377,-0.09317078,0.38296425
372304683,0.24033377,-0.090244,0.3737037
372328684,0.2433155,-0.09317078,0.37679055
372352468,0.24033377,-0.09317078,0.38913798
372375658,0.24033377,-0.09317078,0.37987742
372397176,0.24033377,-0.090244,0.38913798
372419240,0.23437029,-0.090244,0.38296425
372442253,0.24033377,-0.090244,0.38605112
372463172,0.23735203,-0.090244,0.38605112
372486257,0.24033377,-0.090244,0.38913798
372508823,0.24033377,-0.090244,0.37987742
372530254,0.24033377,-0.08731724,0.37679055
372551175,0.2433155,-0.08731724,0.37987742
372573986,0.23437029,-0.08731724,0.37987742
372596178,0.24033377,-0.08731724,0.38296425
372619173,0.24033377,-0.08439048,0.38913798
372640180,0.23735203,-0.08439048,0.38605112
372661546,0.23735203,-0.08439048,0.38296425
372682257,0.23735203,-0.08146372,0.38913798
372704173,0.23735203,-0.08146372,0.38605112
372725178,0.23735203,-0.08146372,0.38296425
372748173,0.24033377,-0.07853695,0.38296425
372770262,0.23735203,-0.07853695,0.38296425
372790740,0.23735203,-0.07561019,0.38913798
372811236,0.23735203,-0.08146372,0.38296425
372832290,0.24033377,-0.08146372,0.38296425
372853433,0.23735203,-0.07853695,0.38913798
372875479,0.23735203,-0.07853695,0.38296425
372898163,0.23735203,-0.08146372,0.39222485
372921180,0.24033377,-0.07853695,0.38296425
372942172,0.23138854,-0.07853695,0.37987742
372965172,0.23437029,-0.07561019,0.38296425
372986230,0.23138854,-0.07561019,0.38605112
373008172,0.23138854,-0.07268342,0.38913798
373028913,0.22840682,-0.07853695,0.39222485
373051995,0.23138854,-0.07268342,0.39531168
373073500,0.23437029,-0.07561019,0.38296425
373096541,0.23437029,-0.07561019,0.37987742
373120689,0.23437029,-0.07561019,0.38913798
373143172,0.23437029,-0.07853695,0.38913798
373165172,0.23437029,-0.07561019,0.38296425
373187238,0.23437029,-0.07853695,0.38913798
373210252,0.23138854,-0.07561019,0.38605112
373231173,0.23437029,-0.07561019,0.38605112
373254257,0.23138854,-0.07561019,0.38913798
373275175,0.22840682,-0.07853695,0.38605112
373297589,0.23138854,-0.07268342,0.39222485
373320173,0.23138854,-0.07561019,0.38296425
373344180,0.23138854,-0.07561019,0.38605112
373366253,0.23138854,-0.07561019,0.38605112
373386187,0.23138854,-0.06975665,0.39222485
373408173,0.23138854,-0.07268342,0.38296425
373429173,0.23138854,-0.07561019,0.39531168
373449173,0.23437029,-0.07561019,0.37987742
373472173,0.23138854,-0.07268342,0.38605112
373493175,0.23138854,-0.07268342,0.38913798
373515173,0.23735203,-0.07268342,0.38913798
373537190,0.23437029,-0.07561019,0.38296425
373560291,0.23437029,-0.07561019,0.38913798
373581285,0.23437029,-0.07268342,0.39531168
373604173,0.23138854,-0.07268342,0.38913798
373624173,0.23138854,-0.07561019,0.38913798
373645178,0.23138854,-0.07561019,0.38913798
373666488,0.22840682,-0.07268342,0.38913798
373687755,0.23437029,-0.07561019,0.38605112
373709267,0.23138854,-0.07268342,0.38913798
373732137,0.23437029,-0.07268342,0.39222485
373754090,0.23138854,-0.07268342,0.38913798
373777180,0.23138854,-0.07268342,0.39222485
373798243,0.23138854,-0.07268342,0.38605112
373820173,0.23735203,-0.07853695,0.38605112
373840474,0.23138854,-0.07853695,0.38913798
373864476,0.23437029,-0.07561019,0.38605112
373886086,0.23735203,-0.07853695,0.37987742
373908386,0.24033377,-0.08146372,0.38296425
373931173,0.24033377,-0.08146372,0.38296425
373952745,0.23735203,-0.08146372,0.38913798
373973319,0.23735203,-0.07853695,0.38296425
373997550,0.24033377,-0.08146372,0.38913798
374020043,0.23437029,-0.08146372,0.38913798
374043173,0.23735203,-0.08439048,0.38296425
374065555,0.23735203,-0.07853695,0.38296425
374087172,0.23735203,-0.08146372,0.38296425
374109284,0.23735203,-0.08146372,0.38913798
374132177,0.23735203,-0.08146372,0.38296425
374155172,0.23735203,-0.08439048,0.38605112
374176173,0.23437029,-0.08146372,0.38913798
374198292,0.23735203,-0.08146372,0.38913798
374222304,0.23437029,-0.08146372,0.38913798
374246287,0.23735203,-0.08146372,0.38605112
374270157,0.23437029,-0.08146372,0.38913798
374292173,0.23735203,-0.08439048,0.38605112
374314577,0.23735203,-0.08146372,0.38296425
374337173,0.23735203,-0.08146372,0.39222485
374360173,0.23437029,-0.07561019,0.38296425
374381180,0.23735203,-0.07853695,0.38296425
374402491,0.23735203,-0.08146372,0.38296425
374425173,0.23735203,-0.08146372,0.39531168
374446252,0.23735203,-0.08146372,0.38913798
374468107,0.23735203,-0.07853695,0.38913798
374488173,0.23735203,-0.08146372,0.38605112
374508338,0.23735203,-0.08146372,0.38913798
374532137,0.23735203,-0.07853695,0.38296425
374553173,0.23437029,-0.07853695,0.39222485
374574246,0.23735203,-0.07561019,0.38605112
374596179,0.23437029,-0.07853695,0.38605112
374618258,0.23735203,-0.07853695,0.38296425
374639230,0.23735203,-0.07853695,0.39222485
374662253,0.24033377,-0.07853695,0.38913798
374682274,0.24033377,-0.07853695,0.38605112
374703173,0.23735203,-0.07853695,0.38913798
374725173,0.24033377,-0.07853695,0.38605112
374745639,0.23735203,-0.07853695,0.38296425
374768172,0.23735203,-0.07853695,0.38605112
374790256,0.23138854,-0.08146372,0.39531168
374811172,0.23735203,-0.07853695,0.38913798
374833735,0.23735203,-0.07853695,0.39222485
374856172,0.23437029,-0.08146372,0.38913798
374879179,0.23735203,-0.07853695,0.38605112
374900173,0.23735203,-0.07853695,0.37987742
374922497,0.23437029,-0.08146372,0.38296425
374945173,0.24033377,-0.08146372,0.37987742
374966259,0.23138854,-0.07853695,0.39222485
374989284,0.23138854,-0.07561019,0.38605112
375013186,0.23138854,-0.07853695,0.38296425
375036173,0.23138854,-0.07853695,0.38913798
375056173,0.23138854,-0.07561019,0.38605112
375078485,0.22840682,-0.07853695,0.39222485
375102491,0.22840682,-0.07561019,0.38605112
375126481,0.22840682,-0.07561019,0.38605112
375150484,0.22840682,-0.07561019,0.39222485
375171956,0.22840682,-0.07268342,0.38296425
375192181,0.23138854,-0.07561019,0.38605112
375214404,0.22840682,-0.07561019,0.37987742
375237179,0.23138854,-0.07853695,0.39222485
375260173,0.23138854,-0.07561019,0.38605112
375280172,0.22840682,-0.07561019,0.38913798
375302248,0.23138854,-0.07853695,0.39531168
375323999,0.23437029,-0.07561019,0.39222485
375345172,0.23437029,-0.07853695,0.38605112
375367172,0.23138854,-0.07853695,0.38913798
375390258,0.23138854,-0.07853695,0.38605112
375412553,0.23138854,-0.07561019,0.38913798
375433178,0.23138854,-0.07853695,0.39222485
375455173,0.23437029,-0.07853695,0.38605112
375477173,0.23437029,-0.08146372,0.38296425
375499173,0.23437029,-0.07853695,0.38605112
375521572,0.22542506,-0.07853695,0.38605112
375544173,0.22840682,-0.07853695,0.39222485
375565173,0.23138854,-0.07561019,0.39222485
375585730,0.22840682,-0.08146372,0.39222485
375606254,0.22542506,-0.07853695,0.39531168
375628178,0.22542506,-0.07853695,0.39531168
375650703,0.23138854,-0.07853695,0.38605112
375671230,0.22840682,-0.08439048,0.38296425
375692291,0.23437029,-0.08439048,0.38605112
375713288,0.23437029,-0.08146372,0.38296425
375735180,0.23138854,-0.08146372,0.38605112
375757179,0.23138854,-0.08146372,0.38296425
375778422,0.23138854,-0.08146372,0.38605112
375799172,0.23138854,-0.07853695,0.38605112
375822484,0.22840682,-0.08146372,0.39222485
375846476,0.23138854,-0.08146372,0.39222485
375870478,0.23437029,-0.08146372,0.38913798
375894751,0.23138854,-0.08439048,0.38296425
375918239,0.23735203,-0.08439048,0.38913798
375940299,0.23437029,-0.08439048,0.39222485
375963907,0.23138854,-0.08146372,0.38605112
375986173,0.23138854,-0.08146372,0.38605112
376009173,0.23138854,-0.08146372,0.38296425
376031565,0.22840682,-0.08439048,0.38913798
376054233,0.23138854,-0.08146372,0.38913798
376075950,0.22840682,-0.08439048,0.38296425
376097173,0.23138854,-0.08439048,0.38296425
376120391,0.23138854,-0.08439048,0.38296425
376141185,0.23735203,-0.08731724,0.38605112
376162257,0.23437029,-0.08439048,0.38605112
376183176,0.23437029,-0.08731724,0.38605112
376204945,0.23437029,-0.08731724,0.38605112
376226315,0.23138854,-0.08731724,0.39222485
376249182,0.22840682,-0.08731724,0.39222485
376269742,0.23138854,-0.08439048,0.38913798
376290252,0.23138854,-0.08731724,0.38296425
376312172,0.23437029,-0.08439048,0.38605112
376334259,0.23138854,-0.08439048,0.38296425
376354259,0.23437029,-0.08146372,0.38296425
376374259,0.23138854,-0.08731724,0.38913798
376397713,0.23437029,-0.08439048,0.39222485
376418651,0.22840682,-0.08731724,0.39222485
376439173,0.22840682,-0.08439048,0.38913798
376460245,0.22840682,-0.08731724,0.38913798
376482404,0.22840682,-0.08731724,0.39531168
376504246,0.23138854,-0.08439048,0.39531168
376525178,0.22840682,-0.08731724,0.38605112
376548246,0.22840682,-0.08731724,0.39222485
376569170,0.22840682,-0.08439048,0.39531168
376590078,0.22542506,-0.08439048,0.39222485
376612180,0.22542506,-0.08439048,0.39531168
376633180,0.22542506,-0.08146372,0.4014854
376655345,0.22542506,-0.08439048,0.4014854
376677079,0.22542506,-0.08146372,0.39531168
376698243,0.22542506,-0.08146372,0.39839852
376720689,0.22840682,-0.08146372,0.39222485
376744486,0.22840682,-0.08439048,0.39531168
376768684,0.23138854,-0.08439048,0.38913798
376791589,0.23138854,-0.08439048,0.39839852
376814238,0.23138854,-0.08439048,0.39531168
376836173,0.23138854,-0.08439048,0.39531168
376856740,0.23138854,-0.08439048,0.39531168
376878265,0.23437029,-0.08439048,0.38913798
376900476,0.23437029,-0.08439048,0.39531168
376922089,0.23735203,-0.08146372,0.38913798
376944733,0.23138854,-0.08439048,0.38296425
376966173,0.23437029,-0.08439048,0.38913798
376987231,0.23138854,-0.08439048,0.38913798
377010254,0.23735203,-0.08731724,0.38605112
377031173,0.23138854,-0.090244,0.38296425
377053194,0.23735203,-0.09317078,0.39839852
377075183,0.23735203,-0.090244,0.38605112
377097590,0.23437029,-0.09317078,0.39222485
377120172,0.23735203,-0.09317078,0.38605112
377144173,0.23735203,-0.090244,0.38296425
377165172,0.24033377,-0.09317078,0.38296425
377187186,0.23735203,-0.09609754,0.38296425
377210341,0.24033377,-0.09609754,0.38296425
377231188,0.24033377,-0.09609754,0.37987742
377253186,0.2433155,-0.0990243,0.38296425
377277176,0.2433155,-0.09609754,0.38296425
377299229,0.24033377,-0.09317078,0.37679055
377319246,0.24033377,-0.09609754,0.37987742
377342487,0.23735203,-0.09609754,0.38296425
377366474,0.23735203,-0.0990243,0.37679055
377390493,0.23735203,-0.0990243,0.38605112
377412172,0.23735203,-0.09609754,0.37679055
377432245,0.23735203,-0.10195106,0.38913798
377455926,0.2433155,-0.09609754,0.3737037
377476248,0.24033377,-0.0990243,0.38296425
377498244,0.24033377,-0.10195106,0.38296425
377521173,0.23735203,-0.10487783,0.38296425
377542239,0.23735203,-0.10487783,0.38296425
377565186,0.23735203,-0.1078046,0.3737037
377588081,0.23437029,-0.11365812,0.37679055
377609293,0.23735203,-0.11073136,0.38296425
377631185,0.23437029,-0.11073136,0.38296425
377653188,0.23437029,-0.1078046,0.37987742
377674255,0.23735203,-0.10487783,0.37987742
377697186,0.23735203,-0.10195106,0.38296425
377719172,0.24033377,-0.09609754,0.37679055
377741533,0.23735203,-0.0990243,0.37679055
377762253,0.23735203,-0.09609754,0.38605112
377783186,0.23735203,-0.09609754,0.38913798
377805583,0.24033377,-0.09317078,0.38296425
377827186,0.24033377,-0.09317078,0.37679055
377848173,0.24033377,-0.09317078,0.38296425
377869699,0.24033377,-0.090244,0.38296425
377890255,0.23735203,-0.090244,0.38605112
377912173,0.24033377,-0.090244,0.38296425
377933173,0.24033377,-0.090244,0.38605112
377956173,0.23437029,-0.08439048,0.38605112
377978258,0.23437029,-0.090244,0.38913798
378000173,0.23437029,-0.08439048,0.38605112
378021172,0.23138854,-0.090244,0.38605112
378044244,0.23138854,-0.08731724,0.39222485
378066485,0.23437029,-0.090244,0.38913798
378090487,0.23437029,-0.08731724,0.38913798
378114494,0.23437029,-0.08731724,0.38605112
378138247,0.23437029,-0.08731724,0.38296425
378161173,0.23437029,-0.090244,0.37679055
378183568,0.23437029,-0.09317078,0.39531168
378206242,0.23735203,-0.09317078,0.39222485
378228105,0.23735203,-0.09609754,0.38605112
378248173,0.24033377,-0.09317078,0.37987742
378271869,0.24033377,-0.09317078,0.37987742
378292173,0.24033377,-0.090244,0.38296425
378314231,0.24033377,-0.090244,0.38296425
378336766,0.24033377,-0.09317078,0.38296425
378357295,0.24033377,-0.09609754,0.37987742
378380492,0.24033377,-0.09609754,0.38913798
378404405,0.2433155,-0.09609754,0.38296425
378427180,0.2433155,-0.0990243,0.38296425
378449173,0.2433155,-0.10195106,0.37987742
378469173,0.2433155,-0.10195106,0.37987742
378490254,0.2433155,-0.10195106,0.38605112
378512173,0.24033377,-0.09609754,0.38296425
378534253,0.24033377,-0.0990243,0.37987742
378554259,0.2433155,-0.10195106,0.37061685
378576173,0.24033377,-0.0990243,0.3737037
378597198,0.24033377,-0.10195106,0.38296425
378618255,0.24033377,-0.10195106,0.37061685
378639180,0.24033377,-0.10487783,0.38296425
378661173,0.2433155,-0.10195106,0.37679055
378681186,0.24033377,-0.10195106,0.37679055
378704173,0.2433155,-0.10195106,0.37679055
378726173,0.24033377,-0.10487783,0.3737037
378746384,0.24033377,-0.10195106,0.37679055
378767173,0.24033377,-0.0990243,0.37061685
378789173,0.24033377,-0.10487783,0.37987742
378811319,0.23735203,-0.10195106,0.37987742
378833173,0.23735203,-0.10195106,0.37987742
378854476,0.24033377,-0.10195106,0.37987742
378876291,0.24033377,-0.10195106,0.3737037
378897281,0.24033377,-0.10487783,0.38296425
378920175,0.24033377,-0.10487783,0.38296425
378942231,0.23437029,-0.10487783,0.37679055
378964173,0.24033377,-0.10195106,0.37679055
378987983,0.24033377,-0.10195106,0.37987742
379010231,0.24033377,-0.10195106,0.38296425
379031605,0.24033377,-0.0990243,0.38296425
379052173,0.24033377,-0.0990243,0.38296425
379073175,0.24033377,-0.09609754,0.38296425
379093186,0.23735203,-0.10195106,0.38296425
379114253,0.24033377,-0.0990243,0.37987742
379135179,0.2433155,-0.10195106,0.37987742
379157173,0.24033377,-0.10195106,0.3737037
379179189,0.2433155,-0.10487783,0.37987742
379202267,0.2433155,-0.10195106,0.37987742
379223172,0.24033377,-0.10195106,0.38296425
379245655,0.24033377,-0.10195106,0.37679055
379267188,0.2433155,-0.10487783,0.38296425
379289295,0.24033377,-0.10487783,0.37061685
379311185,0.24033377,-0.1078046,0.3737037
379332177,0.23735203,-0.10487783,0.37679055
379354258,0.2433155,-0.1078046,0.37679055
379374581,0.23735203,-0.11073136,0.3737037
379397172,0.24033377,-0.1078046,0.37679055
379420179,0.24033377,-0.11073136,0.37987742
379441179,0.2433155,-0.1078046,0.37061685
379463173,0.2433155,-0.11073136,0.37679055
379484173,0.2433155,-0.1078046,0.37987742
379505180,0.24033377,-0.11073136,0.37061685
379526489,0.2433155,-0.11073136,0.37061685
379549173,0.23735203,-0.11073136,0.3737037
379570482,0.24033377,-0.1078046,0.37679055
379593179,0.2433155,-0.11073136,0.37987742
379615192,0.2433155,-0.11073136,0.37679055
379636173,0.24033377,-0.11365812,0.37679055
379656389,0.2433155,-0.1078046,0.3737037
379678252,0.24629723,-0.11365812,0.3737037
379700544,0.2433155,-0.11365812,0.37679055
379724486,0.2433155,-0.11365812,0.37061685
379747726,0.2433155,-0.11073136,0.3737037
379770085,0.24033377,-0.11073136,0.37061685
379793173,0.2433155,-0.11365812,0.37987742
379814238,0.24033377,-0.11365812,0.37679055
379836723,0.24033377,-0.11365812,0.37987742
379858254,0.2433155,-0.11365812,0.3737037
379880730,0.2433155,-0.11365812,0.37061685
379902257,0.24033377,-0.11365812,0.37061685
379924463,0.24033377,-0.11073136,0.37987742
379947230,0.24033377,-0.1078046,0.3737037
379970172,0.24033377,-0.11073136,0.37987742
379991178,0.23735203,-0.11365812,0.37987742
380011172,0.24033377,-0.11073136,0.38296425
380031186,0.23735203,-0.11365812,0.37679055
380051172,0.23735203,-0.11073136,0.37679055
380073184,0.23735203,-0.1078046,0.37987742
380095173,0.24033377,-0.11073136,0.37061685
380118255,0.24033377,-0.11073136,0.37679055
380140173,0.2433155,-0.1078046,0.37679055
380161172,0.24033377,-0.11073136,0.3737037
380182256,0.24033377,-0.11073136,0.37679055
380205081,0.24033377,-0.11073136,0.37987742
380226404,0.23735203,-0.1078046,0.37987742
380249179,0.24033377,-0.1078046,0.37679055
380271179,0.23735203,-0.11073136,0.37061685
380294485,0.23735203,-0.11073136,0.37987742
380317173,0.24033377,-0.1078046,0.3737037
380338489,0.23735203,-0.1078046,0.37679055
380359180,0.23437029,-0.11073136,0.37061685
380381177,0.23735203,-0.11365812,0.3737037
380401173,0.23437029,-0.11073136,0.38296425
380423568,0.23437029,-0.11365812,0.37061685
380447683,0.23437029,-0.11365812,0.37987742
380470239,0.23437029,-0.11365812,0.3737037
380493173,0.23735203,-0.11073136,0.37987742
380513172,0.23735203,-0.11365812,0.3737037
380534231,0.23437029,-0.11365812,0.3737037
380557173,0.24033377,-0.11073136,0.36753
380580861,0.23735203,-0.11365812,0.3737037
380601173,0.24033377,-0.11365812,0.3737037
380623173,0.2433155,-0.11073136,0.38296425
380645173,0.2433155,-0.11073136,0.37679055
380667173,0.24629723,-0.11073136,0.3737037
380688361,0.24927898,-0.1078046,0.3737037
380709180,0.24927898,-0.1078046,0.36753
380730254,0.25524247,-0.1078046,0.36444312
380751180,0.25524247,-0.1078046,0.36444312
380772173,0.25524247,-0.1078046,0.3613563
380793690,0.25524247,-0.1078046,0.36753
380815172,0.24927898,-0.1078046,0.36444312
380836245,0.2522607,-0.1078046,0.36753
380858268,0.24927898,-0.11073136,0.3737037
380879185,0.24927898,-0.10487783,0.36444312
380901185,0.24629723,-0.1078046,0.37061685
380925173,0.24629723,-0.10487783,0.36444312
380945173,0.24629723,-0.10195106,0.36753
380966256,0.24927898,-0.10195106,0.3737037
380988173,0.24927898,-0.10195106,0.37679055
381009182,0.24927898,-0.0990243,0.38296425
381032179,0.2522607,-0.0990243,0.36444312
381054482,0.2522607,-0.0990243,0.36753
381078486,0.24927898,-0.0990243,0.37061685
381100180,0.24927898,-0.09609754,0.37061685
381122319,0.24927898,-0.09317078,0.36444312
381145173,0.24629723,-0.09609754,0.37061685
381166236,0.24629723,-0.09317078,0.3737037
381189179,0.24629723,-0.09317078,0.3737037
381209173,0.24629723,-0.09317078,0.37679055
381230231,0.2433155,-0.09317078,0.37987742
381253172,0.24033377,-0.09317078,0.37679055
381274231,0.2433155,-0.09317078,0.38296425
381296180,0.2433155,-0.09317078,0.37679055
381317328,0.2433155,-0.09317078,0.37679055
381339173,0.24033377,-0.09317078,0.36753
381362257,0.24033377,-0.09317078,0.3737037
381383173,0.2433155,-0.09609754,0.3737037
381405173,0.24033377,-0.09317078,0.37679055
381425273,0.24033377,-0.0990243,0.37679055
381448171,0.24033377,-0.09609754,0.38605112
381470523,0.24033377,-0.09609754,0.3737037
381493544,0.24033377,-0.09317078,0.37679055
381515180,0.23437029,-0.09609754,0.38296425
381537785,0.23735203,-0.09317078,0.37987742
381559176,0.23437029,-0.09317078,0.37987742
381581545,0.23138854,-0.090244,0.38605112
381603173,0.23138854,-0.090244,0.38296425
381625172,0.23138854,-0.090244,0.38913798
381648173,0.23138854,-0.090244,0.38605112
381669172,0.23437029,-0.09317078,0.38605112
381693173,0.23138854,-0.08731724,0.38605112
381715173,0.23735203,-0.09317078,0.38296425
381735173,0.23437029,-0.09609754,0.37987742
381756173,0.23735203,-0.09317078,0.37679055
381777173,0.23735203,-0.09317078,0.37679055
381800173,0.23735203,-0.090244,0.3737037
381821179,0.24033377,-0.09317078,0.37987742
381843228,0.23437029,-0.090244,0.38296425
381864173,0.24033377,-0.090244,0.38296425
381884174,0.23437029,-0.08439048,0.38296425
381908000,0.23735203,-0.090244,0.38296425
381929280,0.23735203,-0.08731724,0.37679055
381952244,0.23735203,-0.08439048,0.37987742
381975682,0.2433155,-0.090244,0.38605112
381999594,0.23735203,-0.09317078,0.37679055
382023862,0.23735203,-0.09317078,0.37987742
382046231,0.24033377,-0.0990243,0.37679055
382068380,0.2433155,-0.0990243,0.37679055
382091173,0.24033377,-0.09609754,0.38605112
382112784,0.2433155,-0.09609754,0.37061685
382133187,0.24629723,-0.09317078,0.36753
382156502,0.2433155,-0.09317078,0.3737037
382180464,0.2433155,-0.0990243,0.37061685
382203180,0.24033377,-0.09609754,0.37987742
382223179,0.24629723,-0.0990243,0.38296425
382243180,0.2433155,-0.10195106,0.3737037
382263183,0.24033377,-0.0990243,0.38296425
382284244,0.2433155,-0.09609754,0.37987742
382306268,0.2433155,-0.09609754,0.38296425
382327172,0.24033377,-0.09609754,0.3737037
382349288,0.24033377,-0.09609754,0.37679055
382370170,0.2433155,-0.09609754,0.37987742
382393074,0.23735203,-0.0990243,0.38296425
382415173,0.24033377,-0.09317078,0.38296425
382436180,0.24033377,-0.09609754,0.38296425
382458256,0.24033377,-0.09609754,0.37679055
382478440,0.23735203,-0.09609754,0.37987742
382501076,0.23735203,-0.09317078,0.38605112
382523484,0.23735203,-0.090244,0.37987742
382547542,0.23138854,-0.08731724,0.3737037
382571480,0.23138854,-0.08731724,0.38913798
382595473,0.23437029,-0.08439048,0.38296425
382618517,0.23437029,-0.08439048,0.38296425
382640366,0.23437029,-0.08439048,0.38296425
382663967,0.23138854,-0.08146372,0.37987742
382686231,0.23735203,-0.07853695,0.38296425
382708180,0.23735203,-0.08146372,0.38913798
382730172,0.23735203,-0.07853695,0.37987742
382752009,0.2433155,-0.07561019,0.3737037
382773169,0.2433155,-0.07853695,0.38296425
382796521,0.24629723,-0.08439048,0.37987742
382819178,0.24629723,-0.08439048,0.38296425
382842253,0.24927898,-0.08439048,0.3737037
382863175,0.24629723,-0.08146372,0.3737037
382885173,0.24927898,-0.08146372,0.37679055
382907178,0.2522607,-0.08146372,0.37679055
382929180,0.2522607,-0.07853695,0.3737037
382949206,0.24927898,-0.07853695,0.37679055
382973298,0.24927898,-0.07853695,0.37679055
382996172,0.24927898,-0.08146372,0.37679055
383018256,0.24927898,-0.07853695,0.38296425
383040173,0.24629723,-0.08146372,0.38296425
383063231,0.2433155,-0.07853695,0.37679055
383083243,0.24629723,-0.07561019,0.37987742
383103233,0.2433155,-0.07561019,0.37987742
383124301,0.24033377,-0.07561019,0.38296425
383147173,0.24033377,-0.07561019,0.38296425
383169172,0.24033377,-0.07561019,0.37987742
383192180,0.2433155,-0.07561019,0.38296425
383213177,0.2433155,-0.07853695,0.37679055
383235189,0.24033377,-0.08146372,0.37987742
383257173,0.2433155,-0.08146372,0.37987742
383279173,0.24629723,-0.08439048,0.37987742
383299179,0.24629723,-0.08439048,0.37987742
383321179,0.2433155,-0.08146372,0.37679055
383342478,0.2433155,-0.08439048,0.3737037
383366259,0.2433155,-0.08146372,0.37679055
383388179,0.24927898,-0.08146372,0.3737037
383408173,0.2522607,-0.08439048,0.37679055
383431573,0.24927898,-0.08439048,0.37987742
383452173,0.2522607,-0.08731724,0.37061685
383474238,0.25524247,-0.08439048,0.3737037
383497172,0.2522607,-0.08731724,0.37061685
383520182,0.25524247,-0.08731724,0.3737037
383543670,0.25524247,-0.09317078,0.3737037
383565178,0.25524247,-0.08731724,0.37061685
383586253,0.25524247,-0.09317078,0.37061685
383607177,0.25524247,-0.090244,0.37679055
383629172,0.2522607,-0.08731724,0.3737037
383651173,0.24927898,-0.08439048,0.3737037
383673176,0.24927898,-0.08731724,0.37061685
383695180,0.24927898,-0.08731724,0.37987742
383716173,0.2433155,-0.08439048,0.37679055
383738255,0.24629723,-0.08731724,0.37061685
383760173,0.24629723,-0.090244,0.37987742
383783173,0.24033377,-0.08731724,0.37987742
383804173,0.2433155,-0.08731724,0.37987742
383825574,0.2433155,-0.08731724,0.37679055
383846318,0.2433155,-0.090244,0.38605112
383869173,0.24033377,-0.08731724,0.37987742
383890396,0.2433155,-0.08731724,0.3737037
383911179,0.24033377,-0.090244,0.3737037
383933181,0.2433155,-0.08731724,0.3737037
383953176,0.2433155,-0.08731724,0.3737037
383977178,0.24033377,-0.090244,0.37679055
384000175,0.2433155,-0.08731724,0.38296425
384021173,0.2433155,-0.090244,0.37679055
384043204,0.24033377,-0.090244,0.37987742
384063186,0.23735203,-0.09317078,0.38296425
384085173,0.23437029,-0.090244,0.38296425
384106252,0.23735203,-0.09317078,0.38913798
384129173,0.23437029,-0.090244,0.38296425
384150231,0.23735203,-0.090244,0.37987742
384172252,0.23437029,-0.09317078,0.38296425
384193173,0.23138854,-0.090244,0.38605112
384215571,0.23735203,-0.09317078,0.38296425
384239886,0.23437029,-0.09317078,0.37679055
384260290,0.23437029,-0.09609754,0.38913798
384281280,0.23437029,-0.09317078,0.37679055
384303172,0.23735203,-0.090244,0.38296425
384326254,0.23735203,-0.09609754,0.38296425
384348795,0.23437029,-0.090244,0.38296425
384370260,0.23735203,-0.090244,0.37987742
384391172,0.23735203,-0.090244,0.37987742
384412850,0.23437029,-0.09317078,0.38605112
384433186,0.23138854,-0.09317078,0.38605112
384455179,0.23138854,-0.090244,0.38605112
384477652,0.22840682,-0.0990243,0.38913798
384500247,0.22840682,-0.09609754,0.38605112
384521188,0.22840682,-0.09609754,0.38296425
384542254,0.23138854,-0.09317078,0.38913798
384564172,0.22840682,-0.09609754,0.38605112
384586533,0.22840682,-0.09609754,0.39222485
384609180,0.22542506,-0.09317078,0.38605112
384630260,0.22542506,-0.09317078,0.39222485
384650329,0.22542506,-0.09609754,0.38913798
384671173,0.22542506,-0.09317078,0.39222485
384692250,0.22542506,-0.09609754,0.38913798
384713173,0.22542506,-0.09609754,0.38296425
384736307,0.23437029,-0.0990243,0.38605112
384759184,0.23138854,-0.0990243,0.38913798
384781173,0.23735203,-0.0990243,0.38296425
384802492,0.23735203,-0.0990243,0.38296425
384823184,0.24033377,-0.09609754,0.38296425
384846484,0.23735203,-0.0990243,0.38605112
384868173,0.23735203,-0.09609754,0.38296425
384889173,0.24033377,-0.09609754,0.37679055
384910237,0.24033377,-0.09609754,0.37679055
384933175,0.2433155,-0.0990243,0.37987742
384954238,0.24033377,-0.09609754,0.37987742
384976173,0.2433155,-0.0990243,0.37061685
384997077,0.2433155,-0.0990243,0.3737037
385020061,0.24927898,-0.09609754,0.37987742
385042091,0.24629723,-0.0990243,0.3737037
385064760,0.24927898,-0.10195106,0.3737037
385086086,0.24629723,-0.10487783,0.38296425
385109483,0.2433155,-0.10487783,0.38296425
385133300,0.24927898,-0.10195106,0.37679055
385157557,0.24629723,-0.0990243,0.37061685
385180398,0.24629723,-0.10487783,0.3737037
385203173,0.24629723,-0.10487783,0.37987742
385225515,0.2433155,-0.10487783,0.37061685
385247185,0.2433155,-0.10487783,0.37679055
385269280,0.2433155,-0.10487783,0.3737037
385291173,0.2433155,-0.10487783,0.37061685
385313543,0.24629723,-0.10487783,0.37061685
385334312,0.2433155,-0.10487783,0.37061685
385356175,0.2433155,-0.10487783,0.3737037
385377180,0.2433155,-0.10487783,0.37679055
385398342,0.2433155,-0.1078046,0.37061685
385422093,0.2433155,-0.10487783,0.37987742
385444039,0.24033377,-0.1078046,0.3737037
385466324,0.24629723,-0.1078046,0.37061685
385489173,0.2433155,-0.1078046,0.37061685
385510491,0.2433155,-0.1078046,0.37987742
385532173,0.24629723,-0.10487783,0.37679055
385553188,0.24629723,-0.1078046,0.36753
385575472,0.24927898,-0.1078046,0.37061685
385599664,0.24927898,-0.1078046,0.36753
385621137,0.2522607,-0.1078046,0.37061685
385644036,0.24927898,-0.1078046,0.37061685
385666089,0.2522607,-0.11073136,0.37061685
385689173,0.25524247,-0.11073136,0.36753
385710236,0.25524247,-0.11073136,0.36444312
385733185,0.25524247,-0.11073136,0.37061685
385754231,0.2582242,-0.11073136,0.3613563
385776179,0.2582242,-0.11073136,0.36444312
385796749,0.2612059,-0.1078046,0.3613563
385819125,0.2612059,-0.1078046,0.36444312
385842253,0.2612059,-0.1078046,0.36444312
385863180,0.2582242,-0.1078046,0.3613563
385885181,0.2612059,-0.10487783,0.36444312
385905278,0.2612059,-0.10487783,0.3613563
385928392,0.2612059,-0.1078046,0.3613563
385950130,0.2612059,-0.10487783,0.36444312
385972173,0.2582242,-0.1078046,0.36753
385994256,0.2612059,-0.10487783,0.3613563
386015245,0.2582242,-0.1078046,0.36444312
386036296,0.2582242,-0.1078046,0.36444312
386059186,0.2582242,-0.1078046,0.36444312
386080173,0.2612059,-0.11073136,0.36444312
386103186,0.2612059,-0.11365812,0.36444312
386124172,0.25524247,-0.11073136,0.3613563
386146387,0.2612059,-0.1078046,0.36753
386168172,0.2612059,-0.11073136,0.3613563
386189172,0.2582242,-0.11073136,0.37061685
386210527,0.2582242,-0.1078046,0.37061685
386232173,0.2612059,-0.1078046,0.36444312
386254480,0.2582242,-0.11365812,0.36753
386278483,0.2582242,-0.1078046,0.3737037
386302477,0.25524247,-0.1078046,0.37061685
386323912,0.25524247,-0.1078046,0.36753
386344179,0.2582242,-0.1078046,0.36753
386367883,0.2522607,-0.1078046,0.37061685
386388292,0.2522607,-0.10487783,0.36753
386411903,0.2522607,-0.10195106,0.37061685
386434231,0.2522607,-0.10195106,0.3737037
386458233,0.25524247,-0.10195106,0.36753
386480176,0.2522607,-0.10487783,0.36444312
386500255,0.24927898,-0.1078046,0.3737037
386522239,0.2522607,-0.10487783,0.37061685
386545180,0.25524247,-0.10487783,0.36444312
386567173,0.25524247,-0.10487783,0.36444312
386588717,0.2522607,-0.10487783,0.3737037
386609173,0.2522607,-0.10487783,0.37061685
386631173,0.2522607,-0.10195106,0.3737037
386654258,0.2522607,-0.10487783,0.37061685
386675173,0.2522607,-0.10487783,0.37061685
386697321,0.2522607,-0.10487783,0.37061685
386720173,0.24927898,-0.10195106,0.36444312
386743173,0.25524247,-0.10487783,0.37061685
386765556,0.2582242,-0.10487783,0.36753
386788246,0.25524247,-0.10487783,0.3737037
386811173,0.2522607,-0.10487783,0.36753
386831173,0.25524247,-0.10195106,0.36753
386854269,0.2582242,-0.10195106,0.36753
386874350,0.2582242,-0.10195106,0.37061685
386895179,0.2582242,-0.0990243,0.36444312
386917180,0.2612059,-0.0990243,0.3737037
386937185,0.2582242,-0.0990243,0.3613563
386960173,0.2582242,-0.0990243,0.36444312
386981173,0.2582242,-0.0990243,0.3613563
387002480,0.2612059,-0.0990243,0.36753
387024173,0.2612059,-0.0990243,0.36753
387045173,0.2582242,-0.09317078,0.36753
387066486,0.2582242,-0.0990243,0.36753
387088173,0.2582242,-0.09609754,0.3737037
387108245,0.25524247,-0.09609754,0.36753
387129173,0.25524247,-0.09317078,0.37061685
387151755,0.2612059,-0.09609754,0.36444312
387175664,0.2612059,-0.09609754,0.3737037
387196173,0.25524247,-0.0990243,0.37061685
387220144,0.2582242,-0.09609754,0.37061685
387241173,0.25524247,-0.09609754,0.36753
387263563,0.2582242,-0.09609754,0.36753
387287173,0.2612059,-0.09609754,0.37061685
387310263,0.2582242,-0.09317078,0.37679055
387332391,0.25524247,-0.090244,0.37061685
387356392,0.2612059,-0.090244,0.36753
387377179,0.2612059,-0.090244,0.37061685
387398253,0.2582242,-0.090244,0.37061685
387419179,0.2582242,-0.090244,0.37679055
387440176,0.2582242,-0.090244,0.36753
387461180,0.2612059,-0.090244,0.3737037
387482258,0.25524247,-0.08439048,0.37061685
387503173,0.2582242,-0.08439048,0.3737037
387524244,0.2582242,-0.08731724,0.37061685
387546330,0.2582242,-0.08439048,0.37061685
387569175,0.25524247,-0.08439048,0.3737037
387590264,0.25524247,-0.08731724,0.36753
387613173,0.2582242,-0.08731724,0.37679055
387637173,0.2582242,-0.08146372,0.37679055
387661186,0.2522607,-0.08146372,0.3737037
387683186,0.25524247,-0.08146372,0.38296425
387703173,0.2522607,-0.07853695,0.37061685
387725173,0.2582242,-0.08146372,0.36753
387747310,0.2522607,-0.07853695,0.37061685
387769173,0.2522607,-0.07853695,0.37061685
387790474,0.25524247,-0.07853695,0.37679055
387811182,0.2522607,-0.08146372,0.37987742
387832176,0.25524247,-0.07853695,0.37679055
387855905,0.25524247,-0.08146372,0.3737037
387879967,0.2582242,-0.08439048,0.37061685
387902231,0.2582242,-0.08146372,0.3737037
387924245,0.2582242,-0.08146372,0.36753
387945173,0.2612059,-0.08439048,0.36753
387966232,0.2612059,-0.08146372,0.36444312
387988172,0.2612059,-0.08146372,0.36753
388010231,0.2612059,-0.08439048,0.37061685
388033184,0.2612059,-0.08439048,0.3737037
388054268,0.26418763,-0.08439048,0.36753
388075172,0.27015114,-0.090244,0.3613563
388096732,0.27015114,-0.090244,0.3613563
388117173,0.27313286,-0.09317078,0.35518256
388139173,0.27313286,-0.09317078,0.35826942
388160951,0.2761146,-0.09317078,0.345922
388183130,0.2761146,-0.09609754,0.35826942
388205258,0.27909634,-0.09609754,0.345922
388227313,0.2820781,-0.0990243,0.35209572
388249652,0.2820781,-0.09609754,0.35518256
388272180,0.28505984,-0.09609754,0.345922
388293184,0.28804156,-0.0990243,0.345922
388314435,0.29102328,-0.09609754,0.345922
388337282,0.29102328,-0.09609754,0.33666143
388358310,0.2999685,-0.0990243,0.3397483
388381175,0.2999685,-0.0990243,0.33357456
388403173,0.30295023,-0.0990243,0.3274009
388424173,0.305932,-0.09609754,0.324314
388446254,0.305932,-0.09609754,0.324314
388469172,0.30891374,-0.09609754,0.324314
388490476,0.31487718,-0.09317078,0.3274009
388513173,0.31487718,-0.090244,0.32122716
388534493,0.31487718,-0.090244,0.31814033
388558492,0.32084066,-0.08731724,0.31505343
388580255,0.3238224,-0.08731724,0.31505343
388601176,0.32084066,-0.08439048,0.31505343
388623660,0.32680416,-0.08146372,0.31505343
388648173,0.32978588,-0.07561019,0.30887973
388671696,0.3327676,-0.07268342,0.30270603
388692294,0.32978588,-0.07268342,0.30270603
388713280,0.33574936,-0.06682989,0.30270603
388736173,0.3387311,-0.06682989,0.30270603
388759561,0.34171283,-0.060976364,0.29344544
388781185,0.34171283,-0.05512283,0.29961917
388803173,0.34469455,-0.05512283,0.29344544
388825173,0.34469455,-0.049269304,0.29961917
388845605,0.34469455,-0.043415774,0.29653233
388867182,0.34469455,-0.043415774,0.29344544
388889181,0.3476763,-0.04048901,0.28727177
388912452,0.35065803,-0.03463548,0.28418487
388934493,0.35065803,-0.028781949,0.28418487
388956035,0.3476763,-0.028781949,0.28418487
388979173,0.35065803,-0.02292842,0.29344544
389001186,0.35363978,-0.01707489,0.29344544
389022517,0.3476763,-0.011221362,0.29344544
389044035,0.35065803,-0.0053678327,0.28418487
389066431,0.35065803,0.0004856967,0.28418487
389089137,0.35065803,0.0004856967,0.28418487
389112173,0.35363978,0.006339226,0.2780112
389133173,0.35363978,0.012192755,0.28109804
389155173,0.35363978,0.018046284,0.2780112
389176179,0.35363978,0.02097305,0.28109804
389198286,0.35662153,0.02682658,0.28109804
389222085,0.35363978,0.03268011,0.28727177
389244179,0.35363978,0.035606872,0.27492434
389265180,0.35065803,0.041460402,0.28418487
389287353,0.3476763,0.047313932,0.28109804
389310503,0.34469455,0.05316746,0.28418487
389333076,0.34469455,0.05902099,0.28109804
389355930,0.34469455,0.064874515,0.28109804
389377172,0.3387311,0.06780129,0.28418487
389400513,0.33574936,0.07072805,0.27183747
389423859,0.3387311,0.07950834,0.2903586
389448179,0.33574936,0.085361876,0.28418487
389471565,0.32978588,0.0912154,0.28418487
389492173,0.32680416,0.097068936,0.28418487
389513173,0.32680416,0.10292246,0.2780112
389535179,0.3238224,0.10877599,0.2780112
389557281,0.32084066,0.11462952,0.28109804
389580758,0.31487718,0.12048305,0.28109804
389601173,0.30891374,0.12340981,0.28109804
389622253,0.30891374,0.12633657,0.2780112
389643183,0.30891374,0.13219011,0.27492434
389666253,0.30295023,0.13511686,0.28109804
389687173,0.2999685,0.14097041,0.28418487
389710259,0.30295023,0.14682393,0.28109804
389731173,0.30295023,0.15267746,0.27183747
389752173,0.2999685,0.15267746,0.27183747
389775172,0.2999685,0.15853098,0.28109804
389797343,0.29400504,0.16438451,0.28418487
389818503,0.29400504,0.17316481,0.2780112
389840173,0.29102328,0.17609158,0.2780112
389861173,0.29102328,0.1819451,0.2780112
389883215,0.28804156,0.1819451,0.27183747
389904173,0.28804156,0.18779863,0.27183747
389924173,0.28804156,0.1907254,0.26566377
389944173,0.28505984,0.19657893,0.27183747
389965172,0.28505984,0.19657893,0.2625769
389986475,0.28505984,0.1995057,0.2625769
390010475,0.28505984,0.1995057,0.2625769
390034488,0.27909634,0.20535922,0.26566377
390055172,0.2761146,0.21121275,0.26566377
390077172,0.27313286,0.21121275,0.25949004
390099567,0.27313286,0.21413952,0.2687506
390123580,0.27015114,0.21999305,0.25949004
390147720,0.27015114,0.21999305,0.27183747
390170245,0.26716942,0.22877333,0.2564032
390191949,0.26418763,0.22877333,0.25949004
390212179,0.26418763,0.22877333,0.2625769
390232176,0.2612059,0.22877333,0.27183747
390253173,0.2612059,0.23170011,0.25949004
390275172,0.2612059,0.23462687,0.25949004
390297661,0.2612059,0.23755363,0.26566377
390318315,0.2582242,0.23755363,0.25331634
390339231,0.25524247,0.23462687,0.26566377
390362075,0.2582242,0.2404804,0.25949004
390385659,0.2522607,0.24340716,0.25949004
390407179,0.2522607,0.24633393,0.25949004
390429179,0.24927898,0.24633393,0.25331634
390451179,0.2522607,0.24926068,0.25949004
390473727,0.24629723,0.24926068,0.2564032
390495178,0.24927898,0.24926068,0.2564032
390517263,0.24927898,0.24633393,0.25331634
390538254,0.24927898,0.24926068,0.24714264
390559173,0.24927898,0.25218746,0.2564032
390580175,0.24629723,0.25218746,0.25331634
390601173,0.2433155,0.24926068,0.2564032
390624173,0.2433155,0.24926068,0.25331634
390644173,0.2433155,0.25511423,0.2625769
390664173,0.24033377,0.25218746,0.25949004
390686092,0.24033377,0.25218746,0.2564032
390708170,0.23735203,0.25218746,0.26566377
390730472,0.23437029,0.25218746,0.25949004
390752290,0.23437029,0.24926068,0.2625769
390773176,0.23437029,0.25218746,0.2625769
390794484,0.23138854,0.25218746,0.25949004
390817080,0.23138854,0.24926068,0.2687506
390839584,0.23138854,0.24926068,0.27492434
390863566,0.22542506,0.24633393,0.27492434
390885173,0.22542506,0.24340716,0.27183747
390906238,0.22542506,0.24340716,0.2780112
390928179,0.22244334,0.24340716,0.27183747
390948914,0.2194616,0.2404804,0.2780112
390971949,0.21349813,0.24340716,0.28109804
390994091,0.20753466,0.2404804,0.28727177
391017175,0.21051638,0.23755363,0.29653233
391039173,0.20753466,0.23755363,0.29653233
391061472,0.20157117,0.23462687,0.29961917
391085321,0.20455292,0.23462687,0.3057929
391108479,0.19858944,0.23170011,0.30887973
391130449,0.19858944,0.22877333,0.3119666
391152829,0.19560769,0.22877333,0.30887973
391174161,0.19560769,0.22584657,0.3119666
391197188,0.19560769,0.22584657,0.31814033
391220173,0.19560769,0.22584657,0.31505343
391243173,0.19560769,0.2229198,0.32122716
391265574,0.18964423,0.22584657,0.3119666
391287173,0.19560769,0.22584657,0.31505343
391309342,0.19560769,0.22584657,0.31505343
391330377,0.20157117,0.22584657,0.31505343
391351229,0.19858944,0.22584657,0.30887973
391373173,0.20455292,0.22584657,0.30887973
391395173,0.20455292,0.22584657,0.30887973
391417178,0.20455292,0.22584657,0.30887973
391440173,0.20157117,0.22877333,0.30887973
391461451,0.20157117,0.22877333,0.3057929
391482475,0.19858944,0.23170011,0.30887973
391503173,0.20157117,0.23170011,0.30887973
391525173,0.20157117,0.22877333,0.3119666
391547180,0.19858944,0.22877333,0.3119666
391570480,0.19858944,0.22584657,0.30887973
391593179,0.20157117,0.22584657,0.3119666
391614232,0.19858944,0.2229198,0.31814033
391637179,0.20455292,0.2229198,0.30887973
391657173,0.20157117,0.2229198,0.31505343
391678231,0.20753466,0.22584657,0.3119666
391699946,0.20455292,0.2229198,0.30887973
391720178,0.20455292,0.22584657,0.30887973
391743896,0.21051638,0.22584657,0.30887973
391767172,0.20455292,0.22584657,0.30887973
391790257,0.21349813,0.22584657,0.30887973
391810253,0.20753466,0.22584657,0.3057929
391831172,0.20753466,0.22877333,0.3057929
391854260,0.21349813,0.22584657,0.29961917
391875173,0.20753466,0.22584657,0.29653233
391896382,0.20753466,0.2229198,0.3057929
391918467,0.21051638,0.2229198,0.30270603
391940050,0.21349813,0.22584657,0.3057929
391963173,0.21051638,0.2229198,0.29961917
391984242,0.21349813,0.2229198,0.29344544
392006254,0.21349813,0.2229198,0.3057929
392027173,0.21051638,0.22584657,0.29961917
392049201,0.21349813,0.22584657,0.29653233
392071210,0.21647985,0.22584657,0.3057929
392092172,0.21647985,0.22584657,0.3057929
392113172,0.21647985,0.2229198,0.30270603
392135182,0.21349813,0.22584657,0.29961917
392156180,0.21647985,0.2229198,0.30270603
392178322,0.21051638,0.2229198,0.3057929
392200177,0.20753466,0.22877333,0.30270603
392222500,0.21051638,0.22877333,0.30270603
392246475,0.20753466,0.22877333,0.30270603
392270482,0.20753466,0.22584657,0.30887973
392294483,0.20455292,0.22584657,0.30887973
392317183,0.20157117,0.22584657,0.30887973
392338250,0.19858944,0.22877333,0.30887973
392361173,0.19858944,0.22877333,0.31505343
392383705,0.19560769,0.22877333,0.30887973
392407681,0.18964423,0.22584657,0.31814033
392430239,0.18368076,0.22584657,0.31505343
392452173,0.18368076,0.2229198,0.32122716
392473172,0.180699,0.22584657,0.32122716
392495589,0.17771728,0.22584657,0.324314
392517173,0.17473553,0.22584657,0.324314
392538172,0.17771728,0.22584657,0.3274009
392558667,0.16877207,0.22584657,0.3274009
392581968,0.1628086,0.22877333,0.324314
392603134,0.16579032,0.22584657,0.33048773
392626254,0.15684512,0.22584657,0.3274009
392648374,0.15684512,0.22877333,0.3274009
392670363,0.15684512,0.2229198,0.33048773
392693572,0.15386339,0.2229198,0.33357456
392716051,0.15088163,0.22584657,0.33357456
392739173,0.14789991,0.2229198,0.345922
392760179,0.14789991,0.22584657,0.33666143
392782266,0.14193644,0.22584657,0.33357456
392803185,0.13597295,0.22584657,0.34283516
392825187,0.13597295,0.2229198,0.3397483
392848244,0.13299122,0.22877333,0.33666143
392870268,0.13000947,0.22584657,0.34283516
392893173,0.12702775,0.2229198,0.3397483
392915175,0.13000947,0.22584657,0.33666143
392937173,0.12106427,0.22877333,0.345922
392960247,0.124046005,0.22584657,0.34900886
392981173,0.12106427,0.22584657,0.345922
393002475,0.11808253,0.2229198,0.345922
393025173,0.11211905,0.22584657,0.35209572
393047173,0.115100786,0.2229198,0.345922
393071179,0.10615558,0.2229198,0.34900886
393092245,0.103173845,0.2229198,0.34900886
393113173,0.09721036,0.2229198,0.35209572
393135653,0.094228625,0.2229198,0.35518256
393159606,0.094228625,0.2229198,0.35826942
393183666,0.08826516,0.21999305,0.345922
393206231,0.082301676,0.21706627,0.36444312
393229173,0.07931994,0.21706627,0.35826942
393250231,0.070374735,0.21413952,0.36444312
393271173,0.070374735,0.21413952,0.36444312
393292816,0.06441125,0.21121275,0.3737037
393314172,0.06441125,0.21121275,0.35826942
393334666,0.05546604,0.21413952,0.36753
393357686,0.052484304,0.21121275,0.37061685
393379180,0.052484304,0.21121275,0.36444312
393401493,0.04652083,0.21121275,0.36753
393424045,0.043539092,0.20828599,0.3737037
393447173,0.040557355,0.21121275,0.37679055
393468173,0.043539092,0.20828599,0.36753
393490254,0.040557355,0.20828599,0.37987742
393511173,0.040557355,0.20828599,0.36753
393532173,0.040557355,0.20828599,0.37987742
393554255,0.043539092,0.20243245,0.38605112
393574413,0.040557355,0.20828599,0.36753
393597074,0.03459388,0.20828599,0.37061685
393620180,0.037575617,0.20828599,0.36753
393641179,0.037575617,0.20828599,0.37061685
393665282,0.03459388,0.20828599,0.37061685
393689173,0.03459388,0.21121275,0.37061685
393710473,0.031612143,0.21121275,0.3737037
393733180,0.028630406,0.21121275,0.3613563
393754476,0.025648668,0.21999305,0.38913798
393775172,0.031612143,0.21413952,0.37061685
393796180,0.031612143,0.21706627,0.36444312
393818248,0.03459388,0.21999305,0.36753
393840344,0.031612143,0.2229198,0.35209572
393863926,0.037575617,0.22877333,0.37061685
393887991,0.037575617,0.22877333,0.35826942
393909173,0.04652083,0.23170011,0.34900886
393931683,0.043539092,0.23462687,0.35518256
393952173,0.049502566,0.23462687,0.35518256
393973186,0.052484304,0.23755363,0.345922
393994232,0.052484304,0.2404804,0.34283516
394017173,0.049502566,0.24340716,0.3613563
394038271,0.052484304,0.24340716,0.345922
394059173,0.052484304,0.24926068,0.345922
394081588,0.052484304,0.24926068,0.33666143
394102527,0.052484304,0.24926068,0.35209572
394124468,0.049502566,0.25218746,0.3397483
394147172,0.05546604,0.25218746,0.33048773
394169560,0.058447782,0.25218746,0.33357456
394191175,0.052484304,0.24926068,0.33666143
394213174,0.05546604,0.24633393,0.33666143
394235173,0.058447782,0.24633393,0.345922
394256172,0.058447782,0.24633393,0.33048773
394279173,0.061429515,0.24633393,0.345922
394299327,0.061429515,0.2404804,0.345922
394321075,0.061429515,0.24340716,0.3397483
394344173,0.061429515,0.24633393,0.33357456
394366258,0.06441125,0.2404804,0.345922
394389184,0.06739299,0.24340716,0.345922
394413279,0.070374735,0.2404804,0.345922
394437173,0.070374735,0.2404804,0.345922
394458487,0.070374735,0.2404804,0.34900886
394479172,0.070374735,0.23755363,0.34283516
394500179,0.070374735,0.2404804,0.34900886
394521179,0.070374735,0.23755363,0.345922
394541172,0.06739299,0.23462687,0.345922
394563970,0.070374735,0.23170011,0.34900886
394584246,0.070374735,0.23462687,0.345922
394606245,0.06739299,0.23462687,0.345922
394628871,0.07335647,0.23170011,0.34900886
394649180,0.07335647,0.23170011,0.35826942
394671583,0.07335647,0.23170011,0.3613563
394692843,0.07335647,0.23170011,0.35518256
394716092,0.07335647,0.22877333,0.35518256
394737173,0.07931994,0.22584657,0.35518256
394760369,0.07931994,0.22584657,0.35826942
394783173,0.0763382,0.22877333,0.35518256
394805173,0.082301676,0.22877333,0.35826942
394825173,0.07931994,0.22584657,0.35209572
394848719,0.08826516,0.22877333,0.345922
394872392,0.08528341,0.23170011,0.35826942
394896387,0.08528341,0.23462687,0.345922
394919173,0.091246895,0.23462687,0.345922
394940173,0.08826516,0.23755363,0.345922
394961555,0.094228625,0.23462687,0.3397483
394984173,0.091246895,0.2404804,0.33048773
395007186,0.094228625,0.23755363,0.33666143
395028173,0.09721036,0.23755363,0.345922
395050390,0.094228625,0.23755363,0.3397483
395073199,0.09721036,0.23755363,0.34283516
395094263,0.09721036,0.2404804,0.33666143
395118318,0.09721036,0.23755363,0.34283516
395141178,0.09721036,0.2404804,0.345922
395162353,0.1001921,0.2404804,0.3397483
395184250,0.094228625,0.2404804,0.33666143
395206503,0.091246895,0.2404804,0.33666143
395229186,0.091246895,0.24340716,0.34283516
395250477,0.094228625,0.2404804,0.345922
395272173,0.094228625,0.2404804,0.35518256
395294471,0.08826516,0.2404804,0.345922
395317173,0.094228625,0.24633393,0.33048773
395339566,0.094228625,0.24633393,0.33357456
395362231,0.091246895,0.24340716,0.33666143
395385178,0.091246895,0.2404804,0.33666143
395405173,0.091246895,0.23755363,0.3397483
395427706,0.091246895,0.2404804,0.3397483
395452297,0.091246895,0.23755363,0.34283516
395476179,0.09721036,0.2404804,0.33666143
395496176,0.1001921,0.23755363,0.34283516
395516387,0.1001921,0.2404804,0.34283516
395537173,0.103173845,0.23755363,0.3397483
395559173,0.10615558,0.23755363,0.3397483
395581173,0.10615558,0.2404804,0.3397483
395602267,0.10913732,0.23755363,0.33357456
395625626,0.10615558,0.23462687,0.33048773
395647180,0.10913732,0.23755363,0.3397483
395670254,0.10913732,0.23462687,0.34283516
395692173,0.10913732,0.23462687,0.3397483
395713748,0.10615558,0.2404804,0.34283516
395736048,0.10913732,0.23755363,0.3397483
395759173,0.10615558,0.23755363,0.3397483
395780173,0.103173845,0.2404804,0.34283516
395802254,0.103173845,0.23462687,0.345922
395824290,0.1001921,0.23462687,0.3397483
395845172,0.103173845,0.23462687,0.3397483
395867315,0.10615558,0.23170011,0.34283516
395889076,0.10615558,0.23170011,0.345922
395913172,0.10913732,0.23170011,0.345922
395936173,0.10615558,0.23170011,0.34283516
395957173,0.11211905,0.23462687,0.3397483
395980173,0.10913732,0.23170011,0.345922
396001179,0.10615558,0.22877333,0.33666143
396023462,0.10913732,0.23170011,0.34283516
396047530,0.11211905,0.22877333,0.345922
396072296,0.11211905,0.23170011,0.35826942
396096172,0.10913732,0.22877333,0.3397483
396119569,0.10913732,0.23170011,0.345922
396140176,0.10913732,0.22584657,0.345922
396162231,0.10913732,0.22877333,0.3397483
396185172,0.10913732,0.22877333,0.345922
396207690,0.10913732,0.23170011,0.33666143
396230231,0.10615558,0.23170011,0.3397483
396253173,0.10913732,0.23170011,0.3397483
396275176,0.10913732,0.23170011,0.34283516
396296744,0.10615558,0.22877333,0.345922
396317173,0.10615558,0.23170011,0.345922
396339173,0.10913732,0.23170011,0.345922
396360783,0.10615558,0.22877333,0.345922
396383173,0.10913732,0.22877333,0.34900886
396406172,0.10913732,0.22877333,0.35209572
396426253,0.10615558,0.22877333,0.34900886
396447173,0.11211905,0.23170011,0.34283516
396468248,0.10913732,0.22877333,0.345922
396490388,0.10913732,0.22877333,0.33666143
396511180,0.115100786,0.23170011,0.34283516
396531220,0.11211905,0.22877333,0.33666143
396555179,0.115100786,0.22584657,0.3397483
396577172,0.11808253,0.22877333,0.345922
396600245,0.115100786,0.22877333,0.3397483
396622088,0.115100786,0.22877333,0.34283516
396645173,0.115100786,0.22584657,0.34283516
396667173,0.11808253,0.22877333,0.34283516
396688246,0.11808253,0.22877333,0.345922
396709148,0.11808253,0.22877333,0.3397483
396730078,0.12106427,0.23170011,0.33357456
396753172,0.12106427,0.23170011,0.3397483
396775477,0.12106427,0.23462687,0.33666143
396799482,0.11808253,0.23462687,0.345922
396823991,0.12106427,0.23170011,0.3397483
396845136,0.11808253,0.23170011,0.34283516
396868023,0.12106427,0.22877333,0.34283516
396889173,0.11808253,0.22877333,0.34283516
396912180,0.12106427,0.23170011,0.34283516
396935594,0.11808253,0.23170011,0.345922
396956176,0.11808253,0.23462687,0.3397483
396977180,0.11808253,0.23462687,0.33666143
396999574,0.11808253,0.23170011,0.34283516
397021280,0.12106427,0.23462687,0.33666143
397043172,0.115100786,0.23170011,0.3397483
397065172,0.11808253,0.23170011,0.3397483
397087173,0.11808253,0.22584657,0.34900886
397109600,0.11808253,0.23170011,0.34283516
397131179,0.115100786,0.22584657,0.3397483
397153179,0.11808253,0.22877333,0.33666143
397174454,0.11808253,0.22877333,0.345922
397197720,0.11808253,0.22877333,0.3397483
397220180,0.12106427,0.22877333,0.34283516
397243173,0.11808253,0.22877333,0.3397483
397265173,0.12106427,0.22877333,0.34283516
397287185,0.11808253,0.22584657,0.34283516
397309173,0.124046005,0.23170011,0.34283516
397331173,0.12106427,0.22584657,0.345922
397353281,0.124046005,0.23170011,0.3397483
397376179,0.124046005,0.22584657,0.3397483
397397180,0.124046005,0.23170011,0.34283516
397421179,0.12702775,0.22584657,0.3397483
397443173,0.12702775,0.23170011,0.345922
397465173,0.12702775,0.22877333,0.34283516
397486482,0.13000947,0.23170011,0.33666143
397510490,0.13000947,0.22584657,0.3397483
397535176,0.13000947,0.22584657,0.33666143
397558290,0.12702775,0.22584657,0.3397483
397581190,0.13000947,0.2229198,0.34283516
397602259,0.12702775,0.22584657,0.3397483
397625185,0.13000947,0.22584657,0.34283516
397647697,0.12702775,0.22877333,0.345922
397671586,0.13000947,0.2229198,0.345922
397694231,0.124046005,0.22584657,0.33666143
397717173,0.12702775,0.2229198,0.3397483
397740176,0.12702775,0.22584657,0.3397483
397761173,0.12702775,0.2229198,0.34900886
397781186,0.124046005,0.22584657,0.345922
397804764,0.12702775,0.2229198,0.345922
397825294,0.124046005,0.2229198,0.34900886
397846311,0.13000947,0.22584657,0.34900886
397867230,0.12702775,0.2229198,0.345922
397890268,0.12702775,0.2229198,0.345922
397911172,0.12702775,0.2229198,0.34900886
397932172,0.13299122,0.21999305,0.3397483
397954254,0.13000947,0.21999305,0.345922
397975179,0.13000947,0.21706627,0.345922
397997192,0.13299122,0.21999305,0.34900886
398020172,0.13299122,0.21999305,0.34900886
398044176,0.13000947,0.21999305,0.34900886
398065173,0.13299122,0.22584657,0.345922
398088173,0.13299122,0.21999305,0.3397483
398109173,0.13299122,0.21999305,0.3397483
398130417,0.13597295,0.21999305,0.34283516
398152173,0.13299122,0.2229198,0.3397483
398173179,0.13299122,0.21999305,0.345922
398195173,0.13299122,0.21999305,0.3397483
398217281,0.13597295,0.21999305,0.34900886
398240173,0.13299122,0.2229198,0.345922
398262472,0.13000947,0.21999305,0.35209572
398286495,0.13000947,0.2229198,0.34283516
398310476,0.12702775,0.2229198,0.345922
398333186,0.13000947,0.2229198,0.34283516
398354231,0.12702775,0.2229198,0.3397483
398375563,0.13299122,0.2229198,0.34283516
398396173,0.13000947,0.21999305,0.345922
398417180,0.13299122,0.2229198,0.345922
398440177,0.13299122,0.21999305,0.345922
398462231,0.13000947,0.21999305,0.345922
398484297,0.13299122,0.21706627,0.345922
