timestamp,time_utc_usec,lat,lon,alt,alt_ellipsoid,s_variance_m_s,c_variance_rad,eph,epv,hdop,vdop,noise_per_ms,jamming_indicator,vel_m_s,vel_n_m_s,vel_e_m_s,vel_d_m_s,cog_rad,timestamp_time_relative,heading,heading_offset,fix_type,vel_ned_valid,satellites_used
367780400,1562952287800433,323874676,-1170762751,19723,-14721,0.32200003,0.7176776,0.84700006,1.741,0.83,1.5,53,3,0.051000003,0.040000003,0.031000001,-0.101,3.9680946,0,nan,0.0,4,1,14
367977266,1562952288000433,323874675,-1170762747,19671,-14773,0.33200002,0.71769035,0.83800006,1.7350001,0.83,1.5,53,3,0.031000001,0.018000001,0.025,-0.141,3.9680946,0,nan,0.0,4,1,14
368178473,1562952288200433,323874675,-1170762744,19753,-14691,0.425,0.6564075,0.841,1.7390001,0.83,1.5,53,3,0.37800002,-0.22600001,0.303,-0.064,3.0120413,0,nan,0.0,4,1,14
368371543,1562952288400433,323874668,-1170762738,19588,-14856,0.282,0.65641934,0.83100003,1.7270001,0.83,1.5,53,3,0.10300001,-0.058000002,-0.085,-0.125,3.0120413,0,nan,0.0,4,1,14
368576277,1562952288600433,323874661,-1170762735,19444,-15000,0.328,0.6564329,0.82100004,1.723,0.83,1.5,53,3,0.05,0.001,0.05,-0.105000004,3.0120413,0,nan,0.0,4,1,14
368770303,1562952288800433,323874661,-1170762734,19411,-15033,0.29200003,0.65644515,0.818,1.725,0.87,1.66,53,3,0.147,0.083000004,-0.12200001,0.026,3.0120413,0,nan,0.0,4,1,13
368974566,1562952289000433,323874662,-1170762735,19390,-15054,0.27600002,0.6564567,0.81600004,1.7260001,0.87,1.66,53,3,0.163,0.128,-0.101,-0.006,3.0120413,0,nan,0.0,4,1,13
369177324,1562952289200433,323874664,-1170762736,19365,-15079,0.323,0.6564701,0.818,1.7290001,0.87,1.66,58,2,0.126,0.123,-0.027,-0.05,3.0120413,0,nan,0.0,4,1,13
369368285,1562952289400433,323874664,-1170762735,19382,-15062,0.324,0.65648377,0.82100004,1.7340001,0.87,1.66,58,2,0.120000005,-0.116000004,0.030000001,-0.093,3.0120413,0,nan,0.0,4,1,13
369577930,1562952289600433,323874661,-1170762733,19355,-15089,0.303,0.6564963,0.823,1.7370001,0.87,1.66,58,2,0.112,-0.068,0.08800001,-0.074,3.0120413,0,nan,0.0,4,1,13
369776307,1562952289800433,323874660,-1170762729,19341,-15103,0.21200001,0.6565052,0.81600004,1.7290001,0.83,1.5,58,2,0.098000005,-0.019000001,0.097,-0.044000003,3.0120413,0,nan,0.0,4,1,14
369977263,1562952290000433,323874660,-1170762727,19359,-15085,0.35000002,0.6565199,0.809,1.725,0.83,1.5,58,2,0.012,0.009000001,0.008,-0.164,3.0120413,0,nan,0.0,4,1,14
370181269,1562952290200433,323874659,-1170762725,19339,-15105,0.30800003,0.6565326,0.81000006,1.7270001,0.83,1.5,58,3,0.15400001,-0.086,0.128,-0.09200001,3.0120413,0,nan,0.0,4,1,14
370374358,1562952290400434,323874659,-1170762723,19324,-15120,0.35200003,0.65654725,0.814,1.733,0.83,1.5,58,3,0.106000006,0.10300001,0.024,-0.18900001,3.0120413,0,nan,0.0,4,1,14
370570479,1562952290600434,323874655,-1170762727,19142,-15302,0.35700002,0.6565715,0.80500007,1.72,0.87,1.66,58,3,0.16800001,0.135,-0.1,-0.555,3.0120413,0,nan,0.0,4,1,13
370772664,1562952290800434,323874659,-1170762728,19301,-15143,0.36600003,0.65661114,0.80600005,1.7240001,0.87,1.66,58,3,0.17400001,0.16100001,0.064,-0.93000007,3.0120413,0,nan,0.0,4,1,13
370974302,1562952291000434,323874660,-1170762728,19490,-14954,0.351,0.65666384,0.80500007,1.725,0.87,1.66,58,3,0.037,-0.031000001,0.020000001,-1.2650001,3.0120413,0,nan,0.0,4,1,13
371179223,1562952291200434,323874659,-1170762728,19707,-14737,0.354,0.6567314,0.804,1.725,0.83,1.5,58,1,0.031000001,-0.008,0.030000001,-1.616,3.0120413,0,nan,0.0,4,1,14
371375211,1562952291400434,323874659,-1170762727,20009,-14435,0.37800002,0.6568117,0.80600005,1.7310001,0.83,1.5,58,1,0.068,0.055000003,-0.040000003,-1.9240001,3.0120413,0,nan,0.0,4,1,14
371575938,1562952291600434,323874660,-1170762726,20381,-14063,0.39200002,0.6569073,0.81200004,1.7390001,0.83,1.5,58,1,0.123,0.038000003,0.117000006,-2.2840002,3.0120413,0,nan,0.0,4,1,14
371786294,1562952291800434,323874659,-1170762724,20958,-13486,0.342,0.657019,0.814,1.733,0.83,1.5,58,1,0.007,0.0050000004,-0.0050000004,-2.68,3.0120413,0,nan,0.0,4,1,14
371978900,1562952292000434,323874658,-1170762725,21419,-13025,0.351,0.657145,0.81200004,1.7300001,0.83,1.5,58,1,0.104,-0.07,-0.07700001,-3.0180001,3.0120413,0,nan,0.0,4,1,14
372183209,1562952292200434,323874657,-1170762727,21933,-12510,0.34800002,0.6572695,0.809,1.725,0.83,1.5,58,3,0.045,-0.006,-0.044000003,-2.983,3.0120413,0,nan,0.0,4,1,14
372383258,1562952292400434,323874657,-1170762728,22417,-12027,0.347,0.6573904,0.80500007,1.7190001,0.83,1.5,58,3,0.15,0.120000005,-0.091000006,-2.894,3.0120413,0,nan,0.0,4,1,14
372583252,1562952292600434,323874659,-1170762731,22871,-11573,0.347,0.6574974,0.80200005,1.715,0.83,1.5,58,3,0.105000004,0.056,-0.089,-2.5640001,3.0120413,0,nan,0.0,4,1,14
372784269,1562952292800434,323874659,-1170762732,23303,-11141,0.34800002,0.65760094,0.8,1.715,0.83,1.5,58,3,0.13100001,0.097,-0.087000005,-2.48,3.0120413,0,nan,0.0,4,1,14
372981276,1562952293000434,323874660,-1170762735,23666,-10778,0.33600003,0.5400982,0.79,1.7,0.83,1.5,58,3,0.296,0.23500001,-0.18100001,-2.295,4.573414,0,nan,0.0,4,1,14
373187308,1562952293200434,323874662,-1170762738,23943,-10501,0.33900002,0.540208,0.786,1.6960001,0.83,1.5,58,9,0.136,0.09900001,-0.094000004,-2.1590002,4.573414,0,nan,0.0,4,1,14
373389335,1562952293400434,323874662,-1170762740,24326,-10118,0.42000002,0.54031885,0.79,1.705,0.83,1.5,58,9,0.128,-0.002,-0.128,-2.1790001,4.573414,0,nan,0.0,4,1,14
373579905,1562952293600434,323874663,-1170762740,24701,-9743,0.381,0.540412,0.79800004,1.71,0.83,1.5,58,9,0.087000005,0.080000006,-0.034,-1.835,4.573414,0,nan,0.0,4,1,14
373781285,1562952293800434,323874664,-1170762739,25023,-9421,0.381,0.54050523,0.80200005,1.7140001,0.83,1.5,58,9,0.09,0.033,0.083000004,-1.8340001,4.573414,0,nan,0.0,4,1,14
373981270,1562952294000434,323874667,-1170762742,25283,-9161,0.363,0.5405937,0.79800004,1.7070001,0.83,1.5,58,9,0.179,0.08800001,-0.156,-1.7360001,4.573414,0,nan,0.0,4,1,14
374178662,1562952294200434,323874666,-1170762743,25527,-8917,0.34500003,0.5406691,0.78900003,1.6980001,0.83,1.5,62,0,0.085,-0.082,-0.024,-1.483,4.573414,0,nan,0.0,4,1,14
374379238,1562952294400434,323874666,-1170762744,25835,-8609,0.36,0.54074484,0.78400004,1.6890001,0.83,1.5,62,0,0.05,0.004,-0.05,-1.4920001,4.573414,0,nan,0.0,4,1,14
374580504,1562952294600434,323874665,-1170762745,26007,-8437,0.36200002,0.54081887,0.78300005,1.687,0.83,1.5,62,0,0.0050000004,-0.0050000004,-0.002,-1.462,4.573414,0,nan,0.0,4,1,14
374779211,1562952294800434,323874666,-1170762744,26283,-8161,0.397,0.5408967,0.786,1.6940001,0.83,1.5,62,0,0.08400001,0.071,0.044000003,-1.5320001,4.573414,0,nan,0.0,4,1,14
374983206,1562952295000434,323874668,-1170762744,26539,-7905,0.39000002,0.5409705,0.79200006,1.6990001,0.83,1.5,62,0,0.136,0.133,-0.027,-1.45,4.573414,0,nan,0.0,4,1,14
375182344,1562952295200434,323874673,-1170762744,26750,-7694,0.34,0.5410459,0.79300004,1.695,0.83,1.5,62,1,0.16100001,0.075,0.142,-1.4790001,4.573414,0,nan,0.0,4,1,14
375378292,1562952295400434,323874674,-1170762739,27125,-7319,0.36,0.51461136,0.79300004,1.697,0.83,1.5,62,1,0.358,-0.16900001,0.31500003,-1.5330001,3.2552357,0,nan,0.0,4,1,14
375578339,1562952295600434,323874674,-1170762735,27474,-6970,0.37600002,0.51469964,0.795,1.7010001,0.83,1.5,62,1,0.064,0.002,0.064,-1.6530001,3.2552357,0,nan,0.0,4,1,14
375779212,1562952295800434,323874677,-1170762732,27893,-6551,0.356,0.51478434,0.79200006,1.6960001,0.83,1.5,62,1,0.178,0.15200001,0.09200001,-1.5830001,3.2552357,0,nan,0.0,4,1,14
375980291,1562952296000434,323874680,-1170762731,28265,-6179,0.34800002,0.51486826,0.786,1.6890001,0.83,1.5,62,1,0.059000004,0.006,0.058000002,-1.572,3.2552357,0,nan,0.0,4,1,14
376176775,1562952296200434,323874680,-1170762732,28464,-5980,0.34300002,0.51495904,0.78300005,1.687,0.83,1.5,62,3,0.026,-0.007,-0.025,-1.7070001,3.2552357,0,nan,0.0,4,1,14
376374331,1562952296400434,323874678,-1170762732,28779,-5665,0.333,0.5150491,0.78000003,1.6830001,0.83,1.5,62,3,0.120000005,-0.115,0.033,-1.6860001,3.2552357,0,nan,0.0,4,1,14
376572278,1562952296600434,323874676,-1170762732,29121,-5323,0.354,0.5151449,0.781,1.6880001,0.83,1.5,62,3,0.09200001,-0.058000002,-0.072000004,-1.797,3.2552357,0,nan,0.0,4,1,14
376772307,1562952296800434,323874671,-1170762730,29424,-5020,0.36900002,0.51524854,0.785,1.6960001,0.83,1.5,62,3,0.24700001,-0.19100001,0.156,-1.932,3.2552357,0,nan,0.0,4,1,14
376973254,1562952297000434,323874667,-1170762727,29809,-4635,0.381,0.515376,0.78900003,1.7030001,0.83,1.5,62,3,0.11000001,-0.10300001,0.038000003,-2.3920002,3.2552357,0,nan,0.0,4,1,14
377176343,1562952297200434,323874663,-1170762726,30278,-4166,0.38900003,0.5155168,0.79300004,1.7120001,0.83,1.5,67,4,0.15100001,-0.15,0.016,-2.644,3.2552357,0,nan,0.0,4,1,14
377376534,1562952297400434,323874660,-1170762724,30809,-3635,0.38500002,0.51565677,0.799,1.7210001,0.83,1.5,67,4,0.141,-0.12100001,0.072000004,-2.627,3.2552357,0,nan,0.0,4,1,14
377572280,1562952297600434,323874659,-1170762726,31400,-3044,0.35300002,0.51579326,0.79700005,1.713,0.83,1.5,67,4,0.075,-0.07,-0.027,-2.565,3.2552357,0,nan,0.0,4,1,14
377775839,1562952297800434,323874658,-1170762727,31902,-2542,0.34800002,0.5159237,0.794,1.7120001,0.83,1.5,67,4,0.089,-0.056,0.069000006,-2.4550002,3.2552357,0,nan,0.0,4,1,14
377974653,1562952298000434,323874658,-1170762729,32336,-2108,0.34800002,0.5160465,0.794,1.7110001,0.83,1.5,67,4,0.049000002,0.018000001,-0.046000004,-2.312,3.2552357,0,nan,0.0,4,1,14
378180285,1562952298200434,323874655,-1170762729,32657,-1787,0.35000002,0.51616085,0.795,1.7140001,0.83,1.5,67,3,0.044000003,-0.025,0.035,-2.1520002,3.2552357,0,nan,0.0,4,1,14
378376910,1562952298400434,323874651,-1170762728,33098,-1346,0.351,0.51627463,0.79700005,1.7170001,0.83,1.5,67,3,0.15300001,-0.15300001,-0.006,-2.134,3.2552357,0,nan,0.0,4,1,14
378578262,1562952298600434,323874647,-1170762726,33521,-923,0.35500002,0.516382,0.799,1.7190001,0.83,1.5,67,3,0.07300001,-0.069000006,0.024,-2.023,3.2552357,0,nan,0.0,4,1,14
378778479,1562952298800434,323874642,-1170762724,33816,-628,0.344,0.51646835,0.79600006,1.7160001,0.87,1.5,67,3,0.13000001,-0.102000006,0.081,-1.621,3.2552357,0,nan,0.0,4,1,13
378972534,1562952299000434,323874639,-1170762725,34011,-433,0.35000002,0.5165525,0.794,1.7140001,0.87,1.5,67,3,0.054,0.05,-0.022000002,-1.5830001,3.2552357,0,nan,0.0,4,1,13
379177274,1562952299200434,323874638,-1170762724,34242,-202,0.35200003,0.5166309,0.79600006,1.7170001,0.83,1.5,67,1,0.10300001,0.068,0.07700001,-1.4740001,3.2552357,0,nan,0.0,4,1,14
379372281,1562952299400434,323874638,-1170762723,34568,124,0.34800002,0.5167031,0.79800004,1.72,0.83,1.5,67,1,0.07700001,0.010000001,0.076000005,-1.358,3.2552357,0,nan,0.0,4,1,14
379572268,1562952299600434,323874638,-1170762720,34867,423,0.35000002,0.5167722,0.79800004,1.7220001,0.83,1.5,67,1,0.095000006,0.07,0.064,-1.3000001,3.2552357,0,nan,0.0,4,1,14
379772281,1562952299800434,323874643,-1170762724,35244,800,0.34500003,0.5168466,0.795,1.715,0.83,1.5,67,1,0.163,0.156,0.047000002,-1.394,3.2552357,0,nan,0.0,4,1,14
379972331,1562952300000434,323874645,-1170762725,35520,1077,0.347,0.5169087,0.794,1.715,0.83,1.5,67,1,0.148,0.112,-0.097,-1.161,3.2552357,0,nan,0.0,4,1,14
380178486,1562952300200434,323874646,-1170762728,35663,1219,0.34500003,0.5169562,0.79300004,1.7120001,0.83,1.5,71,3,0.098000005,0.071,0.068,-0.88900006,3.2552357,0,nan,0.0,4,1,14
380368266,1562952300400434,323874647,-1170762727,35851,1407,0.34600002,0.5170091,0.79200006,1.7120001,0.87,1.66,71,3,0.132,0.093,0.094000004,-0.989,3.2552357,0,nan,0.0,4,1,13
380573258,1562952300600434,323874649,-1170762726,36075,1631,0.374,0.51705116,0.794,1.7170001,0.83,1.5,71,3,0.11000001,0.1,-0.046000004,-0.785,3.2552357,0,nan,0.0,4,1,14
380774300,1562952300800435,323874650,-1170762728,36164,1720,0.367,0.5170747,0.79700005,1.7220001,0.87,1.66,71,3,0.22700001,0.15100001,-0.16900001,-0.381,3.2552357,0,nan,0.0,4,1,13
380975207,1562952301000435,323874657,-1170762735,36324,1880,0.257,0.46991906,0.79200006,1.7140001,0.83,1.5,71,3,0.363,0.28100002,-0.22900002,-0.16700001,4.538925,0,nan,0.0,4,1,14
381180314,1562952301200435,323874660,-1170762737,36327,1883,0.402,0.4699426,0.79600006,1.723,0.83,1.5,71,3,0.12900001,0.124000005,-0.034,-0.104,4.538925,0,nan,0.0,4,1,14
381377268,1562952301400435,323874662,-1170762738,36317,1873,0.27,0.46995834,0.8,1.7260001,0.83,1.5,71,3,0.208,0.2,-0.056,0.10700001,4.538925,0,nan,0.0,4,1,14
381574339,1562952301600435,323874664,-1170762737,36261,1817,0.328,0.46997735,0.80100006,1.7300001,0.87,1.66,71,3,0.143,0.142,-0.021000002,0.23900001,4.538925,0,nan,0.0,4,1,13
381777299,1562952301800435,323874665,-1170762737,36169,1725,0.377,0.46999934,0.80600005,1.741,0.87,1.66,71,3,0.083000004,0.07300001,-0.039,0.091000006,4.538925,0,nan,0.0,4,1,13
381977267,1562952302000435,323874665,-1170762736,36100,1656,0.42400002,0.4700241,0.813,1.7520001,0.87,1.66,71,3,0.034,0.006,0.033,0.231,4.538925,0,nan,0.0,4,1,13
382182307,1562952302200435,323874669,-1170762736,36087,1643,0.34600002,0.4700503,0.81100005,1.743,0.87,1.66,71,3,0.16600001,0.08400001,0.143,0.41900003,4.538925,0,nan,0.0,4,1,13
382374876,1562952302400435,323874670,-1170762734,36011,1567,0.365,0.47007158,0.81200004,1.748,0.87,1.66,71,3,0.07300001,0.055000003,0.048,0.293,4.538925,0,nan,0.0,4,1,13
382577868,1562952302600435,323874670,-1170762733,35923,1479,0.36800003,0.47009674,0.814,1.7500001,0.83,1.5,71,3,0.045,0.024,0.039,0.42800003,4.538925,0,nan,0.0,4,1,14
382777708,1562952302800435,323874670,-1170762732,35851,1407,0.38000003,0.4701196,0.81700003,1.756,0.83,1.5,71,3,0.026,0.011000001,0.023000002,0.393,4.538925,0,nan,0.0,4,1,14
382974419,1562952303000435,323874670,-1170762731,35693,1249,0.41400003,0.47014838,0.822,1.766,0.83,1.5,71,3,0.048,0.048,0.001,0.48900002,4.538925,0,nan,0.0,4,1,14
383172280,1562952303200435,323874671,-1170762731,35626,1182,0.39200002,0.47017124,0.82900006,1.774,0.83,1.5,71,2,0.09,0.08400001,-0.030000001,0.277,4.538925,0,nan,0.0,4,1,14
383378309,1562952303400435,323874670,-1170762732,35555,1111,0.32900003,0.47019044,0.82800007,1.764,0.83,1.5,71,2,0.083000004,0.023000002,-0.079,0.27,4.538925,0,nan,0.0,4,1,14
383580863,1562952303600435,323874673,-1170762732,35574,1130,0.347,0.4702107,0.82900006,1.766,0.83,1.5,71,2,0.065000005,0.049000002,0.042000003,0.16100001,4.538925,0,nan,0.0,4,1,14
383778359,1562952303800435,323874673,-1170762730,35536,1092,0.38900003,0.47023338,0.83300006,1.774,0.83,1.5,71,2,0.102000006,0.016,0.101,0.22600001,4.538925,0,nan,0.0,4,1,14
383975221,1562952304000435,323874674,-1170762728,35451,1007,0.354,0.47025397,0.83900005,1.7830001,0.83,1.5,71,2,0.117000006,0.117000006,-0.002,0.172,4.538925,0,nan,0.0,4,1,14
384180285,1562952304200435,323874676,-1170762728,35372,928,0.363,0.47027528,0.845,1.7930001,0.83,1.5,71,2,0.23300001,0.231,-0.028,0.24900001,4.538925,0,nan,0.0,4,1,14
384378366,1562952304400435,323874676,-1170762728,35270,826,0.32200003,0.47029394,0.845,1.7880001,0.83,1.5,71,2,0.075,0.015000001,0.074,0.10700001,4.538925,0,nan,0.0,4,1,14
384575247,1562952304600435,323874676,-1170762727,35267,823,0.34800002,0.4703142,0.845,1.789,0.83,1.5,71,2,0.117000006,0.014,0.116000004,0.20300001,4.538925,0,nan,0.0,4,1,14
384775215,1562952304800435,323874674,-1170762729,35066,622,0.30200002,0.47033182,0.84000003,1.7820001,0.83,1.5,71,2,0.057000004,-0.031000001,0.048,0.049000002,4.538925,0,nan,0.0,4,1,14
384977269,1562952305000435,323874672,-1170762730,35071,627,0.303,0.4703496,0.837,1.779,0.83,1.5,71,2,0.13000001,-0.115,0.061000004,0.10700001,4.538925,0,nan,0.0,4,1,14
385177275,1562952305200435,323874671,-1170762730,35049,605,0.39400002,0.4703725,0.83900005,1.7880001,0.83,1.5,71,2,0.028,0.014,-0.025,-0.027,4.538925,0,nan,0.0,4,1,14
385375266,1562952305400435,323874668,-1170762729,35143,699,0.246,0.4703868,0.84000003,1.7880001,0.87,1.66,71,2,0.117000006,-0.087000005,0.078,0.012,4.538925,0,nan,0.0,4,1,13
385577264,1562952305600435,323874669,-1170762728,35348,904,0.335,0.47040635,0.83500004,1.7820001,0.87,1.66,71,2,0.058000002,-0.058000002,-0.004,-0.316,4.538925,0,nan,0.0,4,1,13
385772286,1562952305800435,323874667,-1170762726,35413,969,0.367,0.4704278,0.83800006,1.7880001,0.83,1.5,71,2,0.1,-0.091000006,0.042000003,-0.294,4.538925,0,nan,0.0,4,1,14
385974294,1562952306000435,323874666,-1170762726,35558,1114,0.39200002,0.47045505,0.84400004,1.7950001,0.83,1.5,71,2,0.065000005,-0.05,-0.041,-0.46300003,4.538925,0,nan,0.0,4,1,14
386178581,1562952306200435,323874664,-1170762725,35616,1172,0.40800002,0.47048646,0.85,1.8040001,0.83,1.5,71,3,0.053000003,-0.051000003,0.017,-0.537,4.538925,0,nan,0.0,4,1,14
386377273,1562952306400435,323874664,-1170762723,35735,1291,0.42700002,0.4705163,0.85700005,1.815,0.83,1.5,71,3,0.120000005,-0.022000002,0.11800001,-0.49600002,4.538925,0,nan,0.0,4,1,14
386578331,1562952306600435,323874662,-1170762724,35824,1380,0.36,0.47055662,0.85700005,1.8130001,0.83,1.5,71,3,0.216,-0.029000001,-0.21400002,-0.65900004,4.538925,0,nan,0.0,4,1,14
386781935,1562952306800435,323874661,-1170762729,35965,1521,0.35000002,0.47060654,0.85300004,1.8080001,0.83,1.5,71,3,0.224,-0.060000002,-0.216,-0.82600003,4.538925,0,nan,0.0,4,1,14
386979727,1562952307000435,323874660,-1170762733,36074,1630,0.35300002,0.47065365,0.84900004,1.8040001,0.83,1.5,71,3,0.21000001,0.10300001,-0.18300001,-0.781,4.538925,0,nan,0.0,4,1,14
387180717,1562952307200435,323874660,-1170762738,36158,1714,0.34500003,0.73526335,0.845,1.802,0.83,1.5,71,3,0.246,0.09200001,-0.22800002,-0.89300007,4.7003374,0,nan,0.0,4,1,14
387378394,1562952307400435,323874662,-1170762742,36335,1891,0.344,0.6481929,0.84200007,1.7990001,0.83,1.5,71,3,0.25500003,0.19000001,-0.16900001,-0.91200006,5.1816826,0,nan,0.0,4,1,14
387570691,1562952307600435,323874663,-1170762746,36406,1962,0.347,0.6482367,0.83800006,1.7930001,0.83,1.5,71,3,0.13800001,0.089,-0.106000006,-1.0250001,5.1816826,0,nan,0.0,4,1,14
387775255,1562952307800435,323874665,-1170762747,36577,2133,0.342,0.6482765,0.83500004,1.792,0.83,1.5,71,3,0.132,0.127,-0.034,-0.93200004,5.1816826,0,nan,0.0,4,1,14
387976269,1562952308000435,323874668,-1170762749,36724,2280,0.33900002,0.60926175,0.83100003,1.7860001,0.83,1.5,71,3,0.279,0.215,-0.178,-0.98100007,5.399655,0,nan,0.0,4,1,14
388179195,1562952308200435,323874669,-1170762752,36845,2401,0.33800003,0.60930455,0.827,1.7820001,0.83,1.5,71,3,0.13700001,0.093,-0.101,-0.938,5.399655,0,nan,0.0,4,1,14
388376274,1562952308400435,323874672,-1170762757,37015,2571,0.33200002,0.40057504,0.82400006,1.7770001,0.83,1.5,71,3,0.411,0.25300002,-0.324,-0.94200003,5.3823123,0,nan,0.0,4,1,14
388577269,1562952308600435,323874685,-1170762765,37309,2865,0.29500002,0.1966417,0.81700003,1.769,0.83,1.5,71,3,0.85600007,0.69100004,-0.505,-0.78900003,5.5998077,0,nan,0.0,4,1,14
388774273,1562952308800435,323874698,-1170762782,37406,2962,0.277,0.1425035,0.81500006,1.769,0.83,1.5,71,3,1.45,0.91200006,-1.1270001,-0.81200004,5.463973,0,nan,0.0,4,1,14
388974467,1562952309000435,323874720,-1170762818,37570,3127,0.24700001,0.08643743,0.814,1.771,0.83,1.5,71,3,2.4950001,1.373,-2.084,-0.69600004,5.3401046,0,nan,0.0,4,1,14
389179218,1562952309200435,323874749,-1170762873,37753,3309,0.252,0.078578554,0.81100005,1.774,0.83,1.5,71,1,3.3060002,1.457,-2.9680002,-0.55,5.245203,0,nan,0.0,4,1,14
389373071,1562952309400435,323874779,-1170762946,37961,3517,0.25,0.07423338,0.813,1.779,0.83,1.5,71,1,4.168,1.728,-3.7930002,-0.37,5.188614,0,nan,0.0,4,1,14
389573284,1562952309600435,323874815,-1170763040,38153,3709,0.275,0.06342544,0.81700003,1.789,0.83,1.5,71,1,5.3830004,2.1390002,-4.939,-0.61600006,5.1486807,0,nan,0.0,4,1,14
389774302,1562952309800435,323874857,-1170763151,38371,3927,0.263,0.057488173,0.822,1.797,0.83,1.5,71,1,6.0140004,2.4160001,-5.5070004,-0.64400005,5.1356406,0,nan,0.0,4,1,14
389975274,1562952310000435,323874901,-1170763279,38524,4080,0.23500001,0.046130795,0.82600003,1.8000001,0.83,1.5,71,1,6.8510003,2.403,-6.4160004,-0.39000002,5.0944924,0,nan,0.0,4,1,14
390181301,1562952310200435,323874947,-1170763419,38582,4138,0.22800002,0.040883984,0.82900006,1.8010001,0.83,1.5,71,3,7.3440003,2.709,-6.826,-0.266,5.0919127,0,nan,0.0,4,1,14
390378337,1562952310400435,323874997,-1170763573,38603,4159,0.21400002,0.033870906,0.83000004,1.797,0.83,1.5,71,3,7.9110003,2.857,-7.3770003,-0.10700001,5.085393,0,nan,0.0,4,1,14
390579583,1562952310600435,323875054,-1170763736,38716,4272,0.22600001,0.040151644,0.832,1.7960001,0.83,1.5,71,3,8.42,3.2810001,-7.754,-0.22700001,5.112689,0,nan,0.0,4,1,14
390783246,1562952310800435,323875115,-1170763909,38730,4286,0.22200002,0.031017466,0.83500004,1.797,0.83,1.5,71,3,8.998,3.561,-8.2630005,-0.178,5.119332,0,nan,0.0,4,1,14
390981356,1562952311000435,323875179,-1170764089,38675,4231,0.21200001,0.033167187,0.836,1.794,0.83,1.5,71,3,9.238001,3.6320002,-8.494,0.010000001,5.11648,0,nan,0.0,4,1,14
391178336,1562952311200435,323875247,-1170764271,38693,4249,0.21200001,0.028378703,0.83800006,1.7900001,0.83,1.5,71,3,9.3810005,3.8820002,-8.54,-0.14600001,5.138992,0,nan,0.0,4,1,14
391383218,1562952311400435,323875318,-1170764451,38701,4257,0.23400001,0.036287136,0.84000003,1.792,0.83,1.5,71,3,9.341001,3.9830003,-8.449,0.0,5.152914,0,nan,0.0,4,1,14
391584307,1562952311600436,323875389,-1170764632,38726,4282,0.22900002,0.030168364,0.84300005,1.794,0.83,1.5,71,3,9.318001,3.877,-8.473001,0.238,5.141519,0,nan,0.0,4,1,14
391782510,1562952311800436,323875458,-1170764816,38701,4257,0.224,0.025544638,0.84400004,1.7990001,0.83,1.5,71,3,9.474,3.798,-8.679001,0.127,5.1248302,0,nan,0.0,4,1,14
391977304,1562952312000436,323875526,-1170765002,38687,4243,0.224,0.028576449,0.846,1.8030001,0.83,1.5,71,3,9.592,3.7800002,-8.816,0.040000003,5.117425,0,nan,0.0,4,1,14
392176354,1562952312200436,323875592,-1170765190,38625,4181,0.25300002,0.026907565,0.84800005,1.8090001,0.84999996,1.66,66,1,9.653001,3.834,-8.858001,0.123,5.1208963,0,nan,0.0,4,1,13
392378310,1562952312400436,323875663,-1170765379,38593,4149,0.22600001,0.029732903,0.851,1.8130001,0.83,1.5,66,1,9.746,3.9600003,-8.905001,0.291,5.130842,0,nan,0.0,4,1,14
392576465,1562952312600436,323875731,-1170765562,38428,3984,0.25100002,0.031834453,0.85400003,1.82,0.83,1.5,66,1,9.415001,3.8200002,-8.6050005,0.45200002,5.1301765,0,nan,0.0,4,1,14
392774718,1562952312800436,323875798,-1170765742,38366,3922,0.23400001,0.029518751,0.85700005,1.8260001,0.83,1.5,66,1,9.297001,3.6770003,-8.5390005,0.24200001,5.1190305,0,nan,0.0,4,1,14
392980274,1562952313000436,323875865,-1170765918,38500,4056,0.21100001,0.026857475,0.859,1.8280001,0.83,1.5,66,1,9.079,3.6620002,-8.308001,0.31,5.127595,0,nan,0.0,4,1,14
393178326,1562952313200436,323875928,-1170766084,38396,3952,0.20300001,0.025007077,0.85800004,1.8270001,0.83,1.5,66,1,8.608001,3.3580003,-7.9260006,0.43,5.113144,0,nan,0.0,4,1,14
393381261,1562952313400436,323875987,-1170766246,38343,3899,0.223,0.030338533,0.85800004,1.83,0.83,1.5,66,1,8.124001,3.0670002,-7.5230002,0.46800002,5.099508,0,nan,0.0,4,1,14
393579218,1562952313600436,323876042,-1170766398,38305,3861,0.22100002,0.032102536,0.859,1.8310001,0.83,1.5,66,1,7.5200005,2.821,-6.9700003,0.47100002,5.0980406,0,nan,0.0,4,1,14
393777251,1562952313800436,323876089,-1170766539,38212,3768,0.20600002,0.031583827,0.85800004,1.8290001,0.83,1.5,66,1,6.8880005,2.3720002,-6.466,0.58900005,5.0781107,0,nan,0.0,4,1,14
393977260,1562952314000436,323876131,-1170766672,38139,3695,0.21800001,0.037013546,0.85800004,1.8290001,0.83,1.5,66,1,6.478,2.1490002,-6.111,0.669,5.0643806,0,nan,0.0,4,1,14
394179258,1562952314200436,323876169,-1170766796,38005,3561,0.21300001,0.035194386,0.85700005,1.8280001,0.83,1.5,66,4,5.8880005,1.963,-5.551,0.82100004,5.057431,0,nan,0.0,4,1,14
394372841,1562952314400436,323876205,-1170766910,37933,3488,0.20300001,0.041443188,0.85600007,1.825,0.83,1.5,66,4,5.4760003,1.922,-5.1270003,0.67700005,5.063835,0,nan,0.0,4,1,14
394576268,1562952314600436,323876239,-1170767015,37863,3419,0.19000001,0.037944853,0.85200006,1.817,0.83,1.5,66,4,4.9440002,1.664,-4.656,0.503,5.0590725,0,nan,0.0,4,1,14
394773656,1562952314800436,323876267,-1170767112,37781,3336,0.20600002,0.04457588,0.85,1.812,0.83,1.5,66,4,4.721,1.621,-4.434,0.527,5.060831,0,nan,0.0,4,1,14
394975229,1562952315000436,323876297,-1170767202,37806,3362,0.19500001,0.047984857,0.846,1.8040001,0.83,1.5,66,4,4.287,1.411,-4.0490003,0.537,5.054409,0,nan,0.0,4,1,14
395179656,1562952315200436,323876322,-1170767285,37807,3363,0.19800001,0.0533404,0.84300005,1.794,0.83,1.5,62,4,4.0230002,1.3620001,-3.785,0.51100004,5.0559916,0,nan,0.0,4,1,14
395368286,1562952315400436,323876348,-1170767365,37830,3386,0.19100001,0.05330235,0.84000003,1.7860001,0.83,1.5,62,4,3.8030002,1.3490001,-3.555,0.365,5.06586,0,nan,0.0,4,1,14
395573264,1562952315600436,323876373,-1170767439,37815,3371,0.194,0.06265505,0.83800006,1.7780001,0.83,1.5,62,4,3.5330002,1.343,-3.2670002,0.273,5.0818405,0,nan,0.0,4,1,14
395775209,1562952315800436,323876396,-1170767507,37737,3292,0.20700002,0.075249515,0.837,1.774,0.83,1.5,62,4,3.301,1.309,-3.0300002,0.42400002,5.0979977,0,nan,0.0,4,1,14
395972391,1562952316000436,323876416,-1170767570,37622,3178,0.19100001,0.06702745,0.83500004,1.7670001,0.83,1.5,62,4,3.0470002,1.028,-2.868,0.43300003,5.0746,0,nan,0.0,4,1,14
396181262,1562952316200436,323876435,-1170767629,37557,3113,0.19800001,0.07479521,0.83300006,1.761,0.83,1.5,62,1,2.917,1.1040001,-2.7,0.35700002,5.086315,0,nan,0.0,4,1,14
396374297,1562952316400436,323876453,-1170767686,37426,2982,0.186,0.079900645,0.83000004,1.7490001,0.83,1.5,62,1,2.664,0.95800006,-2.4850001,0.34800002,5.0835056,0,nan,0.0,4,1,14
396575245,1562952316600436,323876470,-1170767738,37339,2894,0.18800001,0.08078413,0.827,1.7400001,0.83,1.5,62,1,2.5530002,0.97900003,-2.357,0.344,5.094753,0,nan,0.0,4,1,14
396772113,1562952316800436,323876489,-1170767789,37296,2852,0.19600001,0.08738008,0.823,1.728,0.83,1.5,62,1,2.378,0.96800005,-2.1720002,0.395,5.1119876,0,nan,0.0,4,1,14
396973281,1562952317000436,323876506,-1170767836,37269,2825,0.18300001,0.087394916,0.81900007,1.7170001,0.83,1.5,62,1,2.227,0.832,-2.065,0.23300001,5.1037035,0,nan,0.0,4,1,14
397182333,1562952317200436,323876522,-1170767879,37270,2825,0.18400002,0.10692724,0.81500006,1.7060001,0.83,1.5,61,1,1.9650002,0.813,-1.789,0.164,5.1178756,0,nan,0.0,4,1,14
397375208,1562952317400436,323876538,-1170767917,37271,2826,0.19700001,0.11693408,0.813,1.6990001,0.83,1.5,61,1,1.853,0.89000005,-1.6250001,0.26500002,5.1616983,0,nan,0.0,4,1,14
397573263,1562952317600436,323876555,-1170767951,37278,2834,0.209,0.1438071,0.813,1.695,0.83,1.5,61,1,1.741,0.804,-1.544,0.186,5.1740737,0,nan,0.0,4,1,14
397777266,1562952317800436,323876570,-1170767985,37246,2802,0.19900002,0.118901245,0.81200004,1.6910001,0.83,1.5,61,1,1.705,0.81900007,-1.496,0.083000004,5.197321,0,nan,0.0,4,1,14
397970652,1562952318000436,323876585,-1170768016,37197,2753,0.192,0.12569092,0.81000006,1.687,0.83,1.5,61,1,1.5680001,0.79600006,-1.35,0.076000005,5.220063,0,nan,0.0,4,1,14
398183215,1562952318200436,323876597,-1170768044,37100,2656,0.18300001,0.121611744,0.80700004,1.682,0.83,1.5,61,2,1.4460001,0.726,-1.25,0.115,5.229805,0,nan,0.0,4,1,14
398373269,1562952318400436,323876608,-1170768069,36996,2551,0.18100001,0.13210292,0.804,1.677,0.83,1.5,61,2,1.335,0.77800006,-1.085,0.164,5.277973,0,nan,0.0,4,1,14
398581263,1562952318600436,323876620,-1170768092,36887,2442,0.2,0.14986652,0.80200005,1.6730001,0.83,1.5,61,2,1.3340001,0.785,-1.0780001,0.18100001,5.3058763,0,nan,0.0,4,1,14
398770303,1562952318800436,323876632,-1170768114,36819,2375,0.209,0.17991115,0.80200005,1.6710001,0.83,1.5,61,2,1.268,0.69500005,-1.0600001,0.13700001,5.300564,0,nan,0.0,4,1,14
398973312,1562952319000436,323876643,-1170768134,36769,2324,0.22000001,0.22064556,0.80300003,1.6730001,0.83,1.5,61,2,1.067,0.63000005,-0.86100006,0.162,5.3179154,0,nan,0.0,4,1,14
399181264,1562952319200436,323876652,-1170768152,36731,2287,0.215,0.20951857,0.80300003,1.672,0.83,1.5,61,3,1.046,0.56100005,-0.883,0.034,5.296995,0,nan,0.0,4,1,14
399374295,1562952319400436,323876659,-1170768170,36676,2231,0.20400001,0.19949374,0.80300003,1.6700001,0.83,1.5,61,3,1.0170001,0.606,-0.81700003,0.11100001,5.325264,0,nan,0.0,4,1,14
399571288,1562952319600436,323876667,-1170768186,36622,2178,0.18800001,0.21260448,0.80100006,1.6680001,0.83,1.5,61,3,0.91,0.53000003,-0.74,0.046000004,5.3291016,0,nan,0.0,4,1,14
399776269,1562952319800436,323876674,-1170768201,36577,2133,0.187,0.22192489,0.8,1.6650001,0.83,1.5,61,3,0.87200004,0.52000004,-0.70100003,0.101,5.3392315,0,nan,0.0,4,1,14
399976548,1562952320000436,323876681,-1170768214,36619,2175,0.193,0.26923728,0.799,1.6610001,0.83,1.5,61,3,0.763,0.453,-0.61300004,-0.082,5.343146,0,nan,0.0,4,1,14
400178489,1562952320200436,323876689,-1170768225,36689,2244,0.19500001,0.2914897,0.79700005,1.6550001,0.83,1.5,61,2,0.74300003,0.45000002,-0.591,-0.022000002,5.3527575,0,nan,0.0,4,1,14
400375210,1562952320400436,323876697,-1170768238,36702,2257,0.21000001,0.29616106,0.79600006,1.6530001,0.83,1.5,61,2,0.772,0.52400005,-0.56700003,-0.028,5.4045625,0,nan,0.0,4,1,14
400571548,1562952320600436,323876703,-1170768249,36719,2274,0.202,0.28421777,0.794,1.646,0.83,1.5,61,2,0.68700004,0.45400003,-0.51500005,-0.116000004,5.42044,0,nan,0.0,4,1,14
400777276,1562952320800436,323876712,-1170768260,36771,2327,0.22700001,0.31691024,0.79300004,1.6430001,0.83,1.5,61,2,0.70500004,0.404,-0.578,-0.21300001,5.3767715,0,nan,0.0,4,1,14
400974783,1562952321000436,323876719,-1170768272,36807,2363,0.22000001,0.2842218,0.79300004,1.6430001,0.83,1.5,61,2,0.78300005,0.51900005,-0.586,-0.27,5.4104624,0,nan,0.0,4,1,14
401179226,1562952321200436,323876726,-1170768284,36852,2408,0.215,0.31620407,0.79,1.636,0.83,1.5,61,1,0.62700003,0.254,-0.573,-0.259,5.2848897,0,nan,0.0,4,1,14
401373152,1562952321400436,323876734,-1170768296,36981,2537,0.21300001,0.3151094,0.78900003,1.6320001,0.83,1.5,61,1,0.74300003,0.47400004,-0.572,-0.27400002,5.3450246,0,nan,0.0,4,1,14
401582505,1562952321600436,323876742,-1170768310,37049,2605,0.21700001,0.30295178,0.78900003,1.631,0.83,1.5,61,1,0.851,0.409,-0.74600005,-0.23200001,5.276857,0,nan,0.0,4,1,14
401778287,1562952321800436,323876748,-1170768329,37061,2617,0.22800002,0.23149452,0.791,1.6350001,0.83,1.5,61,1,1.1860001,0.41200003,-1.1120001,-0.133,5.1444144,0,nan,0.0,4,1,14
401971464,1562952322000436,323876759,-1170768357,37130,2686,0.22900002,0.15721157,0.794,1.639,0.83,1.5,61,1,1.7910001,0.80300003,-1.6010001,-0.048,5.1668863,0,nan,0.0,4,1,14
402177667,1562952322200436,323876769,-1170768401,37119,2674,0.24100001,0.11706778,0.79800004,1.644,0.83,1.5,61,1,2.6520002,0.386,-2.624,-0.19800001,4.9679685,0,nan,0.0,4,1,14
402372892,1562952322400436,323876779,-1170768465,37244,2800,0.22100002,0.091620356,0.80200005,1.6450001,0.83,1.5,61,1,3.361,0.597,-3.3070002,-0.13700001,4.919979,0,nan,0.0,4,1,14
402575250,1562952322600437,323876790,-1170768547,37351,2906,0.24400002,0.057122003,0.80500007,1.6480001,0.83,1.5,61,1,4.4550004,0.54700005,-4.421,-0.20500001,4.8587165,0,nan,0.0,4,1,14
402780375,1562952322800437,323876800,-1170768648,37384,2940,0.24400002,0.052893598,0.809,1.6520001,0.83,1.5,61,1,5.228,0.68,-5.183,-0.20500001,4.84988,0,nan,0.0,4,1,14
402974380,1562952323000437,323876811,-1170768770,37415,2971,0.246,0.046469387,0.81200004,1.6550001,0.83,1.5,61,1,6.3760004,0.62100005,-6.3450003,0.062000003,4.8261857,0,nan,0.0,4,1,14
403181312,1562952323200437,323876823,-1170768911,37466,3022,0.23700002,0.037986565,0.81600004,1.6570001,0.83,1.5,61,1,6.8830004,0.611,-6.8560004,-0.172,4.810293,0,nan,0.0,4,1,14
403380272,1562952323400437,323876832,-1170769064,37461,3017,0.23300001,0.0330314,0.81900007,1.659,0.83,1.5,61,1,7.662,0.51900005,-7.6440005,-0.054,4.7913136,0,nan,0.0,4,1,14
403580051,1562952323600437,323876842,-1170769231,37510,3066,0.273,0.034181222,0.822,1.6650001,0.83,1.5,61,1,8.016001,0.64500004,-7.9900002,-0.068,4.792924,0,nan,0.0,4,1,14
403784969,1562952323800437,323876852,-1170769408,37553,3108,0.19700001,0.028708221,0.82500005,1.6650001,0.83,1.5,61,1,8.604,0.47900003,-8.591001,-0.054,4.7681336,0,nan,0.0,4,1,14
403983213,1562952324000437,323876862,-1170769593,37537,3093,0.25,0.034210373,0.827,1.6680001,0.83,1.5,61,1,8.929001,0.66400003,-8.904,0.074,4.786823,0,nan,0.0,4,1,14
404182349,1562952324200437,323876872,-1170769786,37539,3095,0.23300001,0.025746398,0.83000004,1.6710001,0.83,1.5,61,4,9.294001,0.523,-9.279,0.010000001,4.7687016,0,nan,0.0,4,1,14
404381262,1562952324400437,323876879,-1170769985,37547,3103,0.22600001,0.025072875,0.83100003,1.6700001,0.83,1.5,61,4,9.5,0.384,-9.492001,-0.044000003,4.7527866,0,nan,0.0,4,1,14
404582335,1562952324600437,323876886,-1170770188,37616,3172,0.22800002,0.024324652,0.83300006,1.672,0.83,1.5,61,4,9.581,0.303,-9.576,-0.006,4.7440643,0,nan,0.0,4,1,14
404777663,1562952324800437,323876891,-1170770390,37594,3149,0.19600001,0.022576356,0.83300006,1.6710001,0.83,1.5,61,4,9.591001,0.39800003,-9.583,0.089,4.7539387,0,nan,0.0,4,1,14
404984268,1562952325000437,323876897,-1170770594,37600,3155,0.21100001,0.022829952,0.83300006,1.669,0.83,1.5,61,4,9.606001,0.30600002,-9.602,0.037,4.744271,0,nan,0.0,4,1,14
405182278,1562952325200437,323876902,-1170770799,37564,3119,0.22800002,0.023725482,0.83300006,1.6710001,0.83,1.5,61,4,9.849001,0.20500001,-9.847,0.20700002,4.733229,0,nan,0.0,4,1,14
405373050,1562952325400437,323876906,-1170771009,37576,3132,0.208,0.022840075,0.83400005,1.6710001,0.83,1.5,61,4,9.915001,0.17600001,-9.913,0.193,4.7301574,0,nan,0.0,4,1,14
405579599,1562952325600437,323876909,-1170771220,37559,3114,0.19900002,0.022396063,0.83400005,1.6710001,0.83,1.5,61,4,10.012,0.13700001,-10.011001,0.18400002,4.7260876,0,nan,0.0,4,1,14
405773264,1562952325800437,323876911,-1170771430,37460,3015,0.263,0.027123112,0.836,1.6750001,0.83,1.5,61,4,9.783,0.21900001,-9.781,0.45100003,4.7347784,0,nan,0.0,4,1,14
405977205,1562952326000437,323876914,-1170771638,37371,2926,0.254,0.024882285,0.83800006,1.6790001,0.83,1.5,61,4,9.88,0.066,-9.88,0.21200001,4.7191195,0,nan,0.0,4,1,14
406181520,1562952326200437,323876916,-1170771851,37464,3020,0.19100001,0.020494178,0.83800006,1.6750001,0.83,1.5,61,1,10.095,-0.054,-10.095,0.22600001,4.7070084,0,nan,0.0,4,1,14
406373334,1562952326400437,323876918,-1170772066,37463,3018,0.18900001,0.017752266,0.83300006,1.6710001,0.83,1.5,61,1,10.092,0.061000004,-10.092,0.24200001,4.718458,0,nan,0.0,4,1,14
406573609,1562952326600437,323876923,-1170772282,37501,3056,0.18800001,0.017341765,0.82600003,1.6650001,0.83,1.5,61,1,10.003,-0.020000001,-10.003,0.289,4.7103868,0,nan,0.0,4,1,14
406781282,1562952326800437,323876926,-1170772501,37524,3079,0.186,0.016607331,0.81900007,1.659,0.83,1.5,61,1,10.1970005,-0.054,-10.1970005,0.246,4.7070675,0,nan,0.0,4,1,14
406981642,1562952327000437,323876931,-1170772721,37636,3192,0.178,0.017428856,0.81200004,1.6450001,0.83,1.5,61,1,10.188001,0.037,-10.188001,0.268,4.716065,0,nan,0.0,4,1,14
407176288,1562952327200437,323876938,-1170772938,37671,3226,0.185,0.017523104,0.80500007,1.6380001,0.83,1.5,61,1,10.106001,0.029000001,-10.106001,0.504,4.7152867,0,nan,0.0,4,1,14
407377268,1562952327400437,323876948,-1170773155,37774,3330,0.17600001,0.016365778,0.79800004,1.626,0.83,1.5,61,1,10.145,0.003,-10.145,0.316,4.712679,0,nan,0.0,4,1,14
407581526,1562952327600437,323876954,-1170773370,37802,3358,0.187,0.01732152,0.79200006,1.621,0.83,1.5,61,1,10.126,-0.025,-10.126,0.42400002,4.709883,0,nan,0.0,4,1,14
407778760,1562952327800437,323876960,-1170773582,37753,3309,0.18400002,0.01682794,0.78700006,1.6150001,0.83,1.5,61,1,9.990001,0.001,-9.990001,0.21800001,4.712503,0,nan,0.0,4,1,14
407975221,1562952328000437,323876964,-1170773793,37731,3286,0.18400002,0.016841553,0.781,1.6090001,0.83,1.5,61,1,9.971001,-0.08800001,-9.971001,0.40300003,4.7035155,0,nan,0.0,4,1,14
408181337,1562952328200437,323876966,-1170774005,37738,3294,0.185,0.017299354,0.776,1.6040001,0.83,1.5,65,3,9.972,-0.09,-9.971001,0.22100002,4.7033334,0,nan,0.0,4,1,14
408374313,1562952328400437,323876965,-1170774217,37708,3263,0.18300001,0.018319499,0.772,1.5970001,0.83,1.5,65,3,9.985001,-0.16700001,-9.984,0.275,4.695669,0,nan,0.0,4,1,14
408575223,1562952328600437,323876962,-1170774428,37649,3204,0.18800001,0.018968936,0.771,1.5940001,0.83,1.5,65,3,9.941001,-0.178,-9.939,0.30100003,4.6945233,0,nan,0.0,4,1,14
408776279,1562952328800437,323876958,-1170774638,37599,3154,0.18800001,0.018972775,0.77000004,1.5920001,0.83,1.5,65,3,9.92,-0.23700002,-9.917001,0.298,4.688466,0,nan,0.0,4,1,14
408977299,1562952329000437,323876955,-1170774847,37556,3112,0.18800001,0.018444289,0.768,1.59,0.83,1.5,65,3,9.872001,-0.15200001,-9.871,0.33400002,4.6970124,0,nan,0.0,4,1,14
409176506,1562952329200437,323876951,-1170775057,37511,3067,0.18800001,0.018309899,0.767,1.5870001,0.83,1.5,66,3,9.940001,-0.263,-9.937,0.26900002,4.685902,0,nan,0.0,4,1,14
409376312,1562952329400437,323876946,-1170775267,37492,3047,0.18100001,0.017936049,0.76500005,1.582,0.83,1.5,66,3,9.847,-0.135,-9.846001,0.187,4.6986623,0,nan,0.0,4,1,14
409576274,1562952329600437,323876943,-1170775475,37458,3013,0.18,0.01791493,0.762,1.5760001,0.83,1.5,66,3,9.8220005,-0.19000001,-9.820001,0.279,4.6930237,0,nan,0.0,4,1,14
409777351,1562952329800437,323876938,-1170775684,37412,2967,0.186,0.017947044,0.76000005,1.5730001,0.83,1.5,66,3,9.848001,-0.23500001,-9.845,0.13700001,4.6884966,0,nan,0.0,4,1,14
409978363,1562952330000437,323876932,-1170775894,37390,2945,0.186,0.018402053,0.758,1.57,0.83,1.5,66,3,9.945001,-0.28800002,-9.941001,0.035,4.6834397,0,nan,0.0,4,1,14
410183257,1562952330200437,323876927,-1170776105,37376,2931,0.187,0.018804874,0.757,1.5680001,0.83,1.5,66,1,9.988001,-0.279,-9.984,0.127,4.684446,0,nan,0.0,4,1,14
410380277,1562952330400437,323876923,-1170776317,37407,2962,0.18800001,0.018499093,0.75500005,1.565,0.83,1.5,66,1,9.998,-0.24900001,-9.995001,0.117000006,4.687473,0,nan,0.0,4,1,14
410577263,1562952330600437,323876919,-1170776528,37345,2900,0.19000001,0.019063707,0.754,1.5640001,0.83,1.5,66,1,10.003,-0.115,-10.002001,0.158,4.7009315,0,nan,0.0,4,1,14
410778358,1562952330800437,323876918,-1170776739,37338,2893,0.202,0.02074917,0.754,1.5640001,0.83,1.5,66,1,9.929001,0.078,-9.929001,-0.053000003,4.720198,0,nan,0.0,4,1,14
410976288,1562952331000437,323876918,-1170776951,37350,2904,0.193,0.02052193,0.754,1.5630001,0.83,1.5,66,1,10.037001,-0.08800001,-10.037001,-0.018000001,4.703648,0,nan,0.0,4,1,14
411176307,1562952331200437,323876918,-1170777162,37295,2850,0.201,0.019909143,0.754,1.5630001,0.83,1.5,70,1,9.955001,0.13000001,-9.954,0.027,4.7254653,0,nan,0.0,4,1,14
411377255,1562952331400437,323876919,-1170777373,37317,2872,0.202,0.020459097,0.75500005,1.5630001,0.83,1.5,70,1,9.966001,0.07,-9.966001,-0.071,4.7194433,0,nan,0.0,4,1,14
411578295,1562952331600437,323876923,-1170777587,37383,2938,0.192,0.01889982,0.753,1.562,0.83,1.5,70,1,10.151,0.20300001,-10.149,-0.116000004,4.7324142,0,nan,0.0,4,1,14
411779476,1562952331800437,323876928,-1170777801,37422,2977,0.19600001,0.020239536,0.753,1.5600001,0.83,1.5,70,1,10.045,0.31100002,-10.040001,-0.22200002,4.743368,0,nan,0.0,4,1,14
411972284,1562952332000437,323876932,-1170778015,37465,3020,0.193,0.019483633,0.753,1.5600001,0.83,1.5,70,1,10.157001,0.102000006,-10.157001,-0.15,4.7224474,0,nan,0.0,4,1,14
412180866,1562952332200437,323876935,-1170778230,37442,2997,0.20300001,0.02036677,0.753,1.5600001,0.83,1.5,70,1,10.094001,0.26700002,-10.091001,-0.17500001,4.73884,0,nan,0.0,4,1,14
412376285,1562952332400437,323876941,-1170778445,37488,3043,0.19600001,0.018852696,0.75100005,1.557,0.83,1.5,70,1,10.151,0.32900003,-10.145,-0.105000004,4.7448077,0,nan,0.0,4,1,14
412575209,1562952332600437,323876948,-1170778661,37514,3069,0.19100001,0.017801136,0.749,1.554,0.83,1.5,70,1,10.191001,0.33,-10.186001,-0.09900001,4.7447596,0,nan,0.0,4,1,14
412772665,1562952332800437,323876954,-1170778876,37477,3032,0.19600001,0.017913884,0.74600005,1.552,0.83,1.5,70,1,10.141001,0.32000002,-10.136001,0.063,4.743903,0,nan,0.0,4,1,14
412973632,1562952333000437,323876962,-1170779091,37468,3023,0.2,0.019477,0.74600005,1.552,0.83,1.5,70,1,10.09,0.367,-10.084001,0.17300001,4.7487516,0,nan,0.0,4,1,14
413176343,1562952333200437,323876969,-1170779306,37464,3019,0.19100001,0.01858217,0.74600005,1.5510001,0.83,1.5,70,7,10.187,0.324,-10.182,0.067,4.7441697,0,nan,0.0,4,1,14
413377258,1562952333400437,323876975,-1170779522,37464,3018,0.187,0.017518219,0.74300003,1.549,0.83,1.5,70,7,10.068001,0.33200002,-10.062,-0.12900001,4.745374,0,nan,0.0,4,1,14
413573635,1562952333600437,323876982,-1170779735,37540,3094,0.187,0.018615156,0.74100006,1.5460001,0.83,1.5,70,7,9.870001,0.277,-9.866,-0.155,4.740415,0,nan,0.0,4,1,14
413782341,1562952333800437,323876987,-1170779942,37563,3118,0.185,0.018259458,0.73800004,1.542,0.83,1.5,70,7,9.642,0.22700001,-9.64,-0.354,4.7359185,0,nan,0.0,4,1,14
413983339,1562952334000438,323876992,-1170780141,37627,3181,0.185,0.019486774,0.735,1.5380001,0.83,1.5,70,7,9.031,0.23200001,-9.028001,-0.397,4.7380595,0,nan,0.0,4,1,14
414180277,1562952334200438,323876997,-1170780329,37793,3347,0.171,0.01975189,0.73,1.526,0.83,1.5,70,1,8.528001,0.12200001,-8.527,-0.58500004,4.726709,0,nan,0.0,4,1,14
414381205,1562952334400438,323877002,-1170780504,37894,3449,0.171,0.02060012,0.725,1.514,0.83,1.5,70,1,7.9220004,0.377,-7.9130006,-0.45200002,4.748652,0,nan,0.0,4,1,14
414577649,1562952334600438,323877009,-1170780666,37993,3548,0.15300001,0.022390129,0.71800005,1.4970001,0.83,1.5,70,1,7.2460003,0.372,-7.2360005,-0.24100001,4.7580066,0,nan,0.0,4,1,14
414776272,1562952334800438,323877015,-1170780813,38012,3567,0.33100003,0.060762934,0.721,1.5040001,0.83,1.5,70,1,6.591,0.35000002,-6.5810003,-0.038000003,4.7594185,0,nan,0.0,4,1,14
414982269,1562952335000438,323877023,-1170780945,38026,3581,0.372,0.07000585,0.73200005,1.514,0.83,1.5,70,1,5.932,0.42700002,-5.9160004,0.254,4.7706804,0,nan,0.0,4,1,14
415186329,1562952335200438,323877028,-1170781066,37954,3509,0.18200001,0.033387274,0.73600006,1.506,0.83,1.5,80,1,5.4230003,0.035,-5.4230003,0.546,4.7280626,0,nan,0.0,4,1,14
415384377,1562952335400438,323877031,-1170781175,37858,3413,0.17300001,0.03629604,0.73200005,1.496,0.83,1.5,80,1,4.8040004,0.115,-4.802,0.614,4.7323318,0,nan,0.0,4,1,14
415580297,1562952335600438,323877033,-1170781272,37805,3360,0.18900001,0.042770687,0.73,1.488,0.83,1.5,80,1,4.4420004,-0.07300001,-4.441,0.522,4.7155204,0,nan,0.0,4,1,14
415781262,1562952335800438,323877031,-1170781362,37677,3232,0.178,0.044281967,0.72800004,1.4820001,0.83,1.5,80,1,4.0210004,-0.14500001,-4.019,0.47000003,4.69552,0,nan,0.0,4,1,14
415988521,1562952336000438,323877029,-1170781445,37561,3116,0.179,0.04748011,0.725,1.4760001,0.83,1.5,80,1,3.7500002,-0.135,-3.7470002,0.503,4.6861215,0,nan,0.0,4,1,14
416179215,1562952336200438,323877027,-1170781522,37521,3075,0.17500001,0.048400596,0.721,1.4670001,0.83,1.5,74,3,3.469,-0.17,-3.4650002,0.45400003,4.6744723,0,nan,0.0,4,1,14
416383743,1562952336400438,323877024,-1170781593,37435,2989,0.19600001,0.05628739,0.71800005,1.4640001,0.83,1.5,74,3,3.1590002,-0.23200001,-3.1510003,0.365,4.6587577,0,nan,0.0,4,1,14
416578314,1562952336600438,323877021,-1170781657,37313,2868,0.18200001,0.059601244,0.71500003,1.46,0.83,1.5,74,3,2.947,-0.16900001,-2.9420002,0.4,4.6569695,0,nan,0.0,4,1,14
416781282,1562952336800438,323877020,-1170781717,37288,2842,0.19500001,0.06650873,0.71300006,1.457,0.83,1.5,74,3,2.693,-0.097,-2.6910002,0.358,4.665734,0,nan,0.0,4,1,14
416979694,1562952337000438,323877019,-1170781772,37199,2753,0.18300001,0.069458164,0.71000004,1.4530001,0.83,1.5,74,3,2.515,-0.057000004,-2.515,0.384,4.6773705,0,nan,0.0,4,1,14
417181267,1562952337200438,323877019,-1170781824,37142,2697,0.18200001,0.07272891,0.708,1.4490001,0.83,1.5,74,3,2.3990002,-0.008,-2.3990002,0.36100003,4.692615,0,nan,0.0,4,1,14
417382289,1562952337400438,323877020,-1170781873,37085,2639,0.19500001,0.08279754,0.70500004,1.447,0.83,1.5,74,3,2.2220001,0.031000001,-2.2220001,0.24800001,4.707575,0,nan,0.0,4,1,14
417578288,1562952337600438,323877021,-1170781919,37027,2581,0.18400002,0.08194704,0.70400006,1.445,0.83,1.5,74,3,2.118,0.079,-2.117,0.25300002,4.728959,0,nan,0.0,4,1,14
417781316,1562952337800438,323877023,-1170781963,36971,2525,0.18200001,0.08729508,0.702,1.442,0.83,1.5,74,3,2.0410001,0.093,-2.039,0.124000005,4.7427454,0,nan,0.0,4,1,14
417981129,1562952338000438,323877025,-1170782004,36937,2491,0.18300001,0.10229636,0.70100003,1.44,0.83,1.5,74,3,1.8290001,0.13900001,-1.8240001,0.062000003,4.7620454,0,nan,0.0,4,1,14
418186497,1562952338200438,323877028,-1170782043,36979,2534,0.18200001,0.10687104,0.70100003,1.4380001,0.83,1.5,74,2,1.7190001,0.179,-1.71,0.08400001,4.7881813,0,nan,0.0,4,1,14
418380328,1562952338400438,323877030,-1170782079,36916,2470,0.18900001,0.11023045,0.69900006,1.4360001,0.83,1.5,74,2,1.646,0.12900001,-1.641,0.19700001,4.789583,0,nan,0.0,4,1,14
418581264,1562952338600438,323877032,-1170782113,36881,2435,0.185,0.112390295,0.697,1.4330001,0.83,1.5,74,2,1.5840001,0.133,-1.5780001,0.28800002,4.7931004,0,nan,0.0,4,1,14
418772299,1562952338800438,323877034,-1170782145,36825,2379,0.187,0.122763135,0.69500005,1.4310001,0.83,1.5,74,2,1.452,0.017,-1.452,0.30600002,4.76158,0,nan,0.0,4,1,14
418978294,1562952339000438,323877033,-1170782176,36770,2324,0.18800001,0.1231794,0.694,1.4280001,0.83,1.5,74,2,1.427,-0.05,-1.4260001,0.27800003,4.719478,0,nan,0.0,4,1,14
419176287,1562952339200438,323877033,-1170782205,36700,2255,0.193,0.1449365,0.69200003,1.4260001,0.83,1.5,74,14,1.304,0.062000003,-1.3030001,0.22200002,4.7363906,0,nan,0.0,4,1,14
419377266,1562952339400438,323877033,-1170782232,36652,2206,0.18800001,0.15441713,0.69000006,1.424,0.83,1.5,74,14,1.1880001,0.016,-1.1880001,0.087000005,4.731287,0,nan,0.0,4,1,14
419578285,1562952339600438,323877034,-1170782255,36636,2191,0.23,0.25225225,0.69200003,1.4260001,0.83,1.5,74,14,1.021,0.123,-1.014,0.17500001,4.759089,0,nan,0.0,4,1,14
419782301,1562952339800438,323877035,-1170782277,36609,2164,0.246,0.2554394,0.69500005,1.4310001,0.83,1.5,74,14,0.98100007,-0.057000004,-0.97900003,0.16800001,4.7072897,0,nan,0.0,4,1,14
419980284,1562952340000438,323877035,-1170782298,36610,2164,0.24900001,0.2952341,0.69900006,1.4380001,0.83,1.5,74,14,0.88500005,0.091000006,-0.88000005,0.18100001,4.7536397,0,nan,0.0,4,1,14
420178282,1562952340200438,323877037,-1170782316,36602,2156,0.261,0.3175904,0.703,1.4440001,0.83,1.5,69,1,0.84400004,0.049000002,-0.84300005,0.134,4.761445,0,nan,0.0,4,1,14
420378292,1562952340400438,323877037,-1170782335,36582,2136,0.21700001,0.28434762,0.70600003,1.447,0.83,1.5,69,1,0.85600007,0.009000001,-0.85600007,-0.015000001,4.74037,0,nan,0.0,4,1,14
420574304,1562952340600438,323877037,-1170782353,36555,2109,0.21800001,0.30245438,0.708,1.4490001,0.83,1.5,69,1,0.8,0.016,-0.8,0.07700001,4.7368426,0,nan,0.0,4,1,14
420776557,1562952340800438,323877036,-1170782369,36504,2058,0.22000001,0.34486952,0.71000004,1.452,0.83,1.5,69,1,0.697,-0.009000001,-0.697,0.078,4.7205806,0,nan,0.0,4,1,14
420975683,1562952341000438,323877037,-1170782384,36496,2051,0.231,0.38642582,0.71300006,1.455,0.83,1.5,69,1,0.66800004,0.025,-0.66800004,0.023000002,4.7335835,0,nan,0.0,4,1,14
421177271,1562952341200438,323877037,-1170782399,36506,2061,0.245,0.38834465,0.717,1.4610001,0.83,1.5,69,1,0.65000004,0.001,-0.65000004,-0.008,4.7240934,0,nan,0.0,4,1,14
421376277,1562952341400438,323877037,-1170782413,36506,2060,0.224,0.33202252,0.71900004,1.465,0.83,1.5,69,1,0.72300005,0.012,-0.72300005,-0.164,4.726967,0,nan,0.0,4,1,14
421580134,1562952341600438,323877036,-1170782427,36536,2090,0.238,0.41572064,0.72200006,1.4710001,0.83,1.5,69,1,0.563,-0.07700001,-0.55700004,-0.27400002,4.668033,0,nan,0.0,4,1,14
421780293,1562952341800438,323877036,-1170782438,36573,2127,0.289,0.5276442,0.72400004,1.4760001,0.83,1.5,69,1,0.49400002,0.098000005,-0.48400003,-0.476,4.7611895,0,nan,0.0,4,1,14
421978955,1562952342000438,323877039,-1170782450,36688,2243,0.27,0.40467167,0.72700006,1.4810001,0.83,1.5,69,1,0.58900005,0.238,-0.53900003,-0.37100002,4.9923906,0,nan,0.0,4,1,14
422183242,1562952342200438,323877047,-1170782463,36830,2384,0.273,0.36505514,0.731,1.4900001,0.83,1.5,69,4,0.813,0.568,-0.582,-0.41500002,5.264298,0,nan,0.0,4,1,14
422380321,1562952342400438,323877060,-1170782474,36900,2454,0.279,0.24070445,0.734,1.493,0.83,1.5,69,4,0.99000007,0.873,-0.46600002,-0.47000003,5.632452,0,nan,0.0,4,1,14
422581340,1562952342600438,323877083,-1170782484,37003,2557,0.27100003,0.13634075,0.73700005,1.4970001,0.83,1.5,69,4,1.6450001,1.5940001,-0.40600002,-0.42000002,5.9362936,0,nan,0.0,4,1,14
422779226,1562952342800438,323877117,-1170782493,37064,2619,0.273,0.093090445,0.739,1.5020001,0.83,1.5,69,4,2.233,2.187,-0.45100003,-0.485,6.0345416,0,nan,0.0,4,1,14
422976387,1562952343000438,323877164,-1170782500,37111,2666,0.24200001,0.06924942,0.74,1.503,0.83,1.5,69,4,3.055,3.045,-0.24300002,-0.37,6.144083,0,nan,0.0,4,1,14
423180279,1562952343200438,323877226,-1170782505,37129,2683,0.24300002,0.05455934,0.74200004,1.508,0.83,1.5,65,4,3.9480002,3.9410002,-0.22500001,-0.24000001,6.1955214,0,nan,0.0,4,1,14
423377301,1562952343400438,323877306,-1170782508,37171,2726,0.24700001,0.044663846,0.74500006,1.516,0.83,1.5,65,4,4.9160004,4.9150004,-0.07300001,-0.27100003,6.240606,0,nan,0.0,4,1,14
423579212,1562952343600438,323877403,-1170782508,37207,2761,0.21400002,0.038472813,0.74700004,1.524,0.83,1.5,65,4,5.7380004,5.7380004,0.05,-0.201,6.271895,0,nan,0.0,4,1,14
423774866,1562952343800438,323877517,-1170782509,37241,2795,0.208,0.032262933,0.748,1.5330001,0.83,1.5,65,4,6.8160005,6.8150005,-0.10700001,-0.2,6.2690706,0,nan,0.0,4,1,14
423977262,1562952344000438,323877647,-1170782511,37380,2934,0.21100001,0.02972505,0.749,1.5410001,0.83,1.5,65,4,7.3890004,7.3890004,-0.065000005,-0.55300003,6.2723346,0,nan,0.0,4,1,14
424184495,1562952344200438,323877788,-1170782512,37601,3156,0.21200001,0.0274926,0.75000006,1.549,0.83,1.5,64,2,8.0060005,8.005,0.068,-0.683,0.008478983,0,nan,0.0,4,1,14
424375677,1562952344400438,323877938,-1170782510,37668,3223,0.209,0.025078634,0.75100005,1.557,0.83,1.5,64,2,8.764001,8.7630005,0.133,-0.60800004,0.015156613,0,nan,0.0,4,1,14
424576271,1562952344600438,323878099,-1170782508,37856,3411,0.21100001,0.024373172,0.75200003,1.565,0.83,1.5,64,2,9.025001,9.025001,0.07,-0.69000006,0.007726223,0,nan,0.0,4,1,14
424776328,1562952344800438,323878265,-1170782504,38015,3569,0.209,0.02373316,0.753,1.572,0.83,1.5,64,2,9.259001,9.252001,0.365,-0.75000006,0.039387543,0,nan,0.0,4,1,14
424978293,1562952345000438,323878438,-1170782498,38179,3734,0.18900001,0.022618419,0.75200003,1.5790001,0.83,1.5,64,2,9.548,9.547001,0.16900001,-0.794,0.017700255,0,nan,0.0,4,1,14
425179716,1562952345200438,323878614,-1170782495,38364,3919,0.19500001,0.022588573,0.75100005,1.5870001,0.83,1.5,64,1,9.651,9.650001,0.187,-0.87900007,0.01939532,0,nan,0.0,4,1,14
425381254,1562952345400438,323878789,-1170782491,38496,4051,0.19700001,0.022815118,0.75000006,1.5940001,0.83,1.5,64,1,9.627001,9.625,0.18300001,-0.64900005,0.019006286,0,nan,0.0,4,1,14
425581753,1562952345600439,323878963,-1170782489,38625,4179,0.19000001,0.022280173,0.748,1.6,0.83,1.5,64,1,9.665001,9.665001,0.042000003,-0.66,0.004295953,0,nan,0.0,4,1,14
425778332,1562952345800439,323879138,-1170782488,38729,4283,0.18900001,0.022052234,0.74700004,1.605,0.83,1.5,64,1,9.76,9.759001,0.085,-0.674,0.0086933095,0,nan,0.0,4,1,14
425975745,1562952346000439,323879316,-1170782489,38948,4503,0.17300001,0.019401778,0.74300003,1.6020001,0.83,1.5,64,1,9.706,9.705001,-0.14600001,-0.68,6.268095,0,nan,0.0,4,1,14
426183768,1562952346200439,323879491,-1170782491,39125,4679,0.27800003,0.027631527,0.74600005,1.616,0.83,1.5,63,2,9.579,9.579,0.011000001,-0.531,0.0011993902,0,nan,0.0,4,1,14
426377292,1562952346400439,323879666,-1170782491,39143,4698,0.305,0.03299929,0.75200003,1.6340001,0.83,1.5,63,2,9.924001,9.924001,-0.007,-0.39000002,6.282477,0,nan,0.0,4,1,14
426574341,1562952346600439,323879844,-1170782490,39196,4751,0.268,0.024632005,0.75900006,1.6500001,0.83,1.5,63,2,9.858001,9.858001,0.098000005,-0.349,0.009913644,0,nan,0.0,4,1,14
426776273,1562952346800439,323880023,-1170782489,39277,4832,0.277,0.026877021,0.76400006,1.6680001,0.83,1.5,63,2,9.894,9.894,-0.0050000004,-0.102000006,6.2827086,0,nan,0.0,4,1,14
426976281,1562952347000439,323880202,-1170782491,39354,4909,0.284,0.028533513,0.771,1.687,0.83,1.5,63,2,9.882001,9.882001,-0.083000004,-0.10300001,6.274815,0,nan,0.0,4,1,14
427179331,1562952347200439,323880380,-1170782493,39264,4819,0.259,0.024597272,0.776,1.7060001,0.83,1.5,63,2,9.8880005,9.887,-0.11800001,0.25100002,6.2712526,0,nan,0.0,4,1,14
427374288,1562952347400439,323880556,-1170782494,39235,4790,0.261,0.02530029,0.78200006,1.728,0.87,1.65,63,2,9.688001,9.688001,-0.015000001,0.060000002,6.2816567,0,nan,0.0,4,1,13
427580044,1562952347600439,323880732,-1170782495,39253,4808,0.261,0.024921555,0.78700006,1.7470001,0.83,1.5,63,2,9.726001,9.726001,-0.004,0.106000006,6.282802,0,nan,0.0,4,1,14
427774317,1562952347800439,323880910,-1170782493,39320,4875,0.27800003,0.03039421,0.79200006,1.7680001,0.83,1.5,63,2,9.795,9.791,0.257,0.079,0.026242768,0,nan,0.0,4,1,14
427973269,1562952348000439,323881088,-1170782490,39373,4929,0.30200002,0.034844622,0.79800004,1.789,0.83,1.5,63,2,9.872001,9.872001,0.038000003,-0.08400001,0.0038241907,0,nan,0.0,4,1,14
428179593,1562952348200439,323881267,-1170782489,39410,4965,0.29200003,0.03263626,0.80500007,1.8080001,0.83,1.5,63,0,9.902,9.902,0.12100001,-0.07300001,0.012257796,0,nan,0.0,4,1,14
428377357,1562952348400439,323881446,-1170782486,39451,5006,0.26700002,0.026725179,0.81100005,1.8240001,0.83,1.5,63,0,9.808001,9.807,0.164,-0.011000001,0.016723918,0,nan,0.0,4,1,14
428577532,1562952348600439,323881624,-1170782483,39482,5037,0.25300002,0.0242784,0.81600004,1.8390001,0.83,1.5,63,0,9.891001,9.89,0.18,-0.048,0.018163292,0,nan,0.0,4,1,14
428774863,1562952348800439,323881803,-1170782479,39516,5071,0.24800001,0.024264613,0.818,1.8500001,0.83,1.5,63,0,9.816001,9.815001,0.18300001,-0.16600001,0.018641338,0,nan,0.0,4,1,14
428975255,1562952349000439,323881979,-1170782477,39574,5130,0.24800001,0.024664642,0.82100004,1.8610001,0.83,1.5,63,0,9.634001,9.634001,0.119,-0.21400002,0.012337557,0,nan,0.0,4,1,14
429176654,1562952349200439,323882151,-1170782475,39580,5135,0.279,0.03112463,0.82500005,1.8740001,0.83,1.5,63,0,9.525001,9.525001,0.069000006,-0.448,0.0072900653,0,nan,0.0,4,1,14
429379213,1562952349400439,323882321,-1170782475,39707,5262,0.273,0.034356106,0.82900006,1.8880001,0.83,1.5,63,0,9.227,9.227,-0.035,-0.49600002,6.2794247,0,nan,0.0,4,1,14
429577659,1562952349600439,323882482,-1170782475,39816,5372,0.273,0.033991855,0.83400005,1.899,0.83,1.5,63,0,8.641001,8.64,0.057000004,-0.669,0.0066381847,0,nan,0.0,4,1,14
429775241,1562952349800439,323882630,-1170782475,39958,5514,0.252,0.030713953,0.83800006,1.9020001,0.83,1.5,63,0,7.9700003,7.9690003,-0.089,-0.597,6.2786555,0,nan,0.0,4,1,14
429976278,1562952350000439,323882765,-1170782475,39965,5521,0.282,0.043308076,0.84200007,1.9070001,0.83,1.5,63,0,7.4470005,7.4460006,-0.068,-0.120000005,6.276706,0,nan,0.0,4,1,14
430182332,1562952350200439,323882893,-1170782476,40027,5582,0.293,0.04726491,0.84700006,1.914,0.83,1.5,63,2,6.8490005,6.8490005,-0.096,0.053000003,6.272939,0,nan,0.0,4,1,14
430375214,1562952350400439,323883010,-1170782479,40016,5571,0.29200003,0.05170939,0.85300004,1.9210001,0.83,1.5,63,2,6.234,6.2310004,-0.193,0.252,6.262749,0,nan,0.0,4,1,14
430575218,1562952350600439,323883115,-1170782483,39976,5532,0.28,0.052295648,0.85800004,1.922,0.87,1.5,63,2,5.5220003,5.517,-0.22500001,0.42200002,6.252118,0,nan,0.0,4,1,13
430780158,1562952350800439,323883209,-1170782486,39914,5469,0.231,0.059813302,0.86,1.9200001,0.83,1.5,63,2,5.012,5.011,-0.076000005,0.39600003,6.259359,0,nan,0.0,4,1,14
430977908,1562952351000439,323883292,-1170782488,39769,5325,0.21200001,0.053356282,0.86200005,1.9160001,0.83,1.5,63,2,4.493,4.491,-0.14600001,0.33100003,6.2543645,0,nan,0.0,4,1,14
431179259,1562952351200439,323883369,-1170782489,39642,5198,0.21300001,0.06475555,0.86300004,1.9110001,0.83,1.5,63,2,4.105,4.105,0.058000002,0.517,6.2724957,0,nan,0.0,4,1,14
431380271,1562952351400439,323883443,-1170782488,39591,5146,0.16900001,0.051841162,0.85700005,1.8930001,0.83,1.5,63,2,3.7570002,3.7570002,0.018000001,0.588,6.282156,0,nan,0.0,4,1,14
431586342,1562952351600439,323883507,-1170782486,39413,4969,0.15300001,0.053631872,0.84900004,1.8800001,0.83,1.5,63,2,3.4880002,3.486,0.09200001,0.75900006,0.012689765,0,nan,0.0,4,1,14
431778078,1562952351800439,323883563,-1170782483,39160,4715,0.16900001,0.06288735,0.84300005,1.8670001,0.83,1.5,63,2,3.121,3.118,0.126,1.0070001,0.024821896,0,nan,0.0,4,1,14
431984312,1562952352000439,323883617,-1170782478,39101,4657,0.19500001,0.092714675,0.84200007,1.8640001,0.83,1.5,63,2,2.956,2.9440002,0.27,0.93600005,0.046416853,0,nan,0.0,4,1,14
432181355,1562952352200439,323883666,-1170782472,38966,4522,0.21400002,0.100339495,0.84300005,1.8610001,0.83,1.5,63,1,2.749,2.739,0.23900001,0.77500004,0.06534879,0,nan,0.0,4,1,14
432378006,1562952352400439,323883712,-1170782468,38805,4360,0.19600001,0.089309886,0.84400004,1.8570001,0.83,1.5,63,1,2.5930002,2.5900002,0.106000006,0.55,0.051649176,0,nan,0.0,4,1,14
432578899,1562952352600439,323883754,-1170782463,38745,4301,0.16900001,0.07689868,0.84000003,1.8420001,0.83,1.5,63,1,2.4870002,2.4680002,0.30200002,0.43500003,0.092258796,0,nan,0.0,4,1,14
432775210,1562952352800439,323883793,-1170782458,38777,4332,0.18300001,0.09241814,0.83800006,1.8320001,0.83,1.5,63,1,2.2770002,2.272,0.148,0.39600003,0.08099776,0,nan,0.0,4,1,14
432981255,1562952353000439,323883830,-1170782455,38786,4341,0.22700001,0.13202211,0.83900005,1.8280001,0.83,1.5,63,1,2.051,2.042,0.18400002,0.24100001,0.08397965,0,nan,0.0,4,1,14
433177277,1562952353200439,323883867,-1170782453,38771,4327,0.16700001,0.09795555,0.836,1.8190001,0.83,1.5,63,2,2.0210001,2.02,0.038000003,0.177,0.041719824,0,nan,0.0,4,1,14
433378296,1562952353400439,323883900,-1170782450,38698,4254,0.202,0.112008765,0.83500004,1.8160001,0.83,1.5,63,2,1.9410001,1.9280001,0.22200002,0.14500001,0.07358029,0,nan,0.0,4,1,14
433575227,1562952353600439,323883932,-1170782446,38656,4211,0.21000001,0.11948646,0.83500004,1.8140001,0.83,1.5,63,2,1.8390001,1.8310001,0.16800001,0.155,0.081873216,0,nan,0.0,4,1,14
433776285,1562952353800439,323883962,-1170782442,38714,4270,0.15400001,0.107444204,0.82900006,1.8000001,0.83,1.5,63,2,1.7730001,1.7650001,0.16700001,0.15900001,0.08885034,0,nan,0.0,4,1,14
433977250,1562952354000439,323883990,-1170782438,38707,4263,0.148,0.11564778,0.823,1.7900001,0.87,1.65,63,2,1.6270001,1.616,0.187,0.14,0.101172544,0,nan,0.0,4,1,13
434176292,1562952354200439,323884018,-1170782434,38680,4236,0.18800001,0.14592645,0.81900007,1.7850001,0.87,1.65,63,4,1.626,1.6110001,0.22500001,0.16000001,0.11578793,0,nan,0.0,4,1,13
434376270,1562952354400439,323884046,-1170782430,38657,4213,0.20600002,0.15457734,0.82000005,1.784,0.83,1.5,63,4,1.5350001,1.5300001,0.125,0.16900001,0.09960227,0,nan,0.0,4,1,14
434574145,1562952354600439,323884070,-1170782427,38601,4156,0.215,0.17816406,0.82100004,1.7850001,0.83,1.5,63,4,1.3490001,1.345,0.11000001,-0.07,0.091813385,0,nan,0.0,4,1,14
434774324,1562952354800439,323884091,-1170782426,38577,4132,0.208,0.17856951,0.822,1.7850001,0.83,1.5,63,4,1.309,1.3060001,0.079,-0.07300001,0.07629828,0,nan,0.0,4,1,14
434973267,1562952355000439,323884112,-1170782424,38596,4152,0.202,0.18012774,0.82100004,1.7780001,0.83,1.5,63,4,1.2420001,1.23,0.16800001,-0.208,0.10595073,0,nan,0.0,4,1,14
435177277,1562952355200439,323884124,-1170782419,38462,4018,0.15200001,0.15776938,0.81500006,1.7670001,0.83,1.5,64,5,1.1850001,1.1630001,0.22500001,-0.026,0.15424521,0,nan,0.0,4,1,14
435373274,1562952355400439,323884142,-1170782416,38441,3996,0.178,0.17162608,0.81000006,1.7600001,0.83,1.5,64,5,1.143,1.1420001,0.037,-0.18400002,0.09822241,0,nan,0.0,4,1,14
435571254,1562952355600439,323884162,-1170782413,38458,4014,0.30200002,0.37694257,0.813,1.769,0.83,1.5,64,5,1.1140001,1.0940001,0.21300001,-0.16700001,0.11444228,0,nan,0.0,4,1,14
435783220,1562952355800439,323884181,-1170782409,38450,4006,0.216,0.20902061,0.81700003,1.7680001,0.83,1.5,64,5,1.0550001,1.028,0.24000001,0.056,0.202077,0,nan,0.0,4,1,14
