timestamp,states[0],states[1],states[2],states[3],states[4],states[5],states[6],states[7],states[8],states[9],states[10],states[11],states[12],states[13],states[14],states[15],states[16],states[17],states[18],states[19],states[20],states[21],states[22],states[23],vibe[0],vibe[1],vibe[2],covariances[0],covariances[1],covariances[2],covariances[3],covariances[4],covariances[5],covariances[6],covariances[7],covariances[8],covariances[9],covariances[10],covariances[11],covariances[12],covariances[13],covariances[14],covariances[15],covariances[16],covariances[17],covariances[18],covariances[19],covariances[20],covariances[21],covariances[22],covariances[23],control_mode_flags,pos_horiz_accuracy,pos_vert_accuracy,mag_test_ratio,vel_test_ratio,pos_test_ratio,hgt_test_ratio,tas_test_ratio,hagl_test_ratio,beta_test_ratio,time_slip,gps_check_fail_flags,filter_fault_flags,innovation_check_flags,solution_status_flags,n_states,pre_flt_fail_innov_heading,pre_flt_fail_innov_vel_horiz,pre_flt_fail_innov_vel_vert,pre_flt_fail_innov_height,health_flags,timeout_flags
221923174,-0.9984807,0.039810024,-0.016594965,0.034294665,-0.00965885,-0.041730527,-0.050467044,1.4604125,0.58462447,0.89646053,-9.134256e-05,4.652896e-05,7.169241e-06,-0.00063697476,-0.00066502625,-0.00043165323,0.23492244,0.047543988,0.3837369,-0.0052747233,0.0047989874,0.011294553,0.0,0.0,2.2912486e-10,5.8269206e-06,0.00040552052,7.541828e-08,5.665867e-06,5.7185143e-06,3.112095e-05,0.012473098,0.012469654,0.008566608,0.0498786,0.049852874,0.045568723,1.1753767e-11,1.1755813e-11,1.745943e-11,5.000059e-08,5e-08,5.0000033e-08,0.0,0.0,0.0,0.0,0.0,0.0,0.0,0.0,535,0.3158029,0.21346831,0.00044804183,0.024656184,0.0018352998,0.009180607,0.0,0.007416683,0.0,0.0,0,0,0,895,24,0,0,0,0,0,0
222123973,-0.99848825,0.03964444,-0.016624121,0.034252305,-0.014096255,-0.043270893,-0.051480357,1.4587294,0.5827588,0.89133614,-9.1374815e-05,4.6526824e-05,7.1481772e-06,-0.00063691015,-0.00066525704,-0.00043602372,0.23492244,0.047543988,0.3837369,-0.0052747233,0.0047989874,0.011294553,0.0,0.0,3.5424992e-09,6.423541e-05,0.0017225443,7.5434755e-08,5.7164257e-06,5.7677257e-06,3.1195923e-05,0.0124156475,0.012415172,0.008550083,0.049627542,0.049604394,0.045530267,1.1764822e-11,1.1766647e-11,1.7469508e-11,5.0000484e-08,5.0000054e-08,5.0000054e-08,0.0,0.0,0.0,0.0,0.0,0.0,0.0,0.0,535,0.315011,0.21337822,0.0059790662,0.025401551,0.0029199913,0.008669755,0.0,0.007416683,0.0,0.0,0,0,0,895,24,0,0,0,0,0,0
222331972,-0.9984969,0.03949258,-0.016458074,0.034255154,-0.013071809,-0.03401176,-0.051760323,1.4572864,0.5842324,0.88627744,-9.142224e-05,4.65259e-05,7.135481e-06,-0.0006368898,-0.0006656791,-0.00043929133,0.23492244,0.047543988,0.3837369,-0.0052747233,0.0047989874,0.011294553,0.0,0.0,5.3633733e-09,0.00011252911,0.0026378236,7.5475825e-08,5.7782595e-06,5.8285e-06,3.1246753e-05,0.012467452,0.012469853,0.008579274,0.049876757,0.049855992,0.045785233,1.1781586e-11,1.17831855e-11,1.7474997e-11,5.000063e-08,5e-08,5.000007e-08,0.0,0.0,0.0,0.0,0.0,0.0,0.0,0.0,535,0.31580493,0.21397485,0.008261021,0.034882694,0.0061150473,0.025019865,0.0,0.007416683,0.0,0.0,0,0,0,895,24,0,0,0,0,0,0
222532771,-0.9985003,0.03935332,-0.016279958,0.034400363,-0.009946521,-0.03360101,-0.044085395,1.4585475,0.5835202,0.89471227,-9.145173e-05,4.6542136e-05,7.1235613e-06,-0.00063688814,-0.00066553097,-0.00045175888,0.23492244,0.047543988,0.3837369,-0.0052747233,0.0047989874,0.011294553,0.0,0.0,9.527429e-09,0.000165319,0.0035905815,7.587668e-08,5.8295877e-06,5.8788073e-06,3.1321168e-05,0.0124611305,0.012466004,0.008572674,0.049814165,0.0497961,0.045807365,1.1791533e-11,1.1793061e-11,1.7486174e-11,5.0000633e-08,5.000004e-08,5.000004e-08,0.0,0.0,0.0,0.0,0.0,0.0,0.0,0.0,535,0.31561095,0.21402656,0.012838467,0.054887988,0.005523126,0.003491363,0.0,0.007416683,0.0,0.0,0,0,0,895,24,0,0,0,0,0,0
222732771,-0.99849945,0.03940603,-0.016310668,0.034351446,-0.01189134,-0.031947043,-0.03974953,1.4574658,0.5802167,0.8989009,-9.146103e-05,4.6546185e-05,7.1119116e-06,-0.0006368406,-0.0006653632,-0.00045983493,0.23492244,0.047543988,0.3837369,-0.0052747233,0.0047989874,0.011294553,0.0,0.0,1.8203824e-08,0.00025171874,0.0043365853,7.5869686e-08,5.87926e-06,5.92772e-06,3.135162e-05,0.01246468,0.012471887,0.008569842,0.04979133,0.04977599,0.045855157,1.1800762e-11,1.1802238e-11,1.748887e-11,5.000065e-08,5.0000004e-08,5.000007e-08,0.0,0.0,0.0,0.0,0.0,0.0,0.0,0.0,535,0.3155429,0.21413818,0.014384694,0.031722724,0.0056972136,0.040509805,0.0,0.007416683,0.0,0.0,0,0,0,895,24,0,0,0,0,0,0
222941572,-0.9985,0.039481472,-0.016233416,0.034285296,-0.016160332,-0.030902173,-0.041004658,1.4572774,0.5768424,0.8986553,-9.1473696e-05,4.6558725e-05,7.092007e-06,-0.00063687185,-0.0006652736,-0.00046412574,0.23492244,0.047543988,0.3837369,-0.0052747233,0.0047989874,0.011294553,0.0,0.0,1.7965466e-08,0.0002592913,0.0045601544,7.588902e-08,5.9334566e-06,5.981373e-06,3.139902e-05,0.012523014,0.01253255,0.008551799,0.05004526,0.05003264,0.045571964,1.1809538e-11,1.1811036e-11,1.7493462e-11,5.0000658e-08,5e-08,5e-08,0.0,0.0,0.0,0.0,0.0,0.0,0.0,0.0,535,0.3163509,0.21347591,0.0005938345,0.013139639,0.0038409503,0.012784743,0.0,0.007416683,0.0,0.0,0,0,0,895,24,0,0,0,0,0,0
223141571,-0.9985064,0.039355733,-0.01616694,0.034276456,-0.012539528,-0.02938325,-0.034962013,1.4566903,0.5722916,0.9084716,-9.1479014e-05,4.656662e-05,7.080655e-06,-0.0006368226,-0.00066498504,-0.00047237924,0.23492244,0.047543988,0.3837369,-0.0052747233,0.0047989874,0.011294553,0.0,0.0,1.4431576e-08,0.00022225613,0.0042111087,7.5923026e-08,5.9762906e-06,6.023191e-06,3.147186e-05,0.01251799,0.012529349,0.008546424,0.049995776,0.04998596,0.04560356,1.1812657e-11,1.1814335e-11,1.7505723e-11,5.0000658e-08,5e-08,5e-08,0.0,0.0,0.0,0.0,0.0,0.0,0.0,0.0,535,0.3161989,0.2135499,0.015748765,0.021003816,0.0033329397,0.018852556,0.0,0.007416683,0.0,0.0,0,0,0,895,24,0,0,0,0,0,0
223347173,-0.99850297,0.03935762,-0.01620631,0.034352917,-0.012678255,-0.03235884,-0.03044628,1.4546481,0.5660773,0.9084775,-9.147808e-05,4.6567624e-05,7.0627616e-06,-0.00063681795,-0.00066480297,-0.0004772679,0.23492244,0.047543988,0.3837369,-0.0052747233,0.0047989874,0.011294553,0.0,0.0,1.22630945e-08,0.0002013496,0.004187335,7.624119e-08,6.0254965e-06,6.071601e-06,3.1517022e-05,0.01257739,0.012590534,0.008577847,0.05026738,0.050260354,0.045834944,1.1816692e-11,1.1818529e-11,1.7509742e-11,5.0000715e-08,5e-08,5.0000036e-08,0.0,0.0,0.0,0.0,0.0,0.0,0.0,0.0,535,0.3170611,0.21409097,0.013084198,0.020927642,0.0035003473,0.02310929,0.0,0.007416683,0.0,0.0,0,0,0,895,24,0,0,0,0,0,0
223547173,-0.9985045,0.0394383,-0.01619349,0.034222446,-0.014984031,-0.03290728,-0.032097418,1.4535209,0.5591964,0.9060213,-9.147299e-05,4.6580313e-05,7.037117e-06,-0.0006367935,-0.0006646598,-0.0004794233,0.23492244,0.047543988,0.3837369,-0.0052747233,0.0047989874,0.011294553,0.0,0.0,2.0153669e-08,0.0002645244,0.0061045014,7.61545e-08,6.062265e-06,6.107887e-06,3.15856e-05,0.012563775,0.012578508,0.0085740825,0.050150916,0.050146542,0.045792267,1.1812686e-11,1.18148226e-11,1.7517925e-11,5.0000697e-08,5.000004e-08,5.000004e-08,0.0,0.0,0.0,0.0,0.0,0.0,0.0,0.0,535,0.31669775,0.21399128,0.033325683,0.0070130713,0.0007141938,0.018838983,0.0,0.007416683,0.0,0.0,0,0,0,895,24,0,0,0,0,0,0
223747972,-0.9985812,0.038025074,-0.014872231,0.034184523,-0.01571531,-0.03743357,-0.033868354,1.4506587,0.559113,0.8999324,-9.150719e-05,4.6575846e-05,7.020494e-06,-0.00063680066,-0.00066454586,-0.00048178676,0.23492244,0.047543988,0.3837369,-0.0052747233,0.0047989874,0.011294553,0.0,0.0,2.7657276e-08,0.00037634632,0.009296362,7.519485e-08,6.098268e-06,6.1407823e-06,3.161406e-05,0.012573095,0.012588973,0.008574312,0.050144054,0.05014223,0.045815032,1.1808523e-11,1.18109255e-11,1.7517276e-11,5.0000736e-08,5e-08,5.0000033e-08,0.0,0.0,0.0,0.0,0.0,0.0,0.0,0.0,535,0.3166801,0.21404447,0.0019359476,0.025591413,0.0015183939,0.015463253,0.0,0.007416683,0.0,0.0,0,0,0,895,24,0,0,0,0,0,0
223955971,-0.9985697,0.038236573,-0.014955255,0.034246437,-0.012621208,-0.028247342,-0.026749339,1.4508194,0.55386907,0.9208072,-9.151575e-05,4.659346e-05,7.0066712e-06,-0.0006366479,-0.00066413195,-0.00048903294,0.23492244,0.047543988,0.3837369,-0.0052747233,0.0047989874,0.011294553,0.0,0.0,3.9475957e-08,0.00047792253,0.010713042,7.563079e-08,6.1404085e-06,6.18281e-06,3.1701e-05,0.012643076,0.012660249,0.008610877,0.050458293,0.050459046,0.04607675,1.1808085e-11,1.1810873e-11,1.7532635e-11,5.0000793e-08,5.0000075e-08,5.0000075e-08,0.0,0.0,0.0,0.0,0.0,0.0,0.0,0.0,663,0.3176749,0.21465495,0.016465468,0.016724782,0.0019393116,0.009096836,0.0,0.007416683,0.0,0.0,0,0,0,895,24,0,0,0,0,0,0
224156771,-0.99857676,0.038144846,-0.014763865,0.034226008,-0.01114207,-0.03074575,-0.023547081,1.4515134,0.5512187,0.9240237,-9.153836e-05,4.6607787e-05,6.992535e-06,-0.0006366113,-0.00066389947,-0.00049156096,0.23492244,0.047543988,0.3837369,-0.0052747233,0.0047989874,0.011294553,0.0,0.0,5.0472657e-08,0.00059521396,0.012518207,7.5563776e-08,6.1689384e-06,6.2106255e-06,3.172374e-05,0.012634557,0.012652555,0.00860667,0.050398037,0.050401106,0.04608063,1.1798392e-11,1.1801521e-11,1.7531462e-11,5.0000736e-08,5.0000022e-08,5.000007e-08,0.0,0.0,0.0,0.0,0.0,0.0,0.0,0.0,663,0.31748882,0.214664,0.0028277861,0.016417885,0.0052508363,0.0037181552,0.0,0.007416683,0.0,0.0,0,0,0,895,24,0,0,0,0,0,0
224356772,-0.9985956,0.037645172,-0.014524193,0.034333117,-0.012107462,-0.029236943,-0.022497296,1.4465318,0.55081296,0.9261178,-9.157205e-05,4.6590747e-05,6.973593e-06,-0.00063669676,-0.000663537,-0.0004966967,0.23492244,0.047543988,0.3837369,-0.0052747233,0.0047989874,0.011294553,0.0,0.0,9.056912e-08,0.00067071256,0.014928049,7.567081e-08,6.195949e-06,6.236107e-06,3.1791827e-05,0.012636989,0.012655609,0.008605769,0.050378345,0.050383557,0.04611193,1.1788928e-11,1.1792523e-11,1.7542238e-11,5.0000754e-08,5.000007e-08,5.0000107e-08,0.0,0.0,0.0,0.0,0.0,0.0,0.0,0.0,663,0.31743017,0.21473688,0.03611785,0.027847454,0.0017957778,0.029282834,0.0,0.007416683,0.0,0.0,0,0,0,895,24,0,0,0,0,0,0
224561572,-0.9987009,0.034050364,-0.013628467,0.035374608,-0.013185284,-0.018283624,-0.031749293,1.444914,0.5484009,0.92318976,-9.158916e-05,4.6596764e-05,6.970482e-06,-0.00063669204,-0.00066340406,-0.00049259036,0.23492244,0.047543988,0.3837369,-0.0052747233,0.0047989874,0.011294553,0.0,0.0,2.0330249e-07,0.00069953635,0.014577834,7.641366e-08,6.2288423e-06,6.2604286e-06,3.1836436e-05,0.012695065,0.012714441,0.008590731,0.050640002,0.05064741,0.045819268,1.1779976e-11,1.1784001e-11,1.7544669e-11,5.0000793e-08,5.0000036e-08,5.0000036e-08,0.0,0.0,0.0,0.0,0.0,0.0,0.0,0.0,663,0.31825683,0.21405436,0.0010195855,0.04448022,0.003197186,0.016105004,0.0,0.007416683,0.0,0.0,0,0,0,895,24,0,0,0,0,0,0
224769572,-0.9992067,0.012141494,-0.012706896,0.035738025,-0.008118355,0.02300057,-0.075461365,1.4438978,0.5533414,0.91645604,-9.162226e-05,4.6600515e-05,6.971091e-06,-0.0006366798,-0.00066310924,-0.00049074256,0.23492244,0.047543988,0.3837369,-0.0052747233,0.0047989874,0.011294553,0.0,0.0,5.2412133e-07,0.00093162863,0.017593281,7.044689e-08,6.263822e-06,6.259758e-06,3.190208e-05,0.012763719,0.01278322,0.008624114,0.05083199,0.05084136,0.04597453,1.1767059e-11,1.17715655e-11,1.7543265e-11,5.0000835e-08,5.000003e-08,5.0000036e-08,0.0,0.0,0.0,0.0,0.0,0.0,0.0,0.0,663,0.3188626,0.21441673,0.022771228,0.03173371,0.00362,0.0029690186,0.0,0.007416683,0.0,0.0,0,0,0,895,24,0,0,0,0,0,0
224969573,-0.99926305,-0.0017684726,-0.008744622,0.037334662,0.05159775,0.10196402,-0.17108262,1.4519935,0.570499,0.89695454,-9.165552e-05,4.661267e-05,6.934623e-06,-0.00063664565,-0.00066273136,-0.0004859487,0.23492244,0.047543988,0.3837369,-0.0052747233,0.0047989874,0.011294553,0.0,0.0,7.8699213e-07,0.001224493,0.02360384,7.2992485e-08,6.094961e-06,6.0854654e-06,3.196905e-05,0.011403227,0.011417651,0.00812544,0.043686304,0.04369305,0.04466786,1.1631812e-11,1.1638576e-11,1.7550104e-11,5e-08,5e-08,5e-08,0.0,0.0,0.0,0.0,0.0,0.0,0.0,0.0,663,0.2956,0.21134771,0.01398761,0.015328831,0.0024801325,0.018102715,0.0,0.007416683,0.0,0.0,0,0,0,895,24,0,0,0,0,0,0
225170371,-0.9992215,0.011345005,-0.00460563,0.037503075,0.081814885,0.1412245,-0.43507397,1.4658364,0.5965015,0.79517514,-9.165644e-05,4.661584e-05,6.907037e-06,-0.000636795,-0.0006631009,-0.00047138985,0.23492244,0.047543988,0.3837369,-0.0052747233,0.0047989874,0.011294553,0.0,0.0,7.082873e-07,0.0014603201,0.03117576,7.4167794e-08,6.2965487e-06,6.2950953e-06,3.1981344e-05,0.0130038485,0.013019914,0.00862596,0.0508395,0.0508514,0.045997463,1.1734003e-11,1.1740086e-11,1.7548485e-11,5.0000867e-08,5.000023e-08,5.0000036e-08,0.0,0.0,0.0,0.0,0.0,0.0,0.0,0.0,663,0.31889012,0.2144702,0.0062021995,0.015328831,0.0024801325,0.028532913,0.0,0.007416683,0.0,0.0,0,0,0,895,24,0,0,0,0,0,0
225370371,-0.9991757,0.011636869,-0.0059807226,0.038429618,0.12048527,0.20541836,-0.7871255,1.4853988,0.6389652,0.66083837,-9.170867e-05,4.659684e-05,6.8901286e-06,-0.0006372161,-0.0006624196,-0.00046236414,0.23492244,0.047543988,0.3837369,-0.0052747233,0.0047989874,0.011294553,0.0,0.0,7.33311e-07,0.0016324326,0.034476984,7.6849005e-08,6.1060873e-06,6.1046776e-06,3.2039716e-05,0.011766449,0.011778493,0.008131051,0.043748006,0.043756165,0.0447086,1.1587682e-11,1.1596751e-11,1.7555804e-11,5.000004e-08,5.000004e-08,5.000004e-08,0.0,0.0,0.0,0.0,0.0,0.0,0.0,0.0,663,0.29581103,0.21144408,0.009050141,0.03213193,0.000723455,0.00952056,0.0,0.007416683,0.0,0.0,0,0,0,895,24,0,0,0,0,0,0
225571172,-0.99888253,0.011150104,-0.015263386,0.043317884,0.13901667,0.3055031,-1.0845032,1.5044055,0.69325453,0.46524847,-9.173003e-05,4.6546924e-05,6.869227e-06,-0.0006380544,-0.0006620039,-0.00044481122,0.23492244,0.047543988,0.3837369,-0.0052747233,0.0047989874,0.011294553,0.0,0.0,7.794146e-07,0.0015896715,0.03275058,9.20684e-08,6.1077453e-06,6.100116e-06,3.2035714e-05,0.011931937,0.011940482,0.008136019,0.04381857,0.043827087,0.044727217,1.1560057e-11,1.1570655e-11,1.7551665e-11,5.0000033e-08,5.0000015e-08,5.000003e-08,0.0,0.0,0.0,0.0,0.0,0.0,0.0,0.0,663,0.2960501,0.2114881,0.018486384,0.11515216,0.0029246204,0.044707563,0.0,0.007416683,0.0,0.0,0,0,0,895,24,0,0,0,0,0,0
225779172,-0.99838275,0.029494716,-0.013471581,0.04669698,0.14253956,0.39691472,-1.4552655,1.5249138,0.7610688,0.14495946,-9.167491e-05,4.649784e-05,6.8646336e-06,-0.00063908356,-0.0006632791,-0.0004114215,0.23492244,0.047543988,0.3837369,-0.0052747233,0.0047989874,0.011294553,0.0,0.0,9.453282e-07,0.0016725307,0.034092307,1.07170614e-07,6.0994334e-06,6.1242363e-06,3.2079573e-05,0.0121833645,0.012187456,0.008175252,0.044178978,0.044187702,0.04497408,1.1534473e-11,1.1546944e-11,1.7563362e-11,5.0000075e-08,5.0000075e-08,5.0000075e-08,0.0,0.0,0.0,0.0,0.0,0.0,0.0,0.0,663,0.29726532,0.21207093,0.00067077915,0.12178175,0.0058171595,0.031005222,0.0,0.007416683,0.0,0.0,0,0,0,895,24,0,0,0,0,0,0
225979972,-0.99715936,0.04632261,0.03655086,0.04681319,0.26765555,0.42674786,-1.6182984,1.567197,0.8366223,-0.17305812,-9.162756e-05,4.6535664e-05,6.8702375e-06,-0.0006384459,-0.0006640814,-0.00040377417,0.23492244,0.047543988,0.3837369,-0.0052747233,0.0047989874,0.011294553,0.0,0.0,1.3853261e-06,0.0015687721,0.032609787,1.2119548e-07,6.1065816e-06,6.1440405e-06,3.2025408e-05,0.012226582,0.012233224,0.008177036,0.044257686,0.04426625,0.044985477,1.1501343e-11,1.1515574e-11,1.755817e-11,5.000007e-08,5.0000068e-08,5.000006e-08,0.0,0.0,0.0,0.0,0.0,0.0,0.0,0.0,663,0.29752973,0.2120978,0.0120779155,0.04471131,0.009550043,0.007639214,0.0,0.007416683,0.0,0.0,0,0,0,895,24,0,0,0,0,0,0
226179973,0.9930896,-0.040528152,-0.08795925,-0.06628511,0.6253364,0.42038143,-1.5952628,1.6592739,0.9237691,-0.5110203,-9.165761e-05,4.6575697e-05,6.862835e-06,-0.0006378082,-0.0006635264,-0.00038790892,0.23031473,0.047276575,0.40022597,-0.0052747233,0.0047989874,0.011294553,0.0,0.0,1.1758127e-06,0.0014919783,0.030889535,1.0503005e-05,2.3585164e-05,9.779589e-06,0.0022444047,0.012070361,0.012119898,0.008176029,0.04438753,0.044396285,0.045014188,1.1472328e-11,1.14880605e-11,1.7574527e-11,5.000011e-08,5.0000093e-08,5.0000075e-08,0.0,0.0,0.0,0.0,0.0,0.0,0.0,0.0,8389271,0.29796612,0.21216547,0.03853747,0.09541025,0.0059590186,0.014570735,0.0,0.007416683,0.0,0.0,0,0,0,895,24,0,0,0,0,0,0
226388772,0.992999,-0.028630609,-0.099594325,-0.05669413,1.1018254,0.47034478,-1.5682493,1.8469433,1.0142816,-0.87433696,-9.165714e-05,4.6638674e-05,6.870486e-06,-0.00063709076,-0.00066376943,-0.0003730512,0.23031473,0.047276575,0.40022597,-0.0052747233,0.0047989874,0.011294553,0.0,0.0,9.09863e-07,0.0014372993,0.029111378,5.293195e-06,1.7172522e-05,7.0999026e-06,0.0011102931,0.010934744,0.012086026,0.008162427,0.044654105,0.044665392,0.04472185,1.1462964e-11,1.1479899e-11,1.767732e-11,5.0000107e-08,5.0000093e-08,5e-08,0.0,0.0,0.0,0.0,0.0,0.0,0.0,0.0,8389271,0.29886368,0.21147542,0.032216385,0.042242955,0.007363922,0.0020654583,0.0,0.007416683,0.0,0.0,0,0,0,831,24,0,0,0,0,0,0
226588772,0.9931441,-0.020027721,-0.1016094,-0.054214787,1.5782368,0.53462654,-1.5025501,2.119908,1.1215012,-1.2101771,-9.169976e-05,4.6662393e-05,6.865862e-06,-0.0006368862,-0.0006639817,-0.0003640436,0.23032215,0.04727434,0.40017983,-0.005269611,0.0047984086,0.011249302,0.0,0.0,2.3722373e-06,0.0015891384,0.032602157,4.2761426e-06,1.5237171e-05,6.595705e-06,0.0008776933,0.010186631,0.013283844,0.0081756385,0.044476856,0.04451638,0.044744782,1.14676255e-11,1.14843595e-11,1.7778225e-11,5.0000075e-08,5.000006e-08,5.000004e-08,9.079424e-07,9.296981e-07,2.5173213e-06,1.1646216e-06,7.257948e-07,2.2999538e-06,0.0,0.0,8389351,0.29831734,0.21152963,0.1236562,0.041359145,0.007045458,0.040309835,0.0,0.007416683,0.0,0.0,0,0,0,831,24,0,0,0,0,0,0
226788771,0.9648283,-0.06834752,-0.23740822,-0.08984708,2.3644402,0.4508699,-1.5962262,2.51934,1.2207367,-1.5286957,-9.168452e-05,4.672785e-05,6.877681e-06,-0.00063730904,-0.00066406844,-0.00036055842,0.23031949,0.047273774,0.40010372,-0.005286098,0.0047990945,0.011188382,0.0,0.0,4.024073e-06,0.0015759579,0.033216465,9.596995e-06,5.3603213e-05,1.042804e-05,0.00080169685,0.009799041,0.018905176,0.008198854,0.044215456,0.044381298,0.044746567,1.14879035e-11,1.1500624e-11,1.787759e-11,5.000011e-08,5.00001e-08,5e-08,9.067182e-07,9.291984e-07,2.4968292e-06,1.1601213e-06,7.247866e-07,2.2818433e-06,0.0,0.0,8389351,0.29765207,0.21153384,0.06380425,0.046892617,0.015866311,0.030403683,0.0,0.007416683,0.0,0.0,0,0,0,831,24,0,0,0,0,0,0
226993572,0.93815804,-0.08710921,-0.25944358,-0.21203886,3.3766015,0.08223636,-1.4815058,3.1137614,1.2563487,-1.8279952,-9.1605485e-05,4.676294e-05,6.8970385e-06,-0.000637738,-0.00066222204,-0.0003629989,0.230311,0.047267646,0.3999928,-0.0053200945,0.0047944738,0.011109661,0.0,0.0,4.548677e-06,0.0015197893,0.031256888,3.9496637e-05,5.769488e-05,1.2431827e-05,0.0006972522,0.0100824535,0.029628176,0.00826546,0.043998446,0.04459075,0.04487332,1.1526736e-11,1.1527856e-11,1.7977854e-11,5.000008e-08,5.0000068e-08,5.0000043e-08,9.053338e-07,9.2917526e-07,2.4748551e-06,1.1555532e-06,7.238856e-07,2.26341e-06,0.0,0.0,8389351,0.29763937,0.21183324,0.10775644,0.08686581,0.014651878,0.046075035,0.0,0.007416683,0.0,0.0,0,0,0,831,24,0,0,0,0,0,0
227193572,0.9160082,-0.063979864,-0.27628368,-0.2837307,4.328048,-0.3220364,-1.3494228,3.896128,1.2366053,-2.0692759,-9.160337e-05,4.681968e-05,6.9043904e-06,-0.0006382999,-0.00066334027,-0.00037317266,0.2303068,0.04726618,0.39983138,-0.005362578,0.004792308,0.010988353,0.0,0.0,3.4787972e-06,0.0015817153,0.033726044,6.0810282e-05,5.6314646e-05,9.189516e-06,0.0005808698,0.011334385,0.039502297,0.008338516,0.043646283,0.045094546,0.04487635,1.1582414e-11,1.1564377e-11,1.8078004e-11,5.00001e-08,5.0000104e-08,5.0000075e-08,9.043013e-07,9.294392e-07,2.4560065e-06,1.1520366e-06,7.228813e-07,2.2481163e-06,0.0,0.0,8389351,0.29789397,0.21184039,0.12883106,0.047885697,0.017455311,0.05060449,0.0,0.007416683,0.0,0.0,0,0,0,831,24,0,0,0,0,0,0
227394372,0.89804715,-0.08277996,-0.31212413,-0.29872647,5.3131876,-0.7646679,-1.1767968,4.8760195,1.1215309,-2.2904382,-9.157924e-05,4.6876226e-05,6.9173943e-06,-0.00063881057,-0.0006629914,-0.00037804685,0.23029992,0.04726494,0.3996683,-0.0054121,0.004785608,0.010875823,0.0,0.0,3.061336e-06,0.001609135,0.035381075,5.5754987e-05,5.8066744e-05,1.0258006e-05,0.00046663365,0.013016322,0.04733591,0.008446438,0.043355875,0.046039764,0.044881094,1.16513145e-11,1.1609515e-11,1.8178507e-11,5.0000075e-08,5.0000104e-08,5.000007e-08,9.0303206e-07,9.2951103e-07,2.4356486e-06,1.1484138e-06,7.216572e-07,2.232077e-06,0.0,0.0,8389351,0.29899105,0.21185158,0.091763385,0.055997867,0.020812497,0.081432596,0.0,0.007416683,0.0,0.0,0,0,0,831,24,0,0,0,0,0,0
227602374,0.8874243,-0.13713905,-0.30890054,-0.3134512,6.203623,-1.4235936,-0.87943345,6.0869007,0.87836796,-2.438665,-9.156272e-05,4.6898276e-05,6.9251178e-06,-0.00063948834,-0.0006612287,-0.00039556448,0.23029311,0.047262717,0.39953715,-0.0054569035,0.004779857,0.010796765,0.0,0.0,2.7330698e-06,0.0015294907,0.03463065,4.8618233e-05,4.542826e-05,1.5092707e-05,0.0003705577,0.015720204,0.05036229,0.008545371,0.043455515,0.047737703,0.044614047,1.1733942e-11,1.1668748e-11,1.828528e-11,5e-08,5.000014e-08,5e-08,9.021646e-07,9.2967116e-07,2.4181757e-06,1.1450717e-06,7.2048e-07,2.2188046e-06,0.0,0.0,8389351,0.30198213,0.21122037,0.079735875,0.048959572,0.019391505,0.06797101,0.0,0.007416683,0.0,0.0,0,0,0,831,24,0,0,0,0,0,0
227803174,0.89496994,-0.17449087,-0.24531046,-0.32924843,6.8621526,-2.1563075,-0.8446468,7.414766,0.5383499,-2.596995,-9.154461e-05,4.6928704e-05,6.9302437e-06,-0.00064004806,-0.000663318,-0.00039813734,0.23028943,0.047272462,0.39938095,-0.0055090007,0.0047887582,0.010699334,0.0,0.0,2.2290849e-06,0.0015274073,0.033455294,4.320988e-05,2.3958608e-05,1.7847447e-05,0.00030261464,0.01906284,0.04725261,0.008647463,0.04347965,0.04901097,0.04462085,1.1813908e-11,1.1729399e-11,1.838622e-11,5e-08,5.0000146e-08,5e-08,9.009711e-07,9.2950546e-07,2.3991965e-06,1.1414572e-06,7.1910875e-07,2.2046925e-06,0.0,0.0,8389351,0.30412272,0.21123648,0.10804026,0.052945662,0.021130979,0.016932044,0.0,0.007416683,0.0,0.0,0,0,0,831,24,0,0,0,0,0,0
228003172,0.89241594,-0.20158412,-0.21169196,-0.34372118,7.1965275,-3.0192366,-0.96281636,8.842266,0.029869892,-2.7844958,-9.152992e-05,4.6939393e-05,6.9311773e-06,-0.000642468,-0.0006648683,-0.00040296352,0.23029597,0.047280658,0.3992425,-0.0055429135,0.00480539,0.010602457,0.0,0.0,2.5917316e-06,0.0015515148,0.034047514,3.832743e-05,1.5424455e-05,1.867434e-05,0.00024615263,0.022804534,0.0403246,0.008713077,0.043782596,0.05011484,0.044655744,1.1897354e-11,1.1798818e-11,1.8489195e-11,5e-08,5.000015e-08,5e-08,9.000949e-07,9.2943856e-07,2.382885e-06,1.1382895e-06,7.1784586e-07,2.1921755e-06,0.0,0.0,8389351,0.30642688,0.21131906,0.09962503,0.059840277,0.018670773,0.005929755,0.0,0.007416683,0.0,0.0,0,0,0,831,24,0,0,0,0,0,0
228203972,0.86966515,-0.22589403,-0.19403127,-0.39370868,7.28541,-3.7973652,-0.91579854,10.297079,-0.6431033,-2.9579582,-9.1526104e-05,4.694187e-05,6.935256e-06,-0.00063887547,-0.00066601724,-0.00040590967,0.2303085,0.04728728,0.3990906,-0.0055740867,0.0048274193,0.010494468,0.0,0.0,2.8597208e-06,0.0015366039,0.03331305,4.1495998e-05,1.1503272e-05,1.9165347e-05,0.00019634786,0.025201019,0.032978836,0.008720287,0.04431157,0.050792657,0.044669908,1.1980063e-11,1.1872349e-11,1.8590338e-11,5e-08,5.0000146e-08,5e-08,8.9895605e-07,9.291896e-07,2.3651792e-06,1.1349291e-06,7.1640324e-07,2.178651e-06,0.0,0.0,8389351,0.30838972,0.21135257,0.07991163,0.046731547,0.010811012,0.036757436,0.0,0.007416683,0.0,0.0,0,0,0,831,24,0,0,0,0,0,0
228411975,0.85144395,-0.2284907,-0.17014073,-0.4403264,7.251584,-4.551641,-0.8380647,11.834263,-1.4796803,-3.0915985,-9.149607e-05,4.694283e-05,6.942842e-06,-0.0006395734,-0.00066937576,-0.0004239051,0.23031908,0.04729805,0.39892253,-0.005614426,0.0048536,0.010383373,0.0,0.0,2.654653e-06,0.0016911803,0.03736071,4.4337008e-05,8.675964e-06,1.7454391e-05,0.00016139827,0.027102752,0.02691963,0.008749522,0.045389105,0.051509146,0.044926055,1.20698295e-11,1.1957013e-11,1.8697464e-11,5.000004e-08,5.0000185e-08,5.000004e-08,8.979121e-07,9.290285e-07,2.3481805e-06,1.1318169e-06,7.148793e-07,2.165304e-06,0.0,0.0,8389351,0.31128484,0.21195768,0.10088834,0.09431764,0.011901851,0.032508347,0.0,0.007416683,0.0,0.0,0,0,0,831,24,0,0,0,0,0,0
228611971,0.8452432,-0.2458358,-0.14079419,-0.45310664,7.0608788,-5.127089,-0.83744895,13.287831,-2.4177804,-3.2040262,-9.147506e-05,4.694442e-05,6.951611e-06,-0.0006399934,-0.00067307457,-0.0004473467,0.23033041,0.04731069,0.39877635,-0.0056504314,0.004879359,0.010293036,0.0,0.0,2.0851442e-06,0.0017581029,0.03919268,4.1076368e-05,6.810274e-06,1.7274051e-05,0.00014013301,0.027382871,0.022197986,0.00870749,0.046332,0.051482826,0.044960883,1.2155015e-11,1.2040092e-11,1.87985e-11,5.0000075e-08,5.000022e-08,5.0000075e-08,8.97075e-07,9.2896516e-07,2.3334824e-06,1.1291414e-06,7.135117e-07,2.153241e-06,0.0,0.0,8389351,0.31275362,0.21203981,0.09065011,0.10790151,0.03155616,0.059907686,0.0,0.007416683,0.0,0.0,0,0,0,831,24,0,0,0,0,0,0
228812771,0.8493792,-0.23109296,-0.13742518,-0.45416477,6.6842904,-5.7871833,-0.9352756,14.673135,-3.5154135,-3.390599,-9.146714e-05,4.6948968e-05,6.9500884e-06,-0.00064248213,-0.0006729976,-0.00044740472,0.23034316,0.047315903,0.39863104,-0.0056767394,0.004903448,0.010192784,0.0,0.0,1.8558352e-06,0.001678504,0.03705242,3.7139616e-05,6.34533e-06,1.4398014e-05,0.00012760297,0.02776682,0.0187158,0.008673412,0.04734546,0.051170427,0.04501667,1.224343e-11,1.2128648e-11,1.8901044e-11,5.000009e-08,5.00002e-08,5.000009e-08,8.962695e-07,9.2895607e-07,2.3192667e-06,1.1265852e-06,7.121888e-07,2.141186e-06,0.0,0.0,8389351,0.3138724,0.21217132,0.15914385,0.02362318,0.00927835,0.0005295567,0.0,0.007416683,0.0,0.0,0,0,0,831,24,0,0,0,0,0,0
229020772,0.85962516,-0.1958256,-0.15841205,-0.44452512,6.374697,-6.16293,-0.78844637,16.058178,-4.7526913,-3.5494225,-9.14282e-05,4.697923e-05,6.9723064e-06,-0.0006420791,-0.00067621603,-0.00044753324,0.23035064,0.04732847,0.39848092,-0.005714444,0.0049250945,0.010093445,0.0,0.0,1.7859522e-06,0.0016323259,0.03772506,3.3274402e-05,6.4915366e-06,1.090769e-05,0.00012025964,0.026500585,0.016933313,0.008610268,0.04882148,0.05108404,0.04476537,1.2335929e-11,1.2222342e-11,1.90054e-11,5e-08,5.0000285e-08,5e-08,8.952854e-07,9.2889775e-07,2.303901e-06,1.1238378e-06,7.1080893e-07,2.1281758e-06,0.0,0.0,8389351,0.31607834,0.2115783,0.07717542,0.08409616,0.038332,0.06824814,0.0,0.007416683,0.0,0.0,0,0,0,831,24,0,0,0,0,0,0
229218372,0.8704402,-0.1592999,-0.14503393,-0.44263157,6.2755117,-6.414289,-0.8534578,17.326,-6.0085325,-3.6554983,-9.142914e-05,4.698982e-05,6.9759594e-06,-0.0006416061,-0.00067634473,-0.00045590103,0.23035581,0.047339022,0.39836618,-0.00574432,0.00493857,0.010010646,0.0,0.0,1.4769928e-06,0.0016867496,0.04056903,3.099721e-05,6.044526e-06,8.418874e-06,0.000114555834,0.024829565,0.016470606,0.008566396,0.049764384,0.050612275,0.04479469,1.2426407e-11,1.2314216e-11,1.910526e-11,5e-08,5.000024e-08,5e-08,8.942713e-07,9.288422e-07,2.289029e-06,1.1211962e-06,7.095108e-07,2.1153332e-06,0.0,0.0,8389351,0.31682277,0.21164756,0.076320745,0.05254708,0.018961996,0.054477535,0.0,0.007416683,0.0,0.0,0,0,0,831,24,0,0,0,0,0,0
229426372,0.87063205,-0.15324937,-0.15503718,-0.44099662,6.146271,-6.703954,-1.0929459,18.610022,-7.3387938,-3.8811104,-9.143856e-05,4.7004807e-05,7.0031174e-06,-0.00063122,-0.0006801999,-0.0004414401,0.23035504,0.047350723,0.39826563,-0.0057749082,0.0049470873,0.009936894,0.0,0.0,1.3225409e-06,0.0016981993,0.039749905,2.9303694e-05,5.93639e-06,7.6647875e-06,0.00010861653,0.023662528,0.016454091,0.008564967,0.050841965,0.05046139,0.044969387,1.2521369e-11,1.24103896e-11,1.920689e-11,5.0000036e-08,5.000024e-08,5.0000036e-08,8.9356956e-07,9.2901456e-07,2.2762763e-06,1.1188837e-06,7.083938e-07,2.1037977e-06,0.0,0.0,8389351,0.3182819,0.21205987,0.07935143,0.110035114,0.01708942,0.011799808,0.0,0.007416683,0.0,0.0,0,0,0,831,24,0,0,0,0,0,0
229627171,0.86879575,-0.1502615,-0.17366658,-0.43869722,6.1033087,-6.812469,-1.028816,19.838675,-8.680628,-4.082723,-9.145369e-05,4.701636e-05,7.0230026e-06,-0.0006222885,-0.00068265793,-0.0004367491,0.23035865,0.047357876,0.39813608,-0.0058046617,0.00495682,0.009834939,0.0,0.0,1.0132761e-06,0.0016875361,0.03906083,2.8024015e-05,5.966343e-06,7.1187173e-06,0.00010397458,0.021832108,0.016426146,0.008513804,0.051562786,0.050263613,0.045020107,1.26177705e-11,1.2507495e-11,1.9307337e-11,5.0000036e-08,5.0000246e-08,5.0000036e-08,8.9261647e-07,9.2908914e-07,2.2623508e-06,1.1164084e-06,7.0719483e-07,2.0914522e-06,0.0,0.0,8389351,0.3191025,0.21217942,0.06955163,0.1289351,0.019742569,0.14904071,0.0,0.007416683,0.0,0.0,0,0,0,831,24,0,0,0,0,0,0
229827173,0.8699528,-0.14421463,-0.17438775,-0.43814754,6.0705667,-6.8894086,-0.8622857,21.053423,-10.027777,-4.1987696,-9.14646e-05,4.7007747e-05,7.039047e-06,-0.000618821,-0.0006860785,-0.00045645377,0.23035811,0.047365632,0.39803544,-0.005832819,0.0049626743,0.009759047,0.0,0.0,1.0349382e-06,0.0017485111,0.040011905,2.7137263e-05,5.77594e-06,6.601677e-06,0.00010073679,0.020224826,0.016399626,0.008464989,0.052087214,0.050157048,0.045042045,1.2713959e-11,1.2603805e-11,1.940534e-11,5.000004e-08,5.0000224e-08,5.000004e-08,8.9191985e-07,9.29345e-07,2.2503416e-06,1.1142296e-06,7.061518e-07,2.080601e-06,0.0,0.0,8389351,0.31975657,0.21223111,0.081915356,0.08002524,0.029278828,0.11088426,0.0,0.007416683,0.0,0.0,0,0,0,831,24,0,0,0,0,0,0
230035972,0.87401533,-0.1311845,-0.16446339,-0.43799517,6.0900807,-6.93104,-0.8517303,22.325827,-11.440037,-4.3149223,-9.146814e-05,4.6997324e-05,7.060216e-06,-0.00061724114,-0.0006906384,-0.00047317467,0.23035914,0.047375116,0.3979206,-0.005863232,0.004970414,0.00967067,0.0,0.0,9.268283e-07,0.0017218187,0.040822566,2.6500235e-05,5.521432e-06,6.0426364e-06,9.859914e-05,0.018987132,0.016590927,0.008455524,0.05282689,0.050470494,0.045276206,1.281574e-11,1.27050315e-11,1.9506707e-11,5.0000075e-08,5.000026e-08,5.0000075e-08,8.9106163e-07,9.295995e-07,2.2372958e-06,1.1119308e-06,7.050297e-07,2.0688356e-06,0.0,0.0,8389351,0.3213991,0.21278206,0.1026545,0.06755036,0.035969716,0.11339249,0.0,0.007416683,0.0,0.0,0,0,0,831,24,0,0,0,0,0,0
230235971,0.8738388,-0.13347706,-0.16121048,-0.43886313,6.0917196,-6.959988,-0.8624748,23.557932,-12.815508,-4.4368596,-9.147378e-05,4.7003778e-05,7.0830743e-06,-0.000611016,-0.0006942153,-0.00047350168,0.23035702,0.047384664,0.39780262,-0.005895319,0.0049762107,0.0095791705,0.0,0.0,1.4132811e-06,0.0018673015,0.042858563,2.6095113e-05,5.3628887e-06,5.8863857e-06,9.666553e-05,0.017949384,0.016696885,0.008418988,0.053101838,0.05060517,0.04530703,1.2916513e-11,1.2804637e-11,1.960501e-11,5.0000075e-08,5.000026e-08,5.0000075e-08,8.9017436e-07,9.29868e-07,2.2246077e-06,1.1097356e-06,7.0393963e-07,2.0573236e-06,0.0,0.0,8389351,0.32203573,0.21285447,0.09846557,0.16006309,0.032127984,0.03372227,0.0,0.007416683,0.0,0.0,0,0,0,831,24,0,0,0,0,0,0
230436771,0.8801229,-0.11592048,-0.123004325,-0.44363979,6.053519,-6.961583,-0.91193527,24.766863,-14.192815,-4.5899887,-9.1483205e-05,4.7008474e-05,7.0886836e-06,-0.00060405326,-0.0006946632,-0.000471595,0.23035412,0.047391504,0.39767632,-0.005924178,0.0049803574,0.009473898,0.0,0.0,2.723153e-06,0.0018692041,0.041034225,2.5956087e-05,5.1874636e-06,5.4645225e-06,9.545511e-05,0.017135313,0.01680973,0.008384789,0.053245287,0.05078788,0.045307852,1.3016165e-11,1.290266e-11,1.970019e-11,5.0000075e-08,5.000026e-08,5.0000075e-08,8.895297e-07,9.3028984e-07,2.213654e-06,1.1078355e-06,7.0297983e-07,2.0470407e-06,0.0,0.0,8389351,0.32254174,0.21285641,0.14279081,0.10879384,0.03245728,0.009170532,0.0,0.007416683,0.0,0.0,0,0,0,831,24,0,0,0,0,0,0
230644771,0.8883983,-0.07833455,-0.046712674,-0.44992244,5.837956,-6.765724,-1.2656425,26.013256,-15.591339,-4.938444,-9.15078e-05,4.703607e-05,7.16096e-06,-0.0005799213,-0.0007032772,-0.00042588136,0.23034646,0.047391698,0.39750704,-0.005943047,0.004979971,0.0093134185,0.0,0.0,3.31762e-06,0.0018799537,0.041297354,2.5749257e-05,5.9971135e-06,5.0782646e-06,9.382411e-05,0.016679306,0.017386775,0.008337142,0.053734846,0.05142773,0.04504206,1.3122041e-11,1.3006717e-11,1.9799537e-11,5e-08,5.0000317e-08,5e-08,8.887335e-07,9.3071077e-07,2.2017039e-06,1.1058509e-06,7.019324e-07,2.035374e-06,0.0,0.0,8389351,0.3242878,0.21223114,0.12359035,0.14448069,0.023135172,0.17276435,0.0,0.007416683,0.0,0.0,0,0,0,831,24,0,0,0,0,0,0
230845572,0.8909482,-0.045628373,0.018691333,-0.4514201,5.450417,-6.3582907,-1.5943905,27.135807,-16.877531,-5.4949584,-9.153149e-05,4.7097357e-05,7.219919e-06,-0.00054553134,-0.00070758,-0.000336963,0.23034066,0.047388826,0.39737567,-0.005941709,0.004978829,0.009180403,0.0,0.0,3.7908287e-06,0.001842117,0.036643654,2.515626e-05,7.658909e-06,5.0340805e-06,9.1502574e-05,0.016471105,0.01805809,0.00828859,0.0537151,0.05173571,0.045040566,1.3221282e-11,1.3104474e-11,1.9889718e-11,5e-08,5.0000313e-08,5e-08,8.8810054e-07,9.3117103e-07,2.1911876e-06,1.1040553e-06,7.009903e-07,2.0244843e-06,0.0,0.0,8389351,0.32473192,0.21222763,0.14013033,0.10115178,0.022822337,0.3591447,0.0,0.007416683,0.0,0.0,0,0,0,831,24,0,0,0,0,0,0
231045571,0.8891293,-0.006252326,0.08345352,-0.44993952,4.98147,-5.7741446,-1.8006098,28.176228,-18.070675,-6.12971,-9.155407e-05,4.7160374e-05,7.281514e-06,-0.0005100248,-0.00071181345,-0.00024386085,0.2303353,0.047380332,0.39718553,-0.005914697,0.0049764854,0.008995512,0.0,0.0,3.8602893e-06,0.0018924243,0.040490706,2.4279669e-05,1.0047722e-05,5.334497e-06,8.8101704e-05,0.016865335,0.018856805,0.008235598,0.053662494,0.052130427,0.045047853,1.3320777e-11,1.3203356e-11,1.9977704e-11,5e-08,5.000035e-08,5e-08,8.872464e-07,9.3149913e-07,2.179414e-06,1.1019558e-06,6.999357e-07,2.0120874e-06,0.0,0.0,8389351,0.32525826,0.2122448,0.20089209,0.086574405,0.01467255,0.25332364,0.0,0.007416683,0.0,0.0,0,0,0,831,24,0,0,0,0,0,0
231250372,0.8826025,0.082003385,0.06943676,-0.4576755,4.583886,-4.9517574,-1.750215,29.148508,-19.145506,-6.7463374,-9.1661415e-05,4.7220048e-05,7.3916085e-06,-0.00047829677,-0.0007165903,-0.00017146624,0.2303194,0.04737035,0.39698127,-0.0058765286,0.0049593486,0.008793463,0.0,0.0,5.372684e-06,0.0020050872,0.04351949,2.4030065e-05,8.645375e-06,7.1696268e-06,7.906965e-05,0.017911103,0.018966766,0.008205112,0.053640243,0.052718014,0.045232452,1.3397301e-11,1.3298062e-11,2.004438e-11,5e-08,5e-08,5e-08,8.864588e-07,9.317882e-07,2.1676844e-06,1.0996864e-06,6.987931e-07,1.999663e-06,0.0,0.0,8389351,0.32612613,0.21267922,0.13101028,0.10380988,0.045495566,0.21770065,0.0,0.007416683,0.0,0.0,0,0,0,831,24,0,0,0,0,0,0
231458373,0.8755354,0.1877733,-0.022570854,-0.44460022,4.6269264,-4.0474825,-1.4241899,30.079088,-20.033936,-7.2255087,-9.1923874e-05,4.7287434e-05,7.595028e-06,-0.00046600262,-0.0007219632,-0.00013441435,0.23030397,0.047369182,0.39674112,-0.005844475,0.004921357,0.008553785,0.0,0.0,5.3392605e-06,0.0020100942,0.039392192,2.1626467e-05,5.4158486e-06,1.0780637e-05,6.9113616e-05,0.019158643,0.017684372,0.008177787,0.05350047,0.053111784,0.045319375,1.3454845e-11,1.3383689e-11,2.0097625e-11,5.0000036e-08,5.0000065e-08,5.0000036e-08,8.8591736e-07,9.320517e-07,2.1572926e-06,1.0976808e-06,6.9757726e-07,1.9893034e-06,0.0,0.0,8389351,0.32651532,0.21288347,0.24275795,0.08777046,0.041860536,0.11080144,0.0,0.007416683,0.0,0.0,0,0,0,831,24,0,0,0,0,0,0
231658377,0.8855421,0.22241311,-0.015441309,-0.40756506,4.8442636,-3.0965838,-0.93070054,31.017548,-20.700323,-7.558404,-9.2208276e-05,4.730987e-05,7.804195e-06,-0.00045745136,-0.00072649075,-0.000116262265,0.23028694,0.047370896,0.39648643,-0.005816852,0.0048634615,0.008311154,0.0,0.0,5.0036383e-06,0.0017852052,0.03780512,1.6290709e-05,5.137536e-06,1.178377e-05,6.316625e-05,0.02039759,0.016163465,0.00812214,0.05329651,0.053217325,0.04527099,1.3511571e-11,1.3466279e-11,2.01547e-11,5e-08,5e-08,5e-08,8.8518505e-07,9.321138e-07,2.1454966e-06,1.0954402e-06,6.9611474e-07,1.9785332e-06,0.0,0.0,8389351,0.32636458,0.2127698,0.18021807,0.111117445,0.040266506,0.10188744,0.0,0.007416683,0.0,0.0,0,0,0,831,24,0,0,0,0,0,0
231859173,0.9135852,0.15888374,0.08012552,-0.36564744,4.8719134,-2.1269577,-0.59726095,31.974695,-21.185247,-7.77071,-9.241597e-05,4.7310165e-05,7.903645e-06,-0.000447137,-0.00071963517,-0.00010836199,0.2302769,0.0473796,0.39625496,-0.0057819756,0.004830586,0.008094582,0.0,0.0,4.685421e-06,0.001732133,0.041886587,1.1144563e-05,6.609602e-06,8.768555e-06,6.166504e-05,0.02192903,0.015308442,0.008103102,0.05327461,0.05327621,0.04522368,1.3574358e-11,1.35479e-11,2.0219706e-11,5.000004e-08,5.000004e-08,5.000004e-08,8.847098e-07,9.3216266e-07,2.1353392e-06,1.093078e-06,6.94896e-07,1.9693205e-06,0.0,0.0,8389351,0.32642123,0.2126586,0.23429567,0.10366917,0.03388877,0.06662898,0.0,0.007416683,0.0,0.0,0,0,0,831,24,0,0,0,0,0,0
232067173,0.9310542,0.0559483,0.1473284,-0.3290934,4.4348793,-1.2978182,-0.5170967,32.92468,-21.513746,-7.9356055,-9.250188e-05,4.729194e-05,7.900367e-06,-0.0004368784,-0.00070989877,-0.000108770844,0.23026274,0.0473848,0.39606982,-0.005752155,0.0048157824,0.007931386,0.0,0.0,3.983893e-06,0.0017790343,0.043495778,7.7368095e-06,7.821742e-06,5.790703e-06,5.9115468e-05,0.023126416,0.015292848,0.008130249,0.05378059,0.053641528,0.045406964,1.3640381e-11,1.3630903e-11,2.0293213e-11,5.0000036e-08,5.0000036e-08,5.0000036e-08,8.841103e-07,9.320013e-07,2.1244346e-06,1.0901531e-06,6.937353e-07,1.9591812e-06,0.0,0.0,8389351,0.32775313,0.2130891,0.10094712,0.12012743,0.032608334,0.055886533,0.0,0.007416683,0.0,0.0,0,0,0,831,24,0,0,0,0,0,0
232267971,0.9345453,-0.032875367,0.17788522,-0.30643323,3.6924298,-0.87226325,-0.46673322,33.70915,-21.707115,-8.063596,-9.25706e-05,4.727315e-05,7.857087e-06,-0.00042669385,-0.00069720176,-0.00012508233,0.23026253,0.04738798,0.39590913,-0.005717102,0.0048201485,0.007801688,0.0,0.0,2.9803527e-06,0.0016579758,0.03788385,6.048177e-06,8.014829e-06,4.640969e-06,5.539144e-05,0.02281326,0.015660789,0.008115675,0.05402497,0.053615153,0.04535606,1.37042105e-11,1.3705552e-11,2.0366807e-11,5.0000075e-08,5.0000075e-08,5.0000075e-08,8.8366676e-07,9.3167955e-07,2.1150386e-06,1.0874312e-06,6.9273284e-07,1.949832e-06,0.0,0.0,8389351,0.32808554,0.21296963,0.1638165,0.19462016,0.030100526,0.076242015,0.0,0.007416683,0.0,0.0,0,0,0,831,24,0,0,0,0,0,0
232467973,0.9332033,-0.07783533,0.17996985,-0.30113828,2.8540869,-0.6304926,-0.3727669,34.339043,-21.84481,-8.161801,-9.263164e-05,4.7288366e-05,7.79782e-06,-0.00041653533,-0.0006836809,-0.00014445286,0.23026882,0.047389384,0.39575723,-0.0056787194,0.0048325052,0.00769034,0.0,0.0,2.1795126e-06,0.0016435815,0.033502,5.4306734e-06,7.42044e-06,4.503844e-06,5.0921804e-05,0.021816308,0.016126316,0.008099669,0.0543198,0.053600077,0.045325432,1.37664845e-11,1.3777843e-11,2.0445414e-11,5e-08,5e-08,5e-08,8.830516e-07,9.311151e-07,2.1047254e-06,1.0845157e-06,6.91656e-07,1.9392803e-06,0.0,0.0,8389351,0.3285116,0.2128977,0.10949678,0.1907167,0.027118217,0.027240664,0.0,0.007416683,0.0,0.0,0,0,0,831,24,0,0,0,0,0,0
232668771,0.93139905,-0.087547824,0.17727678,-0.30562076,2.0114791,-0.52190644,-0.29865667,34.786194,-21.953608,-8.176733,-9.267941e-05,4.727276e-05,7.733544e-06,-0.00041176495,-0.00066879333,-0.00017890793,0.23027593,0.04739677,0.39561602,-0.005647647,0.0048508095,0.00758693,0.0,0.0,2.0408377e-06,0.0015948322,0.03166219,5.262939e-06,6.8674667e-06,4.5216752e-06,4.6876194e-05,0.020572074,0.016593687,0.0080882395,0.054526296,0.053543907,0.04527548,1.3829851e-11,1.3846838e-11,2.0526992e-11,5.000007e-08,5.000007e-08,5.000007e-08,8.8267404e-07,9.304904e-07,2.0957932e-06,1.0819026e-06,6.9060934e-07,1.9298755e-06,0.0,0.0,8389351,0.32874033,0.21278036,0.17522576,0.14360984,0.038111236,0.093771376,0.0,0.007416683,0.0,0.0,0,0,0,831,24,0,0,0,0,0,0
232876771,0.9374219,-0.07589447,0.13034259,-0.31383312,1.2608113,-0.42113748,-0.29029772,35.09992,-22.039158,-8.128807,-9.27444e-05,4.725729e-05,7.692639e-06,-0.00041122377,-0.00065984187,-0.00023090518,0.23027892,0.047392685,0.39547217,-0.0056124157,0.004861646,0.0074742944,0.0,0.0,1.7821903e-06,0.0014927534,0.027386518,5.2217206e-06,5.7494417e-06,4.5900565e-06,4.3745964e-05,0.019529903,0.01695006,0.008090426,0.055068213,0.053864315,0.044959772,1.3894861e-11,1.39173065e-11,2.0617036e-11,5.0000036e-08,5.0000036e-08,5.0000036e-08,8.822241e-07,9.2972897e-07,2.0862356e-06,1.0791898e-06,6.8946076e-07,1.9199322e-06,0.0,0.0,8389351,0.33004928,0.21203719,0.08070259,0.13806336,0.036598545,0.064403765,0.0,0.007416683,0.0,0.0,0,0,0,831,24,0,0,0,0,0,0
233077572,0.9402406,-0.0645426,0.09319485,-0.32108644,0.745794,-0.30351242,-0.35620704,35.27239,-22.108192,-8.122074,-9.279119e-05,4.7256322e-05,7.650796e-06,-0.00040905937,-0.00064962474,-0.00027093763,0.23027772,0.047395557,0.39532813,-0.0055936314,0.0048719314,0.0073510003,0.0,0.0,1.5358081e-06,0.0013620231,0.026722403,5.154679e-06,5.1797138e-06,4.6357154e-06,4.0783143e-05,0.018626837,0.016799575,0.008111321,0.05514745,0.053833216,0.044932157,1.3952662e-11,1.3978642e-11,2.0703881e-11,5e-08,5e-08,5e-08,8.817605e-07,9.288251e-07,2.0770879e-06,1.0766244e-06,6.882853e-07,1.910587e-06,0.0,0.0,8389351,0.3301222,0.21197207,0.116808206,0.15567951,0.03323389,0.021964036,0.0,0.007416683,0.0,0.0,0,0,0,831,24,0,0,0,0,0,0
233285573,0.9407072,-0.057907872,0.06440675,-0.32797635,0.40199685,-0.20842902,-0.46403563,35.36449,-22.155653,-8.203646,-9.283855e-05,4.7254656e-05,7.632565e-06,-0.0004037814,-0.00064056396,-0.00028808336,0.23027375,0.047402542,0.39519933,-0.005587192,0.0048809783,0.007236798,0.0,0.0,2.2923732e-06,0.0012939263,0.025604349,5.099934e-06,4.946426e-06,4.685487e-06,3.8227503e-05,0.017900905,0.016470551,0.008165439,0.055636264,0.054233294,0.04514433,1.4018445e-11,1.4044372e-11,2.0799567e-11,5.0000036e-08,5.0000075e-08,5.0000036e-08,8.816159e-07,9.280977e-07,2.0693872e-06,1.0743609e-06,6.8716963e-07,1.9025642e-06,0.0,0.0,8389351,0.33146578,0.21247195,0.10213066,0.14194183,0.030200573,0.00084740337,0.0,0.007416683,0.0,0.0,0,0,0,831,24,0,0,0,0,0,0
233485572,0.9404219,-0.06974708,-0.045910027,-0.32959738,0.33912462,-0.20902783,-0.51244754,35.417973,-22.193464,-8.299275,-9.296921e-05,4.7327252e-05,7.6251745e-06,-0.000396113,-0.00062667415,-0.00029650892,0.23031114,0.047416564,0.3951587,-0.0055610803,0.0049073887,0.0072096167,0.0,0.0,1.7109749e-06,0.0012655824,0.02445198,5.0439558e-06,5.057625e-06,4.7147437e-06,3.573901e-05,0.016984913,0.015669728,0.008169614,0.05564435,0.054218996,0.045134246,1.4072724e-11,1.4098137e-11,2.089018e-11,5e-08,5e-08,5e-08,8.8125483e-07,9.272003e-07,2.0609568e-06,1.0720457e-06,6.859761e-07,1.894118e-06,0.0,0.0,8389351,0.3314564,0.21244822,0.07304042,0.06775043,0.029471016,0.027460206,0.0,0.007416683,0.0,0.0,0,0,0,831,24,0,0,0,0,0,0
233690372,0.942291,-0.05310666,-0.015599162,-0.33018804,0.41045377,-0.2451856,-0.6637841,35.467377,-22.232428,-8.374339,-9.306001e-05,4.733552e-05,7.612715e-06,-0.0003883995,-0.00061457267,-0.00032765092,0.23034434,0.047426354,0.39510813,-0.0055387877,0.0049294797,0.007165452,0.0,0.0,1.4441771e-06,0.0013213437,0.026701786,4.7637172e-06,5.013634e-06,4.749135e-06,3.411175e-05,0.01624692,0.01492083,0.008198092,0.055828642,0.054383937,0.045267284,1.41252105e-11,1.4148345e-11,2.0982369e-11,5e-08,5e-08,5e-08,8.809619e-07,9.264072e-07,2.0528257e-06,1.0698435e-06,6.848015e-07,1.8860379e-06,0.0,0.0,8389351,0.3319828,0.21276109,0.050026353,0.15954232,0.031074999,0.028915687,0.0,0.007416683,0.0,0.0,0,0,0,831,24,0,0,0,0,0,0
233890371,0.9430687,-0.036069304,0.013261054,-0.33037066,0.3471045,-0.15333652,-1.2157813,35.534477,-22.25438,-8.510213,-9.318864e-05,4.734312e-05,7.6184997e-06,-0.00038196435,-0.000607627,-0.00035059056,0.23036924,0.047426056,0.39505842,-0.0055126958,0.004942191,0.007125347,0.0,0.0,1.2184155e-06,0.0015774752,0.03300576,4.528175e-06,4.989975e-06,4.7917933e-06,3.28635e-05,0.015982002,0.014639129,0.008216075,0.055747323,0.054308567,0.04527551,1.4177222e-11,1.4194266e-11,2.1075352e-11,5.000004e-08,5.000004e-08,5.000004e-08,8.8085255e-07,9.257866e-07,2.0457978e-06,1.0679132e-06,6.837228e-07,1.8789117e-06,0.0,0.0,8389351,0.33174673,0.21278043,0.104432546,0.08253022,0.030743938,0.032283604,0.0,0.007416683,0.0,0.0,0,0,0,831,24,0,0,0,0,0,0
234091172,0.9435423,-0.03661597,0.0060739173,-0.329166,0.309215,-0.040733945,-1.9943625,35.56147,-22.267513,-8.762354,-9.3197414e-05,4.7253026e-05,7.6180413e-06,-0.00037970295,-0.0005978753,-0.00037674254,0.23037827,0.047442753,0.39498663,-0.005513622,0.004957282,0.0070650433,0.0,0.0,1.1441015e-06,0.0016936642,0.036453858,4.3608843e-06,5.0773806e-06,4.811169e-06,3.1703665e-05,0.015936911,0.014522291,0.008234209,0.055674836,0.054238703,0.04528574,1.4223846e-11,1.4231243e-11,2.1168546e-11,5.0000075e-08,5.0000075e-08,5.0000075e-08,8.807671e-07,9.252032e-07,2.0389352e-06,1.0660588e-06,6.8264944e-07,1.8719604e-06,0.0,0.0,8389351,0.33153212,0.21280447,0.06152996,0.11330259,0.038885657,0.07524019,0.0,0.007416683,0.0,0.0,0,0,0,831,24,0,0,0,0,0,0
234299172,0.94310397,-0.05228745,0.0063264654,-0.32830036,0.25855863,-0.0039973566,-2.6691904,35.59152,-22.270445,-9.128842,-9.320427e-05,4.717866e-05,7.621276e-06,-0.00038266112,-0.00058940967,-0.00041900415,0.23037964,0.047457695,0.3949012,-0.00552012,0.0049689007,0.006992104,0.0,0.0,1.1283907e-06,0.0018315447,0.038905203,4.252355e-06,5.137029e-06,4.820131e-06,3.068979e-05,0.015860094,0.014519265,0.008244572,0.056034487,0.054571334,0.045025643,1.4265954e-11,1.42615034e-11,2.126683e-11,5e-08,5.000004e-08,5e-08,8.8061034e-07,9.2461977e-07,2.0314465e-06,1.064142e-06,6.8151843e-07,1.8644118e-06,0.0,0.0,8389351,0.33257455,0.21219246,0.05801537,0.071045905,0.038602803,0.17070615,0.0,0.007416683,0.0,0.0,0,0,0,831,24,0,0,0,0,0,0
234499972,0.9422514,-0.0610886,0.011820904,-0.32907572,0.22478908,0.0035677557,-2.9009526,35.61365,-22.267889,-9.551031,-9.32275e-05,4.7123925e-05,7.62067e-06,-0.00038318956,-0.0005810155,-0.00047235933,0.23038301,0.047468405,0.39480403,-0.0055213557,0.0049802526,0.0069092703,0.0,0.0,8.32894e-07,0.0017155928,0.036901005,4.1915496e-06,5.162231e-06,4.8307784e-06,2.9827224e-05,0.015463279,0.01427107,0.008260879,0.055970322,0.05452079,0.045037065,1.4295797e-11,1.4276846e-11,2.1358729e-11,5e-08,5e-08,5e-08,8.804007e-07,9.240144e-07,2.024068e-06,1.0623119e-06,6.8040714e-07,1.8570049e-06,0.0,0.0,8389351,0.33240202,0.21221937,0.059929617,0.08330927,0.035977572,0.13805133,0.0,0.007416683,0.0,0.0,0,0,0,831,24,0,0,0,0,0,0
234699971,0.94105315,-0.06610795,0.0070804693,-0.3316606,0.18019392,-0.04132153,-2.9131055,35.626965,-22.271221,-10.000069,-9.3253344e-05,4.7076555e-05,7.621423e-06,-0.00038360106,-0.0005728874,-0.0005178244,0.23038691,0.047478452,0.3947114,-0.005522263,0.004991709,0.0068309447,0.0,0.0,7.5183783e-07,0.0016197904,0.03397556,4.190736e-06,5.2489213e-06,4.8519437e-06,2.9064327e-05,0.014965478,0.013981735,0.008279335,0.05590639,0.05448888,0.04507525,1.4326882e-11,1.4290989e-11,2.145304e-11,5e-08,5.0000036e-08,5e-08,8.8039354e-07,9.2361984e-07,2.0177235e-06,1.060706e-06,6.7939294e-07,1.8504655e-06,0.0,0.0,8389351,0.33225784,0.21230933,0.091693856,0.060023602,0.038300294,0.14441405,0.0,0.007416683,0.0,0.0,0,0,0,831,24,0,0,0,0,0,0
234904771,0.9413153,-0.0551233,0.014531636,-0.33267966,0.09082152,-0.04770229,-2.9597988,35.63144,-22.274397,-10.464462,-9.3305e-05,4.7002188e-05,7.6270326e-06,-0.00038441728,-0.00056555046,-0.0005611476,0.23038991,0.047486298,0.39461628,-0.005521357,0.0050015887,0.0067502125,0.0,0.0,7.9267755e-07,0.0017305986,0.036060825,4.109149e-06,5.2830155e-06,4.862693e-06,2.8540877e-05,0.014616837,0.013811418,0.008328736,0.056053724,0.054674044,0.04530371,1.4351021e-11,1.4298625e-11,2.1547876e-11,5.0000036e-08,5.0000036e-08,5.0000036e-08,8.802961e-07,9.2320766e-07,2.0107705e-06,1.0590464e-06,6.7832684e-07,1.843377e-06,0.0,0.0,8389351,0.33275783,0.21284668,0.101102315,0.054507047,0.038395267,0.17174262,0.0,0.007416683,0.0,0.0,0,0,0,831,24,0,0,0,0,0,0
235104771,0.94169986,-0.05342785,0.009021604,-0.33206257,0.04968901,-0.03093882,-3.0280857,35.622284,-22.279245,-10.923211,-9.33338e-05,4.6946774e-05,7.632373e-06,-0.000385049,-0.0005590134,-0.000596739,0.23039106,0.04749391,0.39452973,-0.0055224285,0.0050093974,0.0066757747,0.0,0.0,6.426203e-07,0.0017218099,0.0376873,4.0353016e-06,5.384496e-06,4.8777542e-06,2.8075174e-05,0.014279218,0.013612219,0.008338225,0.05572764,0.054422647,0.045234658,1.4366907e-11,1.4296438e-11,2.1635358e-11,5.0000036e-08,5.0000036e-08,5.0000036e-08,8.8027724e-07,9.2288343e-07,2.0046953e-06,1.0575853e-06,6.773548e-07,1.8371552e-06,0.0,0.0,8389351,0.33188897,0.21268441,0.12468437,0.04970005,0.037923858,0.12613542,0.0,0.007416683,0.0,0.0,0,0,0,831,24,0,0,0,0,0,0
235304774,0.94164515,-0.054925423,0.0076401797,-0.33200815,0.023350734,-0.0037102182,-2.981025,35.597523,-22.268427,-11.402864,-9.3368544e-05,4.6843823e-05,7.6281417e-06,-0.00038328485,-0.000553062,-0.0006315083,0.2303963,0.0474987,0.3944431,-0.0055181114,0.005017356,0.006601943,0.0,0.0,5.9812606e-07,0.0017194925,0.037290204,3.9915117e-06,5.458127e-06,4.889865e-06,2.765426e-05,0.013931836,0.013396359,0.008348315,0.055493314,0.054262,0.04524657,1.4376562e-11,1.428908e-11,2.1724185e-11,5e-08,5e-08,5e-08,8.8016435e-07,9.225308e-07,1.9980278e-06,1.056065e-06,6.7633476e-07,1.8304219e-06,0.0,0.0,8389351,0.3312934,0.2127124,0.12202723,0.080611564,0.037709717,0.11436116,0.0,0.007416683,0.0,0.0,0,0,0,831,24,0,0,0,0,0,0
235513573,0.9417829,-0.05583111,0.0016384181,-0.33154973,-0.02201359,0.03341044,-2.9310088,35.564774,-22.259987,-11.915021,-9.33827e-05,4.6761023e-05,7.634475e-06,-0.00038221115,-0.000546404,-0.0006530709,0.2304012,0.04750718,0.39435923,-0.0055174967,0.0050272197,0.006531297,0.0,0.0,5.078697e-07,0.0016174554,0.032598674,3.9495576e-06,5.5830906e-06,4.9188684e-06,2.7316246e-05,0.013700647,0.01329126,0.008392777,0.05561531,0.054454077,0.045498744,1.4391887e-11,1.4286579e-11,2.18192e-11,5.000007e-08,5.000007e-08,5.000007e-08,8.803062e-07,9.2244863e-07,1.9923739e-06,1.0547293e-06,6.7541214e-07,1.8244973e-06,0.0,0.0,8389351,0.33176705,0.21330434,0.1276123,0.09047647,0.042504553,0.13173983,0.0,0.007416683,0.0,0.0,0,0,0,831,24,0,0,0,0,0,0
235713573,0.94122094,-0.062256597,-0.0043363594,-0.3319765,-0.052309602,0.04378026,-2.8580704,35.535316,-22.251024,-12.411542,-9.341123e-05,4.6738838e-05,7.650078e-06,-0.0003810233,-0.00053980795,-0.0006731697,0.23040438,0.047515523,0.39428505,-0.0055191843,0.005036021,0.0064687803,0.0,0.0,5.6365695e-07,0.0016263501,0.02961972,3.947412e-06,5.6957706e-06,4.9394143e-06,2.6951788e-05,0.0134240035,0.013148639,0.008402947,0.055395402,0.05432326,0.045521926,1.4392458e-11,1.42714555e-11,2.1905554e-11,5.000004e-08,5.000004e-08,5.000004e-08,8.8024314e-07,9.222266e-07,1.9860374e-06,1.0533375e-06,6.7444705e-07,1.8180895e-06,0.0,0.0,8389351,0.3312381,0.21335869,0.0970414,0.057151597,0.038910277,0.10685268,0.0,0.007416683,0.0,0.0,0,0,0,831,24,0,0,0,0,0,0
235914372,0.9406609,-0.06403595,-0.0049632355,-0.3332144,-0.023479773,0.004038566,-2.6968422,35.50262,-22.244009,-12.906082,-9.3434195e-05,4.6683963e-05,7.6685465e-06,-0.00037996646,-0.0005336183,-0.00067893945,0.23040785,0.047524184,0.3942107,-0.005521463,0.0050453264,0.00640704,0.0,0.0,5.0575096e-07,0.0015283054,0.02711016,3.9570145e-06,5.771578e-06,4.9653127e-06,2.6706419e-05,0.013119087,0.012992528,0.008413822,0.055168055,0.054194134,0.0455494,1.4392471e-11,1.4256128e-11,2.1992038e-11,5.0000075e-08,5.0000075e-08,5.0000075e-08,8.803484e-07,9.22199e-07,1.9805939e-06,1.0521162e-06,6.735791e-07,1.8124434e-06,0.0,0.0,8389351,0.33069953,0.21342306,0.11406487,0.103983365,0.0398525,0.07357068,0.0,0.007416683,0.0,0.0,0,0,0,831,24,0,0,0,0,0,0
236122372,0.94007564,-0.06506876,-0.008637947,-0.33458805,-0.032621145,0.019525258,-2.4964173,35.469532,-22.232815,-13.39664,-9.347732e-05,4.6616682e-05,7.674363e-06,-0.00037760282,-0.000528265,-0.0006845463,0.23041195,0.047529407,0.39413545,-0.0055207037,0.0050528236,0.0063435463,0.0,0.0,4.1869984e-07,0.0013640384,0.02394786,3.968985e-06,5.881017e-06,4.9946634e-06,2.6450489e-05,0.012910706,0.012907446,0.008411748,0.055292122,0.054416545,0.045306344,1.4389212e-11,1.4240403e-11,2.2081354e-11,5.000004e-08,5.000004e-08,5.000004e-08,8.804057e-07,9.2218664e-07,1.9746424e-06,1.0508479e-06,6.7267183e-07,1.8063225e-06,0.0,0.0,8389351,0.33122298,0.21285287,0.085923985,0.093664624,0.040208865,0.024801422,0.0,0.007416683,0.0,0.0,0,0,0,831,24,0,0,0,0,0,0
236323171,0.9402875,-0.06415314,-0.008706472,-0.3341679,-0.020629993,-0.0051175705,-2.2729993,35.435978,-22.228046,-13.842169,-9.348969e-05,4.6577883e-05,7.691604e-06,-0.00037474936,-0.00052251894,-0.0006888601,0.23041031,0.047535643,0.3940482,-0.005526085,0.0050588055,0.0062690983,0.0,0.0,5.3594897e-07,0.0014343784,0.024475142,3.936596e-06,5.9497943e-06,5.0155877e-06,2.6297375e-05,0.012652516,0.01277673,0.008420301,0.055051908,0.054289136,0.045339677,1.4375206e-11,1.42158845e-11,2.2162987e-11,5e-08,5e-08,5e-08,8.804083e-07,9.22158e-07,1.9687684e-06,1.0496302e-06,6.7179263e-07,1.8003502e-06,0.0,0.0,8389351,0.33066756,0.21293116,0.062073182,0.061965164,0.040080845,0.044803582,0.0,0.007416683,0.0,0.0,0,0,0,831,24,0,0,0,0,0,0
236523173,0.94003516,-0.0641537,-0.009585751,-0.3348529,0.00081555406,-0.018085238,-2.0665603,35.415764,-22.237148,-14.260566,-9.349132e-05,4.66059e-05,7.720805e-06,-0.00037387933,-0.0005169206,-0.00068419497,0.23040998,0.04754294,0.39398456,-0.0055314875,0.005065073,0.0062154573,0.0,0.0,4.9828475e-07,0.0013498844,0.024061007,3.936365e-06,6.027401e-06,5.0467524e-06,2.6164846e-05,0.012453909,0.012695558,0.00842767,0.054861452,0.054217666,0.045388762,1.4363427e-11,1.4194518e-11,2.2246833e-11,5.0000036e-08,5.0000036e-08,5.0000036e-08,8.8058533e-07,9.2232466e-07,1.9637491e-06,1.0485596e-06,6.7100655e-07,1.7950922e-06,0.0,0.0,8389351,0.33027127,0.21304639,0.07837137,0.087717265,0.03702301,0.056403358,0.0,0.007416683,0.0,0.0,0,0,0,831,24,0,0,0,0,0,0
236723972,0.940472,-0.057707086,-0.0077503826,-0.33484656,0.020337095,-0.021311082,-1.8605185,35.396107,-22.238878,-14.634786,-9.352146e-05,4.655576e-05,7.7433015e-06,-0.00037228427,-0.00051210425,-0.0006781618,0.23041135,0.047549035,0.39391983,-0.0055340515,0.0050713047,0.006161178,0.0,0.0,4.6355322e-07,0.0013141389,0.023156537,3.89457e-06,6.078884e-06,5.0682115e-06,2.6089592e-05,0.012275987,0.01263045,0.00843486,0.054629207,0.054109342,0.045424964,1.4340639e-11,1.4165599e-11,2.2324928e-11,5e-08,5e-08,5e-08,8.8062956e-07,9.2241214e-07,1.9581653e-06,1.0474376e-06,6.701845e-07,1.7893863e-06,0.0,0.0,8389351,0.32975528,0.21313134,0.036192954,0.08980857,0.034793813,0.033083625,0.0,0.007416683,0.0,0.0,0,0,0,831,24,0,0,0,0,0,0
236931972,0.9406566,-0.05798805,-0.004857126,-0.33433387,0.057360705,-0.019048633,-1.6734766,35.385727,-22.243727,-14.998006,-9.354785e-05,4.6540474e-05,7.759731e-06,-0.00036991152,-0.00050742534,-0.00067197473,0.23041277,0.047553554,0.39385805,-0.0055353143,0.0050764126,0.006108517,0.0,0.0,5.060879e-07,0.0013291663,0.022368066,3.876223e-06,6.123403e-06,5.111166e-06,2.6057718e-05,0.01219983,0.012671985,0.008431596,0.05474718,0.05435564,0.045188546,1.4323445e-11,1.414341e-11,2.2409493e-11,5.0000036e-08,5.0000036e-08,5e-08,8.809045e-07,9.2275036e-07,1.953463e-06,1.0464518e-06,6.6945256e-07,1.7843464e-06,0.0,0.0,8389351,0.33030716,0.21257597,0.08258585,0.06113397,0.03272897,0.033469833,0.0,0.007416683,0.0,0.0,0,0,0,831,24,0,0,0,0,0,0
237132771,0.94091445,-0.060810324,-0.0028202909,-0.3331279,0.080549106,-0.015902957,-1.4756471,35.380375,-22.240623,-15.309334,-9.3604096e-05,4.649462e-05,7.770162e-06,-0.00036771945,-0.0005032504,-0.000661677,0.23041512,0.04755735,0.39379585,-0.005534899,0.005081625,0.006055676,0.0,0.0,5.0350644e-07,0.0012647505,0.021115266,3.8510375e-06,6.157424e-06,5.1410907e-06,2.599779e-05,0.012073945,0.012648607,0.008437583,0.054523617,0.05426336,0.045223188,1.4290692e-11,1.4108894e-11,2.2483853e-11,5e-08,5e-08,5e-08,8.809842e-07,9.229399e-07,1.9481472e-06,1.0454088e-06,6.6868637e-07,1.7788612e-06,0.0,0.0,8389351,0.3298287,0.21265744,0.11321136,0.093035266,0.033252597,0.027311256,0.0,0.007416683,0.0,0.0,0,0,0,831,24,0,0,0,0,0,0
237332771,0.94178945,-0.056993946,-0.0012835844,-0.3313346,0.079632714,-0.008451386,-1.3295606,35.37523,-22.245134,-15.61351,-9.359683e-05,4.646099e-05,7.781717e-06,-0.00036683102,-0.00049996184,-0.00063840224,0.23041779,0.047560796,0.39374694,-0.005533793,0.0050864415,0.0060144337,0.0,0.0,4.7458838e-07,0.0012914279,0.021333609,3.7844645e-06,6.20941e-06,5.18773e-06,2.5982064e-05,0.012010975,0.012666451,0.008444895,0.054356646,0.05422659,0.045283113,1.426802e-11,1.40839155e-11,2.2562337e-11,5e-08,5.000003e-08,5e-08,0.0,0.0,0.0,0.0,0.0,0.0,0.0,0.0,8389271,0.3295197,0.2127983,0.004629715,0.1267583,0.03513641,0.015915608,0.0,0.007416683,0.0,0.0,0,0,0,831,24,0,0,0,0,0,0
237540772,0.94161195,-0.060386036,-0.0016455359,-0.33123693,0.083273165,-0.0019739382,-1.221168,35.369724,-22.253904,-15.918791,-9.3505274e-05,4.6408313e-05,7.788291e-06,-0.0003667209,-0.00049937004,-0.00061369943,0.23041779,0.047560796,0.39374694,-0.005533793,0.0050864415,0.0060144337,0.0,0.0,4.664677e-07,0.001264212,0.020613272,3.7654743e-06,6.2961813e-06,5.29159e-06,2.5793823e-05,0.012073362,0.012789845,0.008486543,0.054547768,0.054544847,0.045539167,1.4271201e-11,1.4081986e-11,2.2644803e-11,5.000004e-08,5.000004e-08,5.000004e-08,0.0,0.0,0.0,0.0,0.0,0.0,0.0,0.0,8389271,0.33029172,0.21339908,0.007465234,0.08981752,0.03344279,0.037803575,0.0,0.007416683,0.0,0.0,0,0,0,831,24,0,0,0,0,0,0
237737572,0.9413351,-0.061674416,-0.00065932487,-0.33178934,0.08066653,-0.0014073491,-1.0686418,35.364113,-22.258333,-16.191889,-9.3433984e-05,4.63459e-05,7.795037e-06,-0.00036634575,-0.0004992623,-0.00059127423,0.23041779,0.047560796,0.39374694,-0.005533793,0.0050864415,0.0060144337,0.0,0.0,4.4330338e-07,0.0012443468,0.020313041,3.7507182e-06,6.356449e-06,5.383901e-06,2.561137e-05,0.012060275,0.012811532,0.008489479,0.054411545,0.05452119,0.045569114,1.4262618e-11,1.4071125e-11,2.2721972e-11,5e-08,5e-08,5.0000008e-08,0.0,0.0,0.0,0.0,0.0,0.0,0.0,0.0,8389271,0.3300496,0.21346924,7.0792295e-05,0.06316824,0.0318534,0.014474891,0.0,0.007416683,0.0,0.0,0,0,0,831,24,0,0,0,0,0,0
237945572,0.94146156,-0.06101744,0.00032900547,-0.3315523,0.09196347,-0.015002737,-0.8824919,35.365116,-22.265469,-16.437574,-9.337457e-05,4.6319383e-05,7.803579e-06,-0.00036701132,-0.00049928675,-0.00056672527,0.23041779,0.047560796,0.39374694,-0.005533793,0.0050864415,0.0060144337,0.0,0.0,4.0008254e-07,0.0012699733,0.021007303,3.7177954e-06,6.424148e-06,5.4804987e-06,2.5501506e-05,0.0120802475,0.012861635,0.008524658,0.05449223,0.05471127,0.04574124,1.4250009e-11,1.405875e-11,2.280084e-11,5.0000036e-08,5.0000036e-08,5.0000047e-08,0.0,0.0,0.0,0.0,0.0,0.0,0.0,0.0,8389271,0.33045954,0.21387202,0.0013403232,0.077055216,0.030174958,0.027542746,0.0,0.007416683,0.0,0.0,0,0,0,831,24,0,0,0,0,0,0
238146371,0.94134045,-0.057777442,0.0011457956,-0.33247373,0.08387249,-0.018446637,-0.7332887,35.368572,-22.27995,-16.661276,-9.329177e-05,4.63256e-05,7.8148105e-06,-0.00036868252,-0.00049922516,-0.0005334659,0.23041779,0.047560796,0.39374694,-0.005533793,0.0050864415,0.0060144337,0.0,0.0,3.8570352e-07,0.0012152672,0.019910682,3.6925574e-06,6.484236e-06,5.5676587e-06,2.5343808e-05,0.012093963,0.012885416,0.0085284775,0.054405406,0.054719746,0.045781612,1.4231173e-11,1.4042895e-11,2.287583e-11,5e-08,5e-08,5.0000043e-08,0.0,0.0,0.0,0.0,0.0,0.0,0.0,0.0,8389271,0.33034095,0.21396638,0.01043685,0.1056524,0.027219824,0.07175931,0.0,0.007416683,0.0,0.0,0,0,0,831,24,0,0,0,0,0,0
238346373,0.94112974,-0.05642618,0.0034355256,-0.33328548,0.09188974,-0.0009769726,-0.6120501,35.37984,-22.285534,-16.840446,-9.327481e-05,4.6329627e-05,7.823601e-06,-0.00036928893,-0.00049937854,-0.00051783706,0.23041779,0.047560796,0.39374694,-0.005533793,0.0050864415,0.0060144337,0.0,0.0,3.809034e-07,0.0011968459,0.01916098,3.6791705e-06,6.5247364e-06,5.6534095e-06,2.5229985e-05,0.012123252,0.0129275,0.008528041,0.054292724,0.054690238,0.04583207,1.4207042e-11,1.4023966e-11,2.2954041e-11,5.000004e-08,5.000004e-08,5.0000047e-08,0.0,0.0,0.0,0.0,0.0,0.0,0.0,0.0,8389271,0.3301257,0.21408427,0.0049275537,0.009800033,0.022309646,0.06203894,0.0,0.007416683,0.0,0.0,0,0,0,831,24,0,0,0,0,0,0
