timestamp,states[0],states[1],states[2],states[3],states[4],states[5],states[6],states[7],states[8],states[9],states[10],states[11],states[12],states[13],states[14],states[15],states[16],states[17],states[18],states[19],states[20],states[21],states[22],states[23],vibe[0],vibe[1],vibe[2],covariances[0],covariances[1],covariances[2],covariances[3],covariances[4],covariances[5],covariances[6],covariances[7],covariances[8],covariances[9],covariances[10],covariances[11],covariances[12],covariances[13],covariances[14],covariances[15],covariances[16],covariances[17],covariances[18],covariances[19],covariances[20],covariances[21],covariances[22],covariances[23],control_mode_flags,pos_horiz_accuracy,pos_vert_accuracy,mag_test_ratio,vel_test_ratio,pos_test_ratio,hgt_test_ratio,tas_test_ratio,hagl_test_ratio,beta_test_ratio,time_slip,gps_check_fail_flags,filter_fault_flags,innovation_check_flags,solution_status_flags,n_states,pre_flt_fail,health_flags,timeout_flags
367914975,0.9807174,-0.0136196315,-0.012619729,0.19454722,-3.4167268e-05,0.0017332654,-0.07248935,2.7409742,2.7413027,-0.5150444,-0.0003487543,0.00022194504,-3.472524e-05,0.00024784208,-0.0008321703,-1.4492345e-05,0.22969805,0.045582045,0.36355916,0.0036617767,-0.00053143286,0.015577415,0.0,0.0,9.1174274e-10,7.616915e-06,0.0005302872,1.6993673e-06,6.3861557e-06,6.4069354e-06,3.1915988e-05,0.014018943,0.014012931,0.010492608,0.070328735,0.070325315,0.05664001,1.1880049e-11,1.1952712e-11,1.8457468e-11,5.0000285e-08,5.0000256e-08,5e-08,0.0,0.0,0.0,0.0,0.0,0.0,0.0,0.0,535,0.37503874,0.23799162,0.0524823,0.015518441,0.016972607,0.034834493,0.0,0.0,0.0,0.016799,0,0,0,831,24,0,0,0
368120575,0.9807488,-0.013513299,-0.012664977,0.19439378,-0.0028815602,0.0042095324,-0.07004488,2.7345352,2.75042,-0.51547635,-0.00034878156,0.00022194823,-3.4676505e-05,0.0002479884,-0.0008321357,-1.8518725e-05,0.22969805,0.045582045,0.36355916,0.0036617767,-0.00053143286,0.015577415,0.0,0.0,9.318041e-10,8.044569e-06,0.0006070699,1.7044662e-06,6.415962e-06,6.4362525e-06,3.2088097e-05,0.014054521,0.014048259,0.010541937,0.07046403,0.0704602,0.05714283,1.1864976e-11,1.1936349e-11,1.8471624e-11,5.0000303e-08,5.000027e-08,5e-08,0.0,0.0,0.0,0.0,0.0,0.0,0.0,0.0,535,0.37539876,0.23904566,0.015501442,0.018799307,0.018889247,0.030488936,0.0,0.0,0.0,0.016799,0,0,0,831,24,0,0,0
368321376,0.9807856,-0.013274234,-0.012525761,0.19423372,-0.018867679,0.022237718,-0.069905244,2.7042875,2.789095,-0.5267083,-0.00034901625,0.0002218867,-3.461987e-05,0.0002477802,-0.0008302661,-2.0027463e-05,0.22969805,0.045582045,0.36355916,0.0036617767,-0.00053143286,0.015577415,0.0,0.0,7.857731e-09,5.4535496e-05,0.0013756487,1.7046664e-06,6.4376345e-06,6.457496e-06,3.2146392e-05,0.014063028,0.014056471,0.010479225,0.070451766,0.07044757,0.056717806,1.1849709e-11,1.1919706e-11,1.8461782e-11,5.0000317e-08,5.000029e-08,5.0000036e-08,0.0,0.0,0.0,0.0,0.0,0.0,0.0,0.0,535,0.37536559,0.238155,0.012223282,0.116468035,0.019167388,0.03595208,0.0,0.0,0.0,0.016799,0,0,0,831,24,0,0,0
368530999,0.98078084,-0.013314185,-0.01245066,0.19425961,-0.02628576,0.018208563,-0.07237945,2.684334,2.7930946,-0.5416271,-0.0003489953,0.00022182657,-3.46182e-05,0.00024735733,-0.0008307897,-1.9237503e-05,0.22969805,0.045582045,0.36355916,0.0036617767,-0.00053143286,0.015577415,0.0,0.0,1.7074516e-08,0.00010865393,0.0022965875,1.7068695e-06,6.4654255e-06,6.4848514e-06,3.2222055e-05,0.014127642,0.014120809,0.010551764,0.07068556,0.07068094,0.05744896,1.1837662e-11,1.1906261e-11,1.8456153e-11,5.0000395e-08,5.0000363e-08,5.0000086e-08,0.0,0.0,0.0,0.0,0.0,0.0,0.0,0.0,535,0.37598735,0.23968513,0.015853303,0.041093882,0.02797146,0.0063791373,0.0,0.0,0.0,0.016799,0,0,0,831,24,0,0,0
368731775,0.98080206,-0.013343937,-0.01246408,0.19414939,-0.02857787,0.023753049,-0.068613835,2.663738,2.8127785,-0.54237664,-0.0003490434,0.0002218254,-3.4605102e-05,0.0002476525,-0.00083070324,-2.3435281e-05,0.22969805,0.045582045,0.36355916,0.0036617767,-0.00053143286,0.015577415,0.0,0.0,3.369483e-08,0.00023516259,0.003950309,1.7087405e-06,6.4818405e-06,6.5009035e-06,3.2326832e-05,0.01412052,0.014113381,0.010579472,0.07044067,0.070435725,0.05785816,1.1821608e-11,1.18888155e-11,1.8460716e-11,5.00004e-08,5.000037e-08,5.000007e-08,0.0,0.0,0.0,0.0,0.0,0.0,0.0,0.0,535,0.37533504,0.24053724,0.015850592,0.012645447,0.04150786,0.0036791717,0.0,0.0,0.0,0.016799,0,0,0,831,24,0,0,0
368932575,0.98079157,-0.013530117,-0.012527395,0.19418584,-0.027104685,0.01802609,-0.059918873,2.6530712,2.8146873,-0.5247944,-0.00034896942,0.00022183378,-3.460876e-05,0.00024781527,-0.00083187176,-3.5185472e-05,0.22969805,0.045582045,0.36355916,0.0036617767,-0.00053143286,0.015577415,0.0,0.0,4.0520863e-08,0.00032867133,0.0053628567,1.710001e-06,6.4970463e-06,6.515731e-06,3.2379023e-05,0.014119363,0.014111974,0.010515166,0.070195064,0.07018977,0.057393856,1.1803875e-11,1.1869665e-11,1.8450477e-11,5.0000438e-08,5.0000402e-08,5.0000047e-08,0.0,0.0,0.0,0.0,0.0,0.0,0.0,0.0,535,0.37467963,0.23957016,0.0063227382,0.057351187,0.03684553,0.013100083,0.0,0.0,0.0,0.016799,0,0,0,831,24,0,0,0
369138176,0.98080564,-0.013714109,-0.012433146,0.19410788,-0.022298805,0.012842212,-0.057724852,2.648686,2.816938,-0.52514565,-0.00034889663,0.0002218722,-3.4600416e-05,0.00024839575,-0.0008331319,-4.017064e-05,0.22969805,0.045582045,0.36355916,0.0036617767,-0.00053143286,0.015577415,0.0,0.0,5.1951183e-08,0.00036896046,0.0068034446,1.7107603e-06,6.5169143e-06,6.535325e-06,3.2451502e-05,0.014176432,0.014168752,0.010490447,0.0703107,0.07030496,0.057262637,1.178987e-11,1.1854216e-11,1.8446187e-11,5.0000427e-08,5.000039e-08,5.0000036e-08,0.0,0.0,0.0,0.0,0.0,0.0,0.0,0.0,535,0.37498754,0.23929612,0.012538979,0.06014623,0.03185433,0.0063752052,0.0,0.0,0.0,0.016799,0,0,0,831,24,0,0,0
369338975,0.98082954,-0.013802887,-0.012533035,0.19397414,-0.019942323,0.012895823,-0.059788626,2.6468756,2.825013,-0.5472263,-0.00034886925,0.00022192625,-3.4585457e-05,0.00024928543,-0.0008338817,-3.6535683e-05,0.22969805,0.045582045,0.36355916,0.0036617767,-0.00053143286,0.015577415,0.0,0.0,6.9295346e-08,0.0005156919,0.0097840205,1.7099509e-06,6.5230865e-06,6.541048e-06,3.250002e-05,0.014132991,0.01412532,0.010426393,0.069915906,0.0699099,0.056681972,1.1763985e-11,1.1826871e-11,1.8430488e-11,5.00004e-08,5.0000363e-08,5e-08,0.0,0.0,0.0,0.0,0.0,0.0,0.0,0.0,535,0.3739329,0.23807976,0.017462075,0.0547973,0.025801105,0.054535367,0.0,0.0,0.0,0.016799,0,0,0,831,24,0,0,0
369539789,0.9808314,-0.013830208,-0.0124956705,0.19396494,-0.025904022,0.02299924,-0.06006574,2.6225297,2.8381495,-0.56198096,-0.0003489226,0.00022186026,-3.45572e-05,0.0002485919,-0.0008333777,-3.526256e-05,0.22969805,0.045582045,0.36355916,0.0036617767,-0.00053143286,0.015577415,0.0,0.0,6.6014806e-08,0.0005945827,0.0113347275,1.7134645e-06,6.5333475e-06,6.550908e-06,3.2596945e-05,0.014148814,0.014141217,0.010542182,0.06984314,0.0698368,0.05785965,1.1744752e-11,1.180625e-11,1.8432745e-11,5.000047e-08,5.000044e-08,5.0000043e-08,0.0,0.0,0.0,0.0,0.0,0.0,0.0,0.0,663,0.37373778,0.24054033,0.012821845,0.037683394,0.025414925,7.688214e-05,0.0,0.0,0.0,0.016799,0,0,0,831,24,0,0,0
369745375,0.9808663,-0.01354737,-0.0124881435,0.1938086,-0.034176495,0.021361694,-0.062758654,2.6009245,2.8588681,-0.5764189,-0.00034900158,0.00022183816,-3.4514655e-05,0.00024852811,-0.0008325076,-3.4266413e-05,0.22969805,0.045582045,0.36355916,0.0036617767,-0.00053143286,0.015577415,0.0,0.0,6.338668e-08,0.00057209446,0.010666855,1.7137099e-06,6.545884e-06,6.562675e-06,3.266223e-05,0.014192543,0.014184568,0.010506637,0.06999857,0.0699919,0.057537664,1.1724256e-11,1.1784303e-11,1.8422612e-11,5.0000438e-08,5.0000402e-08,5.000004e-08,0.0,0.0,0.0,0.0,0.0,0.0,0.0,0.0,663,0.37415302,0.2398701,0.021619827,0.028666273,0.027208133,0.022287255,0.0,0.0,0.0,0.016799,0,0,0,831,24,0,0,0
369946975,0.9808826,-0.013566023,-0.012574477,0.19371907,-0.041849088,0.029995011,-0.058627512,2.583978,2.882502,-0.5922895,-0.00034906837,0.00022184882,-3.447323e-05,0.0002488931,-0.00083182304,-3.3665696e-05,0.22969805,0.045582045,0.36355916,0.0036617767,-0.00053143286,0.015577415,0.0,0.0,7.343384e-08,0.00052709645,0.010565163,1.7184494e-06,6.5504737e-06,6.566865e-06,3.2806685e-05,0.014190952,0.014183156,0.010523161,0.069856964,0.0698501,0.057831574,1.17028305e-11,1.1761506e-11,1.8437304e-11,5.0000487e-08,5.000046e-08,5.000004e-08,0.0,0.0,0.0,0.0,0.0,0.0,0.0,0.0,663,0.37377408,0.24048196,0.030099815,0.027310133,0.026833113,0.04257117,0.0,0.0,0.0,0.016799,0,0,0,831,24,0,0,0
370155790,0.98101366,-0.0136095835,-0.013264791,0.19300519,-0.041194253,0.035623603,-0.064553864,2.5712185,2.8980303,-0.60745716,-0.00034907277,0.00022185968,-3.4437737e-05,0.0002491748,-0.00083203055,-3.1371386e-05,0.22969805,0.045582045,0.36355916,0.0036617767,-0.00053143286,0.015577415,0.0,0.0,9.2834824e-08,0.00055607717,0.009872103,1.7131644e-06,6.56129e-06,6.5768877e-06,3.2928376e-05,0.014253358,0.014245594,0.010576915,0.07001656,0.07000939,0.05844034,1.1686043e-11,1.1743319e-11,1.8444591e-11,5.000053e-08,5.000051e-08,5.000007e-08,0.0,0.0,0.0,0.0,0.0,0.0,0.0,0.0,663,0.3742004,0.24174437,0.011780426,0.027269337,0.025827575,0.029899111,0.0,0.0,0.0,0.016799,0,0,0,831,24,0,0,0
370352575,0.98066056,-0.016536549,-0.014783143,0.1944554,-0.022454549,0.0636703,-0.12252782,2.5511732,2.9270086,-0.6192076,-0.00034916485,0.00022184123,-3.443072e-05,0.00024902803,-0.000830796,-3.2873904e-05,0.22969805,0.045582045,0.36355916,0.0036617767,-0.00053143286,0.015577415,0.0,0.0,1.6438877e-07,0.000729037,0.011968065,1.735011e-06,6.5594254e-06,6.5777863e-06,3.294468e-05,0.014280686,0.014272943,0.010498504,0.06978934,0.06978196,0.057849072,1.1661915e-11,1.1717757e-11,1.8433038e-11,5.0000498e-08,5.0000462e-08,5.000007e-08,0.0,0.0,0.0,0.0,0.0,0.0,0.0,0.0,663,0.37359244,0.24051835,0.003999014,0.03487751,0.026447829,0.038951263,0.0,0.0,0.0,0.016799,0,0,0,831,24,0,0,0
370561375,0.9800447,-0.014316603,-0.016087579,0.1976075,-0.00072762044,0.06755569,-0.33279812,2.553225,2.947366,-0.67550474,-0.00034913028,0.00022188366,-3.4418987e-05,0.0002497998,-0.00083166314,-2.7503407e-05,0.22969805,0.045582045,0.36355916,0.0036617767,-0.00053143286,0.015577415,0.0,0.0,3.396217e-07,0.0009856602,0.01605693,1.7780349e-06,6.5631834e-06,6.577003e-06,3.2909036e-05,0.014464485,0.014456306,0.010466698,0.06990103,0.069893345,0.05749267,1.1636792e-11,1.16912304e-11,1.8407427e-11,5.000052e-08,5.0000455e-08,5.0000036e-08,0.0,0.0,0.0,0.0,0.0,0.0,0.0,0.0,663,0.37389088,0.23977628,0.0035625102,0.04404044,0.02323682,7.688566e-05,0.0,0.0,0.0,0.016799,0,0,0,831,24,0,0,0
370762975,0.98135513,0.0011583344,-1.917365e-05,0.19220006,0.0025465644,0.023343602,-0.74835736,2.5557647,2.9457526,-0.7723904,-0.00034904148,0.00022189095,-3.443107e-05,0.00025000807,-0.00083341205,-2.996334e-05,0.22969805,0.045582045,0.36355916,0.0036617767,-0.00053143286,0.015577415,0.0,0.0,4.3952937e-07,0.0010764629,0.018713547,1.6994853e-06,6.5550257e-06,6.559012e-06,3.308975e-05,0.014779155,0.014769422,0.0104188435,0.069785774,0.06977762,0.05705734,1.1610756e-11,1.1663723e-11,1.8408886e-11,5.0000594e-08,5.0000583e-08,5e-08,0.0,0.0,0.0,0.0,0.0,0.0,0.0,0.0,663,0.37358186,0.23886678,0.011888083,0.056662027,0.0281334,0.0010769857,0.0,0.0,0.0,0.016799,0,0,0,831,24,0,0,0
370963775,0.9821771,-0.0040584602,-0.0079847695,0.1877448,-0.006681941,0.034791633,-0.99916935,2.5636628,2.9588408,-0.94173354,-0.00034904532,0.00022198424,-3.4406556e-05,0.0002519656,-0.0008335179,-3.0344465e-05,0.22969805,0.045582045,0.36355916,0.0036617767,-0.00053143286,0.015577415,0.0,0.0,6.530977e-07,0.0013605152,0.022357125,1.6411676e-06,6.5359295e-06,6.5425143e-06,3.3185628e-05,0.014940832,0.014931889,0.010454538,0.06973062,0.06972216,0.05744284,1.1581439e-11,1.1632892e-11,1.83993e-11,5.000057e-08,5.000057e-08,5.0000036e-08,0.0,0.0,0.0,0.0,0.0,0.0,0.0,0.0,663,0.37343377,0.23967236,0.005888203,0.06370008,0.017945742,0.017143717,0.0,0.0,0.0,0.016799,0,0,0,831,24,0,0,0
371168575,0.98314136,-0.0115897665,-0.0031578173,0.18245219,-0.012785862,0.047392663,-1.3292298,2.5503747,2.9677367,-1.1996901,-0.00034905702,0.00022193795,-3.4364384e-05,0.00025120235,-0.0008333617,-2.2363876e-05,0.22969805,0.045582045,0.36355916,0.0036617767,-0.00053143286,0.015577415,0.0,0.0,9.047572e-07,0.0016619136,0.0263091,1.5755016e-06,6.5184627e-06,6.5316203e-06,3.3356606e-05,0.015202742,0.015194347,0.01043086,0.07004117,0.07003251,0.057237376,1.1551978e-11,1.1601986e-11,1.840476e-11,5.000061e-08,5.0000605e-08,5e-08,0.0,0.0,0.0,0.0,0.0,0.0,0.0,0.0,663,0.37426418,0.23924334,0.014638634,0.04188475,0.017216928,0.04763844,0.0,0.0,0.0,0.016799,0,0,0,831,24,0,0,0
371370180,0.9838988,-0.01780776,-0.009474424,0.17758496,-0.025340522,0.109535754,-1.7204615,2.5414069,2.9800484,-1.4929645,-0.00034903854,0.00022192679,-3.4343084e-05,0.00025106044,-0.00083380373,-2.473324e-05,0.22969805,0.045582045,0.36355916,0.0036617767,-0.00053143286,0.015577415,0.0,0.0,1.1122723e-06,0.0018486875,0.028949296,1.5171564e-06,6.48226e-06,6.502534e-06,3.349536e-05,0.015398118,0.015391631,0.010448305,0.06982361,0.069815055,0.057406515,1.1511236e-11,1.1559891e-11,1.8402101e-11,5.0000587e-08,5.0000562e-08,5.0000036e-08,0.0,0.0,0.0,0.0,0.0,0.0,0.0,0.0,663,0.37368256,0.23959656,0.0119492635,0.036280375,0.016285105,0.056103807,0.0,0.0,0.0,0.016799,0,0,0,831,24,0,0,0
371570975,0.9838652,-0.02868789,-0.003965405,0.17655163,0.0105891125,0.10704368,-1.9787416,2.542028,2.9886901,-1.8670199,-0.00034893808,0.00022191441,-3.432069e-05,0.00025079295,-0.00083615124,-2.3578888e-05,0.22969805,0.045582045,0.36355916,0.0036617767,-0.00053143286,0.015577415,0.0,0.0,1.0825847e-06,0.001815823,0.029407242,1.5113368e-06,6.4417786e-06,6.483406e-06,3.3627468e-05,0.015509719,0.015502944,0.010392938,0.06987081,0.069862396,0.056927137,1.1473433e-11,1.1520835e-11,1.8415491e-11,5.000063e-08,5.0000615e-08,5e-08,0.0,0.0,0.0,0.0,0.0,0.0,0.0,0.0,663,0.37380904,0.23859408,0.015398205,0.060322832,0.014245588,0.018347759,0.0,0.0,0.0,0.016799,0,0,0,831,24,0,0,0
371775775,0.98652625,-0.028457507,-0.0033379167,0.16107482,-0.009591154,0.08854215,-2.3176692,2.5410028,3.011759,-2.2887022,-0.00034894547,0.00022192526,-3.429582e-05,0.00025111914,-0.00083601155,-2.9313564e-05,0.22894613,0.03821999,0.39265066,0.0036617767,-0.00053143286,0.015577415,0.0,0.0,9.4761526e-07,0.0016583551,0.026765702,4.2040083e-05,6.379218e-06,7.68428e-06,0.0015784769,0.01492319,0.014918968,0.010371953,0.070379436,0.07037103,0.056743182,1.1439207e-11,1.1485398e-11,1.8458781e-11,5.000064e-08,5.000064e-08,5e-08,0.0,0.0,0.0,0.0,0.0,0.0,0.0,0.0,8389271,0.37516725,0.23820828,0.016626298,0.05556169,0.0121523505,0.024123622,0.0,0.0,0.0,0.016799,0,0,0,831,24,0,0,0
371977440,0.9858995,-0.0300802,-0.015758075,0.16385695,-0.050112534,0.032398973,-2.6905422,2.5309222,3.01727,-2.7574213,-0.00034890315,0.00022192474,-3.4299104e-05,0.00025099682,-0.0008367829,-3.4443925e-05,0.22894613,0.03821999,0.39265066,0.0036617767,-0.00053143286,0.015577415,0.0,0.0,7.448191e-07,0.0015687287,0.02607918,2.5787442e-05,6.689555e-06,7.3484803e-06,0.0009570088,0.013679321,0.0136756,0.010334237,0.0701448,0.07013684,0.056206457,1.1413095e-11,1.1458335e-11,1.855905e-11,5.000059e-08,5.000059e-08,5e-08,0.0,0.0,0.0,0.0,0.0,0.0,0.0,0.0,8389271,0.3745419,0.23707901,0.012036098,0.06391917,0.013822293,0.02515687,0.0,0.0,0.0,0.016799,0,0,0,831,24,0,0,0
372178175,0.98583764,-0.029942503,-0.02100926,0.16366476,-0.09586963,-0.018065663,-2.8625784,2.510528,3.0091836,-3.3141572,-0.00034886118,0.00022189683,-3.4301378e-05,0.00025049696,-0.0008371563,-3.350338e-05,0.22894613,0.03821999,0.39265066,0.0036617767,-0.00053143286,0.015577415,0.0,0.0,8.103474e-07,0.0015726072,0.025549686,1.8505405e-05,6.844503e-06,7.1730665e-06,0.0006867495,0.012909444,0.012906217,0.010415742,0.06990131,0.06989372,0.056630086,1.140969e-11,1.1454123e-11,1.8663016e-11,5.0000633e-08,5.0000633e-08,5.0000036e-08,0.0,0.0,0.0,0.0,0.0,0.0,0.0,0.0,8389271,0.37389174,0.23797077,0.01767761,0.062247388,0.013656556,0.022685152,0.0,0.0,0.0,0.016799,0,0,0,831,24,0,0,0
372379802,0.9844626,-0.03980163,-0.025221199,0.16915466,-0.059641294,-0.058260065,-2.7457108,2.4974442,2.999546,-3.8517246,-0.0003488387,0.00022191703,-3.4304023e-05,0.00025025176,-0.0008372112,-4.2174834e-05,0.22894613,0.03821999,0.39265066,0.0036617767,-0.00053143286,0.015577415,0.0,0.0,6.931434e-07,0.0014547784,0.022729263,1.5845148e-05,6.964363e-06,7.5024045e-06,0.0005475077,0.0124333035,0.012400851,0.010424403,0.069521315,0.06951369,0.056284245,1.1423329e-11,1.1467075e-11,1.8768872e-11,5.000064e-08,5.0000637e-08,5e-08,0.0,0.0,0.0,0.0,0.0,0.0,0.0,0.0,8389271,0.372874,0.23724301,0.010847164,0.034232106,0.01117854,0.04275893,0.0,0.0,0.0,0.016799,0,0,0,831,24,0,0,0
372580575,0.9832782,-0.036859404,-0.02422462,0.17668813,-0.020152431,-0.11194603,-2.4971936,2.5012414,2.980256,-4.3463454,-0.00034880015,0.00022197083,-3.4306326e-05,0.00024924747,-0.0008370117,-5.0114748e-05,0.22894613,0.03821999,0.39265066,0.0036617767,-0.00053143286,0.015577415,0.0,0.0,6.1024707e-07,0.0013544437,0.021058058,1.4436788e-05,6.948033e-06,7.3075494e-06,0.00045499316,0.012194709,0.012137066,0.010607864,0.0689646,0.06895577,0.05748691,1.1447762e-11,1.1490936e-11,1.8872862e-11,5.0000622e-08,5.0000605e-08,5.0000107e-08,0.0,0.0,0.0,0.0,0.0,0.0,0.0,0.0,8389271,0.37137634,0.23976429,0.009661379,0.06694193,0.008651035,0.047140677,0.0,0.0,0.0,0.016799,0,0,0,831,24,0,0,0
372789375,0.98246783,-0.024167081,-0.022346914,0.18350388,0.032104734,-0.15358233,-2.321424,2.507197,2.953871,-4.8256807,-0.00034880041,0.0002219885,-3.430824e-05,0.00024861217,-0.0008372004,-5.6055032e-05,0.22894613,0.03821999,0.39265066,0.0036617767,-0.00053143286,0.015577415,0.0,0.0,5.9022426e-07,0.0014179111,0.021492232,1.2885802e-05,6.927676e-06,6.9538337e-06,0.00037583947,0.012268002,0.012201712,0.010579591,0.06865912,0.06864764,0.05654209,1.1487207e-11,1.1529928e-11,1.898085e-11,5.0000658e-08,5.0000626e-08,5e-08,0.0,0.0,0.0,0.0,0.0,0.0,0.0,0.0,8389271,0.37054926,0.23778582,0.0051431814,0.03602534,0.00507464,0.0063281995,0.0,0.0,0.0,0.016799,0,0,0,831,24,0,0,0
372986975,0.98224485,-0.015767602,-0.021118907,0.18574314,0.07214987,-0.14615272,-2.203159,2.5195692,2.929012,-5.264924,-0.0003488171,0.00022200422,-3.430909e-05,0.0002477641,-0.00083793426,-5.900479e-05,0.22894613,0.03821999,0.39265066,0.0036617767,-0.00053143286,0.015577415,0.0,0.0,5.2187323e-07,0.001307232,0.01932459,1.1617464e-05,6.9206067e-06,6.8460017e-06,0.00033008627,0.012494984,0.012451084,0.010698857,0.068011805,0.06799781,0.05694024,1.1531993e-11,1.1574358e-11,1.9084831e-11,5.000065e-08,5.0000605e-08,5.0000036e-08,0.0,0.0,0.0,0.0,0.0,0.0,0.0,0.0,8389271,0.36879483,0.23862153,0.0024380232,0.05117592,0.0072167823,0.048656926,0.0,0.0,0.0,0.016799,0,0,0,831,24,0,0,0
373191775,0.9821432,-0.009919484,-0.0112025635,0.18753897,0.08397559,-0.1417224,-2.0644968,2.546337,2.895717,-5.686376,-0.0003487894,0.00022203835,-3.430994e-05,0.00024511208,-0.000836381,-6.272552e-05,0.22894613,0.03821999,0.39265066,0.0036617767,-0.00053143286,0.015577415,0.0,0.0,4.492254e-07,0.0012828531,0.018632496,1.0443773e-05,6.821936e-06,6.80988e-06,0.00029041062,0.012916256,0.012887062,0.01085642,0.067483656,0.06746805,0.057509143,1.1585089e-11,1.16271645e-11,1.9189211e-11,5.000068e-08,5.0000608e-08,5.0000036e-08,0.0,0.0,0.0,0.0,0.0,0.0,0.0,0.0,8389271,0.36735773,0.23981065,0.011237941,0.06516174,0.0077890493,0.0013054896,0.0,0.0,0.0,0.016799,0,0,0,831,24,0,0,0
373392575,0.9818745,-0.011138438,-0.013580308,0.18871649,0.0667127,-0.1226051,-1.9281834,2.5599632,2.8742406,-6.075178,-0.00034880033,0.0002220402,-3.431089e-05,0.00024444473,-0.0008371034,-6.2425606e-05,0.22894613,0.03821999,0.39265066,0.0036617767,-0.00053143286,0.015577415,0.0,0.0,3.8011774e-07,0.0011680183,0.016764034,9.568564e-06,6.8233417e-06,6.8019663e-06,0.0002623133,0.013375046,0.013356518,0.010965801,0.06663474,0.06661917,0.057713855,1.16391966e-11,1.1681043e-11,1.9287526e-11,5.000063e-08,5.0000548e-08,5.000007e-08,0.0,0.0,0.0,0.0,0.0,0.0,0.0,0.0,8389271,0.3650396,0.24023709,0.00124955,0.032080792,0.00901505,0.028068192,0.0,0.0,0.0,0.016799,0,0,0,831,24,0,0,0
373602177,0.9816264,-0.00637777,-0.013537904,0.1902253,0.058113,-0.09660838,-1.8495969,2.5621731,2.8503947,-6.4835978,-0.00034880932,0.00022201719,-3.431206e-05,0.00024610228,-0.0008375887,-5.437471e-05,0.22894613,0.03821999,0.39265066,0.0036617767,-0.00053143286,0.015577415,0.0,0.0,3.2117728e-07,0.0011920782,0.017902,8.793769e-06,6.7958767e-06,6.7578e-06,0.00023658398,0.014078976,0.014071551,0.011039264,0.06647419,0.06645927,0.057581548,1.1711446e-11,1.1753108e-11,1.9397184e-11,5.0000672e-08,5.0000573e-08,5e-08,0.0,0.0,0.0,0.0,0.0,0.0,0.0,0.0,8389271,0.36460042,0.23996155,0.01322874,0.06893233,0.012231403,0.0049846345,0.0,0.0,0.0,0.016799,0,0,0,831,24,0,0,0
373802975,0.98152417,-0.0050550825,-0.014227978,0.1907417,0.015652012,-0.07336659,-1.7491368,2.568205,2.840794,-6.8664083,-0.00034882463,0.00022202122,-3.431139e-05,0.00024487497,-0.0008389369,-4.575403e-05,0.22894613,0.03821999,0.39265066,0.0036617767,-0.00053143286,0.015577415,0.0,0.0,3.6940335e-07,0.0012546176,0.018956892,8.154573e-06,6.7501055e-06,6.708076e-06,0.00021767957,0.014753265,0.014749715,0.0111560635,0.06626945,0.066256024,0.057932183,1.1783747e-11,1.1825261e-11,1.9500752e-11,5.000071e-08,5.0000573e-08,5e-08,0.0,0.0,0.0,0.0,0.0,0.0,0.0,0.0,8389271,0.3640405,0.24069105,0.016568938,0.02137978,0.009461865,0.026633019,0.0,0.0,0.0,0.016799,0,0,0,831,24,0,0,0
374007775,0.9818303,-0.011129931,-0.016708344,0.18869653,-0.018231338,-0.033847366,-1.6799327,2.5676792,2.8465972,-7.2412443,-0.00034885673,0.00022203162,-3.4311404e-05,0.00024273779,-0.0008433814,-3.947162e-05,0.22894613,0.03821999,0.39265066,0.0036617767,-0.00053143286,0.015577415,0.0,0.0,6.093814e-07,0.0013847436,0.02106072,7.4151512e-06,6.7014093e-06,6.663817e-06,0.00020176168,0.01555974,0.015561421,0.011313916,0.06658543,0.06657402,0.058588266,1.1864968e-11,1.1906363e-11,1.9608318e-11,5.0000743e-08,5.000061e-08,5.000007e-08,0.0,0.0,0.0,0.0,0.0,0.0,0.0,0.0,8389271,0.36491022,0.24205013,0.014720351,0.060499962,0.010601273,0.053298384,0.0,0.0,0.0,0.016799,0,0,0,831,24,0,0,0
374209376,0.9818834,-0.018495213,-0.021701349,0.18732849,-0.010840277,-0.03340631,-1.5473394,2.5724423,2.8304505,-7.5359674,-0.00034883508,0.00022203884,-3.4310626e-05,0.00024129194,-0.0008383414,-4.7140922e-05,0.22894613,0.03821999,0.39265066,0.0036617767,-0.00053143286,0.015577415,0.0,0.0,5.115021e-07,0.0013727848,0.02052845,6.7824976e-06,6.649437e-06,6.614275e-06,0.00018633305,0.016180424,0.01618287,0.011316285,0.06651307,0.066504054,0.057943035,1.1942396e-11,1.1983693e-11,1.9707956e-11,5.000074e-08,5.000054e-08,5e-08,0.0,0.0,0.0,0.0,0.0,0.0,0.0,0.0,8389271,0.36471513,0.2407136,0.012600574,0.050161906,0.0021177696,0.015437193,0.0,0.0,0.0,0.016799,0,0,0,831,24,0,0,0
374410175,0.9813035,-0.014989587,-0.020755213,0.19075628,-0.014214643,-0.03951553,-1.4295425,2.5626328,2.8255553,-7.7904882,-0.0003488417,0.00022203052,-3.431076e-05,0.00024367127,-0.0008393903,-6.386599e-05,0.22894613,0.03821999,0.39265066,0.0036617767,-0.00053143286,0.015577415,0.0,0.0,4.417098e-07,0.0012887481,0.019261863,6.6050625e-06,6.5452587e-06,6.498488e-06,0.00017428146,0.016790153,0.016792627,0.011428655,0.06654602,0.06653904,0.058336377,1.2026578e-11,1.2067792e-11,1.9811144e-11,5.0000747e-08,5.0000565e-08,5.000007e-08,0.0,0.0,0.0,0.0,0.0,0.0,0.0,0.0,8389271,0.36480826,0.24152924,0.0030306533,0.030399323,0.0037886277,0.024927303,0.0,0.0,0.0,0.016799,0,0,0,831,24,0,0,0
374615775,0.98044425,-0.009719474,-0.0214139,0.19538695,0.005155025,-0.028081816,-1.3866923,2.5650709,2.8188422,-8.045564,-0.00034884148,0.00022203223,-3.431318e-05,0.00024333982,-0.00083883357,-7.599645e-05,0.22894613,0.03821999,0.39265066,0.0036617767,-0.00053143286,0.015577415,0.0,0.0,3.6367553e-07,0.0011906647,0.019162185,6.4223495e-06,6.449901e-06,6.3819825e-06,0.00016118557,0.01751115,0.01751351,0.011498793,0.06705563,0.06705055,0.05828072,1.2119767e-11,1.2160919e-11,1.9919878e-11,5.0000857e-08,5.000061e-08,5.0000068e-08,0.0,0.0,0.0,0.0,0.0,0.0,0.0,0.0,8389271,0.3662051,0.24141401,0.01009149,0.020373365,0.0026817713,0.03366414,0.0,0.0,0.0,0.016799,0,0,0,831,24,0,0,0
374816575,0.9806264,-0.008228826,-0.019966299,0.19469367,0.029676585,-0.0072188973,-1.4560078,2.5632377,2.8178506,-8.326286,-0.0003488461,0.00022202857,-3.4313605e-05,0.00024411731,-0.0008400019,-7.483663e-05,0.22894613,0.03821999,0.39265066,0.0036617767,-0.00053143286,0.015577415,0.0,0.0,5.263958e-07,0.0014499857,0.022510106,6.042979e-06,6.323561e-06,6.265513e-06,0.00015230656,0.018086802,0.01808912,0.011601201,0.06710159,0.067098126,0.058540285,1.220409e-11,1.2245196e-11,2.0017257e-11,5.0000786e-08,5.0000555e-08,5.0000036e-08,0.0,0.0,0.0,0.0,0.0,0.0,0.0,0.0,8389271,0.36633277,0.241951,0.0026393402,0.020706443,0.0045947847,0.02946477,0.0,0.0,0.0,0.016799,0,0,0,831,24,0,0,0
375017446,0.9814232,-0.012285118,-0.020461462,0.19036573,0.047560576,0.016003614,-1.5021222,2.5725448,2.8248432,-8.599803,-0.0003488506,0.0002220341,-3.431398e-05,0.00024185986,-0.00084112905,-8.2965315e-05,0.22894613,0.03821999,0.39265066,0.0036617767,-0.00053143286,0.015577415,0.0,0.0,4.8464227e-07,0.0013712764,0.021178856,5.53368e-06,6.2055283e-06,6.1586074e-06,0.0001455295,0.018584864,0.018586699,0.011609133,0.067454964,0.067453004,0.058129888,1.2296147e-11,1.2337219e-11,2.0120102e-11,5.0000796e-08,5.0000526e-08,5e-08,0.0,0.0,0.0,0.0,0.0,0.0,0.0,0.0,8389271,0.3672982,0.2411014,0.0027363787,0.019975297,0.0043785595,0.024652192,0.0,0.0,0.0,0.016799,0,0,0,831,24,0,0,0
375226975,0.9824055,-0.014088741,-0.013150911,0.18576375,0.055003304,0.007869142,-1.5056964,2.5919392,2.8238752,-8.899734,-0.00034884617,0.00022204046,-3.4313463e-05,0.00023942244,-0.00083848013,-8.981978e-05,0.22894613,0.03821999,0.39265066,0.0036617767,-0.00053143286,0.015577415,0.0,0.0,4.3254138e-07,0.0013526111,0.020856911,4.9986106e-06,6.0546736e-06,6.052674e-06,0.0001376596,0.019050281,0.019052316,0.011652017,0.06840177,0.0684011,0.0580694,1.2396183e-11,1.2437231e-11,2.0228349e-11,5.000081e-08,5.000058e-08,5e-08,0.0,0.0,0.0,0.0,0.0,0.0,0.0,0.0,8389271,0.36986873,0.24097593,0.007030411,0.03363934,0.0025474755,0.0042924588,0.0,0.0,0.0,0.016799,0,0,0,831,24,0,0,0
375423775,0.9824845,-0.012814067,-0.013225423,0.18543237,0.027554357,0.009039835,-1.555462,2.607762,2.8396072,-9.194656,-0.00034885335,0.00022205032,-3.4314184e-05,0.00023591185,-0.00084255275,-9.3850475e-05,0.22894613,0.03821999,0.39265066,0.0036617767,-0.00053143286,0.015577415,0.0,0.0,4.1868836e-07,0.0013667961,0.021792125,4.732507e-06,5.9380864e-06,5.9323925e-06,0.00013039878,0.019337986,0.019339668,0.011744544,0.0689689,0.068969086,0.058531262,1.2491709e-11,1.2532743e-11,2.0330295e-11,5.000081e-08,5.000056e-08,5.000003e-08,0.0,0.0,0.0,0.0,0.0,0.0,0.0,0.0,8389271,0.37140006,0.24193235,0.0010068096,0.05448807,0.010195362,0.0066451426,0.0,0.0,0.0,0.016799,0,0,0,831,24,0,0,0
375632575,0.9818421,-0.014162729,-0.015794536,0.18851082,0.02892356,0.013842753,-1.5292722,2.596848,2.8766415,-9.495624,-0.00034887777,0.00022204952,-3.431566e-05,0.00023776847,-0.0008554755,-0.00010080778,0.22894613,0.03821999,0.39265066,0.0036617767,-0.00053143286,0.015577415,0.0,0.0,4.9238065e-07,0.0014581312,0.022153096,4.679145e-06,5.840318e-06,5.8298715e-06,0.0001244166,0.019523019,0.019525444,0.011760681,0.069794856,0.06979568,0.05830026,1.2587125e-11,1.262815e-11,2.043088e-11,5.0000825e-08,5.0000537e-08,5e-08,0.0,0.0,0.0,0.0,0.0,0.0,0.0,0.0,8389271,0.37361816,0.24145447,0.0016674983,0.121685036,0.010298945,0.03051589,0.0,0.0,0.0,0.016799,0,0,0,831,24,0,0,0
375834175,0.98124754,-0.016252303,-0.014851319,0.19149056,0.026584215,-0.008712956,-1.551661,2.6242685,2.9036136,-9.800469,-0.00034888988,0.00022207292,-3.431593e-05,0.00023047245,-0.0008598099,-9.9842546e-05,0.22894613,0.03821999,0.39265066,0.0036617767,-0.00053143286,0.015577415,0.0,0.0,5.00865e-07,0.0015638238,0.023825632,4.629553e-06,5.49627e-06,5.4980624e-06,0.00011897212,0.017323043,0.017324943,0.011686463,0.061283227,0.061283894,0.05891782,1.2681073e-11,1.2722095e-11,2.0534484e-11,5e-08,5e-08,5e-08,0.0,0.0,0.0,0.0,0.0,0.0,0.0,0.0,8389271,0.35009587,0.24272993,0.013980084,0.053206097,0.018305715,0.007147995,0.0,0.0,0.0,0.016799,0,0,0,831,24,0,0,0
376034975,0.98059624,-0.013937556,-0.015313212,0.19494194,0.014562883,-0.023903592,-1.5440153,2.6272569,2.9001489,-10.095946,-0.00034888965,0.00022207317,-3.4316923e-05,0.00023043445,-0.00085971475,-0.000105613515,0.22894613,0.03821999,0.39265066,0.0036617767,-0.00053143286,0.015577415,0.0,0.0,4.2049703e-07,0.00138375,0.021075921,4.5595725e-06,5.6436875e-06,5.635928e-06,0.000112793416,0.019566877,0.01956893,0.0119793415,0.07102421,0.07102557,0.06001235,1.2785394e-11,1.2826416e-11,2.0635356e-11,5.000086e-08,5.000064e-08,5.000006e-08,0.0,0.0,0.0,0.0,0.0,0.0,0.0,0.0,8389271,0.37689492,0.24497418,0.0031031808,0.053206097,0.018305715,0.0043955017,0.0,0.0,0.0,0.016799,0,0,0,831,24,0,0,0
376235775,0.98021966,-0.014645972,-0.013539382,0.19690484,-0.0046217493,-0.025542118,-1.5408189,2.6447093,2.91383,-10.42986,-0.00034889838,0.0002220881,-3.431979e-05,0.00022773756,-0.0008629757,-9.3648865e-05,0.22894613,0.03821999,0.39265066,0.0036617767,-0.00053143286,0.015577415,0.0,0.0,5.350286e-07,0.0015487983,0.023660978,4.477537e-06,5.331986e-06,5.332078e-06,0.000108354114,0.017111193,0.01711298,0.011668184,0.061811976,0.061812915,0.058776036,1.2879538e-11,1.2920567e-11,2.0736537e-11,5e-08,5e-08,5e-08,0.0,0.0,0.0,0.0,0.0,0.0,0.0,0.0,8389271,0.35160333,0.24243769,0.0074898554,0.044784576,0.01841201,0.03830567,0.0,0.0,0.0,0.016799,0,0,0,831,24,0,0,0
376441375,0.98000044,-0.018205075,-0.0131469015,0.19772442,-0.008941197,-0.023166478,-1.5683243,2.6380186,2.9187157,-10.816651,-0.00034890833,0.0002220834,-3.4327215e-05,0.00023002691,-0.00086662575,-6.886499e-05,0.22894613,0.03821999,0.39265066,0.0036617767,-0.00053143286,0.015577415,0.0,0.0,4.464583e-07,0.0013162274,0.021587897,4.3138293e-06,5.2778214e-06,5.2905557e-06,0.00010331203,0.017042538,0.017044157,0.011655403,0.062436644,0.062437683,0.058665257,1.2985177e-11,1.3026215e-11,2.0842668e-11,5.0000065e-08,5.0000043e-08,5.0000022e-08,0.0,0.0,0.0,0.0,0.0,0.0,0.0,0.0,8389271,0.3533756,0.24220912,0.0001276152,0.047272075,0.010957085,0.043959137,0.0,0.0,0.0,0.016799,0,0,0,831,24,0,0,0
376642175,0.9799677,-0.019274686,-0.011874626,0.19786528,-0.00456468,-0.019724803,-1.5520347,2.6348207,2.9128792,-11.146443,-0.0003489071,0.0002220792,-3.4330256e-05,0.00023203311,-0.00086616684,-5.5952078e-05,0.22894613,0.03821999,0.39265066,0.0036617767,-0.00053143286,0.015577415,0.0,0.0,4.0986387e-07,0.0013450189,0.022279864,4.1953244e-06,5.2241735e-06,5.2434125e-06,0.00010012102,0.016785383,0.016786927,0.011583287,0.062456332,0.062457424,0.05806295,1.3079356e-11,1.3120404e-11,2.0938275e-11,5.000003e-08,5.0000008e-08,5e-08,0.0,0.0,0.0,0.0,0.0,0.0,0.0,0.0,8389271,0.3534314,0.24096255,0.007725334,0.06549112,0.007928761,0.013644235,0.0,0.0,0.0,0.016799,0,0,0,831,24,0,0,0
376847789,0.9801172,-0.0113228625,-0.0057562417,0.19801283,-0.04840432,-0.005178701,-1.855131,2.6138248,2.9329631,-11.533544,-0.00034893316,0.00022206946,-3.4337056e-05,0.00023409251,-0.00087296875,-4.1150543e-05,0.22894613,0.03821999,0.39265066,0.0036617767,-0.00053143286,0.015577415,0.0,0.0,5.9931995e-07,0.0014700847,0.025255771,4.0289965e-06,5.1852116e-06,5.1923325e-06,9.5892414e-05,0.016852042,0.01685416,0.011675154,0.06313842,0.0631396,0.05881518,1.31845914e-11,1.322565e-11,2.1043632e-11,5.0000097e-08,5.000008e-08,5.0000036e-08,0.0,0.0,0.0,0.0,0.0,0.0,0.0,0.0,8389271,0.3553562,0.24251841,0.0061722226,0.067727715,0.013933089,0.0097666625,0.0,0.0,0.0,0.016799,0,0,0,831,24,0,0,0
377048575,0.98030293,-0.01655003,-0.01637654,0.19612283,-0.08822913,0.017371247,-2.295052,2.5958142,2.9427938,-11.928322,-0.0003489397,0.00022206982,-3.4338063e-05,0.0002339643,-0.00087418186,-4.4740336e-05,0.22894613,0.03821999,0.39265066,0.0036617767,-0.00053143286,0.015577415,0.0,0.0,6.2127685e-07,0.0014709556,0.025288748,3.837579e-06,5.1733814e-06,5.1692496e-06,9.280736e-05,0.01685477,0.016857993,0.011613596,0.063253954,0.06325516,0.058194652,1.3277244e-11,1.3318307e-11,2.113815e-11,5.000006e-08,5.0000043e-08,5e-08,0.0,0.0,0.0,0.0,0.0,0.0,0.0,0.0,8389271,0.3556812,0.24123567,0.0002744324,0.032953028,0.014751557,0.06928868,0.0,0.0,0.0,0.016799,0,0,0,831,24,0,0,0
377249375,0.98063946,-0.027185509,-0.020755323,0.19281231,-0.08751874,0.038056426,-2.5783134,2.5654743,2.9528205,-12.32879,-0.00034894334,0.00022206013,-3.43297e-05,0.00023534316,-0.000874786,-7.61368e-05,0.22894613,0.03821999,0.39265066,0.0036617767,-0.00053143286,0.015577415,0.0,0.0,8.588752e-07,0.0015888432,0.025971808,3.6020876e-06,5.162199e-06,5.1838233e-06,8.958618e-05,0.016769087,0.01677094,0.011564528,0.063595966,0.063597225,0.057824895,1.3374139e-11,1.3415207e-11,2.1237196e-11,5.000006e-08,5.0000043e-08,5.0000036e-08,0.0,0.0,0.0,0.0,0.0,0.0,0.0,0.0,8389271,0.35664153,0.24046807,0.0023993114,0.02462629,0.01365528,0.07800445,0.0,0.0,0.0,0.016799,0,0,0,831,24,0,0,0
377450975,0.98087746,-0.036976814,-0.028457446,0.18895055,-0.06357163,0.04780617,-2.6705801,2.5364256,2.9700606,-12.795078,-0.0003489535,0.00022205425,-3.4323664e-05,0.00023591306,-0.0008762018,-9.879512e-05,0.22894613,0.03821999,0.39265066,0.0036617767,-0.00053143286,0.015577415,0.0,0.0,6.556544e-07,0.0013765041,0.021968827,3.3671483e-06,5.1787547e-06,5.219498e-06,8.658475e-05,0.0165346,0.016535094,0.011605611,0.063985966,0.06398725,0.05834149,1.3469798e-11,1.3510868e-11,2.1335881e-11,5.000007e-08,5.0000065e-08,5.0000054e-08,0.0,0.0,0.0,0.0,0.0,0.0,0.0,0.0,8389271,0.35773343,0.24153982,0.010179736,0.01621467,0.015173396,0.030543664,0.0,0.0,0.0,0.016799,0,0,0,831,24,0,0,0
377659789,0.98058116,-0.04057219,-0.02723363,0.1899286,-0.03435988,0.0070884684,-2.515194,2.5177884,2.9743817,-13.271497,-0.00034894896,0.0002220466,-3.4316454e-05,0.00023673658,-0.0008755979,-0.00012462649,0.22894613,0.03821999,0.39265066,0.0036617767,-0.00053143286,0.015577415,0.0,0.0,6.807964e-07,0.0012045893,0.018279662,3.3253136e-06,5.1777924e-06,5.2470327e-06,8.4362575e-05,0.016217913,0.016218891,0.011561699,0.0647289,0.06473018,0.058288936,1.3570531e-11,1.3611604e-11,2.1441468e-11,5.0000125e-08,5.0000086e-08,5e-08,0.0,0.0,0.0,0.0,0.0,0.0,0.0,0.0,8389271,0.35980424,0.24143101,0.0022281522,0.016537873,0.011078378,0.03211321,0.0,0.0,0.0,0.016799,0,0,0,831,24,0,0,0
377860575,0.9795016,-0.039330903,-0.02678501,0.19573538,0.013840956,-0.029243374,-2.2424276,2.5032377,2.983807,-13.671117,-0.0003489711,0.0002220399,-3.4313285e-05,0.00023715963,-0.0008779434,-0.00014960408,0.22894613,0.03821999,0.39265066,0.0036617767,-0.00053143286,0.015577415,0.0,0.0,6.4263656e-07,0.00119748,0.018234815,3.413096e-06,5.186268e-06,5.2469586e-06,8.1512204e-05,0.015746005,0.015748076,0.011558081,0.06488497,0.064886175,0.058704644,1.3664206e-11,1.3705285e-11,2.153927e-11,5.0000097e-08,5.000007e-08,5.000007e-08,0.0,0.0,0.0,0.0,0.0,0.0,0.0,0.0,8389271,0.36023763,0.2422904,0.004872607,0.049251676,0.010958417,0.0687407,0.0,0.0,0.0,0.016799,0,0,0,831,24,0,0,0
378062175,0.9811944,-0.027395451,-0.02357029,0.18960902,0.05149141,-0.03342985,-2.1211474,2.5034542,2.9745498,-14.073496,-0.0003489712,0.00022203269,-3.4310426e-05,0.00023789186,-0.00087797904,-0.0001589229,0.22894613,0.03821999,0.39265066,0.0036617767,-0.00053143286,0.015577415,0.0,0.0,7.114627e-07,0.0013177582,0.020404462,3.1154225e-06,5.198963e-06,5.206741e-06,7.8991914e-05,0.015389472,0.015393642,0.011467639,0.06501131,0.06501242,0.05831153,1.3758442e-11,1.3799526e-11,2.1637815e-11,5.0000118e-08,5.000009e-08,5e-08,0.0,0.0,0.0,0.0,0.0,0.0,0.0,0.0,8389271,0.360588,0.2414778,0.0011031947,0.049286965,0.009622497,0.049686093,0.0,0.0,0.0,0.016799,0,0,0,831,24,0,0,0
378258975,0.98255765,-0.031844586,-0.014666665,0.18262365,0.018648345,-0.038727738,-2.096769,2.498105,2.9755144,-14.465846,-0.00034899396,0.00022202163,-3.4303892e-05,0.00023882074,-0.00087990845,-0.00016911782,0.22894613,0.03821999,0.39265066,0.0036617767,-0.00053143286,0.015577415,0.0,0.0,7.4100876e-07,0.00137855,0.021944683,2.8335614e-06,5.200525e-06,5.256722e-06,7.687655e-05,0.0151028475,0.015105184,0.011470481,0.06506464,0.065065704,0.05869899,1.38487615e-11,1.3889844e-11,2.1734756e-11,5.0000097e-08,5.0000068e-08,5e-08,0.0,0.0,0.0,0.0,0.0,0.0,0.0,0.0,8389271,0.36073583,0.24227874,0.009616953,0.032087874,0.018272078,0.025994278,0.0,0.0,0.0,0.016799,0,0,0,831,24,0,0,0
378463775,0.9816869,-0.033452038,-0.026477488,0.18566333,-0.016706003,-0.03704387,-2.022769,2.4733906,2.9725845,-14.862799,-0.00034901605,0.00022198888,-3.429901e-05,0.00024136883,-0.00088177965,-0.00017693915,0.22894613,0.03821999,0.39265066,0.0036617767,-0.00053143286,0.015577415,0.0,0.0,7.7588965e-07,0.0013953185,0.022160305,2.8591892e-06,5.2819914e-06,5.3049484e-06,7.482571e-05,0.0148458425,0.014847417,0.011499694,0.06531533,0.06531638,0.059227977,1.3935707e-11,1.3976786e-11,2.1830667e-11,5.0000132e-08,5.0000093e-08,5.0000047e-08,0.0,0.0,0.0,0.0,0.0,0.0,0.0,0.0,8389271,0.3614301,0.24336798,0.015315908,0.055463858,0.025755122,0.012150248,0.0,0.0,0.0,0.016799,0,0,0,831,24,0,0,0
378665375,0.97989833,-0.038251076,-0.030583974,0.19339336,-0.01715476,-0.029893858,-1.8604974,2.4520328,2.9746265,-15.223257,-0.00034903776,0.00022197666,-3.4293993e-05,0.00024241048,-0.0008834844,-0.00018359844,0.22894613,0.03821999,0.39265066,0.0036617767,-0.00053143286,0.015577415,0.0,0.0,6.1826455e-07,0.0012786214,0.020516407,3.017574e-06,5.3424424e-06,5.3717363e-06,7.2750634e-05,0.014499839,0.014501709,0.011479328,0.06520429,0.06520532,0.05944217,1.401825e-11,1.4059328e-11,2.1923885e-11,5.000011e-08,5.000009e-08,5.000009e-08,0.0,0.0,0.0,0.0,0.0,0.0,0.0,0.0,8389271,0.3611227,0.24380764,0.0029678212,0.038283624,0.029263243,0.023355566,0.0,0.0,0.0,0.016799,0,0,0,831,24,0,0,0
378874175,0.9788919,-0.036402747,-0.029731922,0.19890074,0.018186571,-0.016630957,-1.7252375,2.4255958,2.985068,-15.582887,-0.00034908074,0.00022195185,-3.4292072e-05,0.0002440886,-0.0008862325,-0.00019163985,0.22894613,0.03821999,0.39265066,0.0036617767,-0.00053143286,0.015577415,0.0,0.0,5.2808286e-07,0.0012850526,0.020265596,3.1088914e-06,5.4018283e-06,5.4242996e-06,7.090469e-05,0.014282204,0.014286228,0.011307123,0.06554254,0.06554361,0.058347475,1.4106138e-11,1.4147222e-11,2.202423e-11,5.0000157e-08,5.0000065e-08,5e-08,0.0,0.0,0.0,0.0,0.0,0.0,0.0,0.0,8389271,0.3620582,0.24155222,0.00035627774,0.042618256,0.038416624,0.021453584,0.0,0.0,0.0,0.016799,0,0,0,831,24,0,0,0
379075776,0.97859234,-0.03802732,-0.029133776,0.20015582,0.02612588,-0.03882917,-1.6306514,2.4153063,2.9838257,-15.923553,-0.00034908662,0.00022194852,-3.4292407e-05,0.0002448485,-0.00088688766,-0.00019261504,0.22894613,0.03821999,0.39265066,0.0036617767,-0.00053143286,0.015577415,0.0,0.0,5.1590865e-07,0.0013161658,0.019690828,3.0806805e-06,5.4594434e-06,5.4924317e-06,6.924825e-05,0.014048731,0.014052837,0.01121948,0.06548646,0.065487675,0.05794403,1.4188799e-11,1.4229889e-11,2.2121763e-11,5.0000168e-08,5.0000093e-08,5.0000036e-08,0.0,0.0,0.0,0.0,0.0,0.0,0.0,0.0,8389271,0.3619035,0.24071567,0.0062012947,0.021325791,0.04101072,0.0011005362,0.0,0.0,0.0,0.016799,0,0,0,831,24,0,0,0
379276575,0.9792121,-0.036505286,-0.02818884,0.19752587,0.057961755,-0.033655033,-1.5681703,2.408825,2.991978,-16.245173,-0.0003491231,0.00022195416,-3.4287208e-05,0.00024508673,-0.000888793,-0.00019381092,0.22894613,0.03821999,0.39265066,0.0036617767,-0.00053143286,0.015577415,0.0,0.0,5.647847e-07,0.0012888035,0.020354692,2.9395278e-06,5.5213354e-06,5.549817e-06,6.7587214e-05,0.01385446,0.013860609,0.011237188,0.065405115,0.065406494,0.05839946,1.42662705e-11,1.4307366e-11,2.2215849e-11,5.000018e-08,5.000011e-08,5.0000043e-08,0.0,0.0,0.0,0.0,0.0,0.0,0.0,0.0,8389271,0.36167887,0.2416598,0.0005870647,0.043062177,0.042004146,0.020485856,0.0,0.0,0.0,0.016799,0,0,0,831,24,0,0,0
379477439,0.979177,-0.04567048,-0.029066024,0.19565733,0.05299141,0.0013768665,-1.4434024,2.3989427,3.0018814,-16.570175,-0.00034916314,0.00022194031,-3.428785e-05,0.00024611488,-0.0008908235,-0.00018925876,0.22894613,0.03821999,0.39265066,0.0036617767,-0.00053143286,0.015577415,0.0,0.0,5.3828796e-07,0.0012285454,0.019423608,2.830026e-06,5.59109e-06,5.6660288e-06,6.5940774e-05,0.013656783,0.013662773,0.011060334,0.065373935,0.065375604,0.057171404,1.4340496e-11,1.4381601e-11,2.2309281e-11,5.000017e-08,5.0000015e-08,5e-08,0.0,0.0,0.0,0.0,0.0,0.0,0.0,0.0,8389271,0.36159307,0.23910542,0.006497328,0.03576486,0.04075419,0.039908692,0.0,0.0,0.0,0.016799,0,0,0,831,24,0,0,0
379678975,0.97884965,-0.050257064,-0.032665696,0.19560307,0.05910463,0.0050852187,-1.2740351,2.3956652,3.014613,-16.857512,-0.00034919035,0.00022194344,-3.428367e-05,0.000246494,-0.0008922981,-0.00018462284,0.22894613,0.03821999,0.39265066,0.0036617767,-0.00053143286,0.015577415,0.0,0.0,5.2631026e-07,0.0012991918,0.020992802,2.7814406e-06,5.677679e-06,5.765121e-06,6.45372e-05,0.013457422,0.013463625,0.011083598,0.06531463,0.06531659,0.057668556,1.441133e-11,1.4452454e-11,2.2403432e-11,5.000019e-08,5.000008e-08,5.0000043e-08,0.0,0.0,0.0,0.0,0.0,0.0,0.0,0.0,8389271,0.3614294,0.24014278,0.005019145,0.025764935,0.03829412,0.021550285,0.0,0.0,0.0,0.016799,0,0,0,831,24,0,0,0
379879775,0.9783843,-0.05220077,-0.034343358,0.19712879,0.090139925,-0.0059226826,-1.1791049,2.4076958,3.0202165,-17.168518,-0.00034920205,0.0002219709,-3.4288798e-05,0.0002463589,-0.0008936174,-0.00015996247,0.22894613,0.03821999,0.39265066,0.0036617767,-0.00053143286,0.015577415,0.0,0.0,4.528732e-07,0.0013199258,0.020630263,2.7717167e-06,5.7611337e-06,5.852555e-06,6.318746e-05,0.013310969,0.013318846,0.011103502,0.06521406,0.06521633,0.0581613,1.4479723e-11,1.45208776e-11,2.2498847e-11,5.000019e-08,5.00001e-08,5.000008e-08,0.0,0.0,0.0,0.0,0.0,0.0,0.0,0.0,8389271,0.3611515,0.24116653,0.0034290382,0.051762916,0.024882523,0.075392276,0.0,0.0,0.0,0.016799,0,0,0,831,24,0,0,0
380084575,0.97846985,-0.051447418,-0.030810544,0.19748612,0.113123186,-0.035173126,-1.0082062,2.419952,3.0083601,-17.429295,-0.0003491788,0.00022195536,-3.4296285e-05,0.00024733643,-0.00089369895,-0.00014720725,0.22894613,0.03821999,0.39265066,0.0036617767,-0.00053143286,0.015577415,0.0,0.0,3.779295e-07,0.0012930894,0.020987894,2.7243302e-06,5.835919e-06,5.934733e-06,6.1798935e-05,0.013200348,0.013209424,0.01105662,0.06539834,0.0654011,0.05804964,1.4546154e-11,1.4587343e-11,2.2594487e-11,5.000022e-08,5.000007e-08,5.000007e-08,0.0,0.0,0.0,0.0,0.0,0.0,0.0,0.0,8389271,0.36166206,0.24093494,0.011304355,0.029514456,0.02362348,0.014106236,0.0,0.0,0.0,0.016799,0,0,0,831,24,0,0,0
380282182,0.9786651,-0.047964204,-0.029996803,0.19752035,0.11418987,-0.050314113,-0.8995075,2.429112,3.0091395,-17.685701,-0.0003492345,0.00022194657,-3.429737e-05,0.00024805573,-0.00089585903,-0.00012412063,0.22894613,0.03821999,0.39265066,0.0036617767,-0.00053143286,0.015577415,0.0,0.0,3.166729e-07,0.0011660587,0.020047499,2.6712594e-06,5.9137055e-06,5.992303e-06,6.0482627e-05,0.013047625,0.01305614,0.010967183,0.06502193,0.06502515,0.057485245,1.4598158e-11,1.4639383e-11,2.2679856e-11,5.000016e-08,5e-08,5e-08,0.0,0.0,0.0,0.0,0.0,0.0,0.0,0.0,8389271,0.3606204,0.2397608,0.0062768455,0.049864586,0.024542576,0.0792537,0.0,0.0,0.0,0.016799,0,0,0,831,24,0,0,0
380490975,0.97888273,-0.048210748,-0.025818702,0.19697149,0.11442477,-0.028428683,-0.82422924,2.4414928,3.0122604,-17.984919,-0.00034929632,0.00022194585,-3.430577e-05,0.00024884124,-0.0008989578,-7.99122e-05,0.22894613,0.03821999,0.39265066,0.0036617767,-0.00053143286,0.015577415,0.0,0.0,3.778337e-07,0.0011130435,0.019937776,2.6073483e-06,5.991818e-06,6.0847e-06,5.9249214e-05,0.01300094,0.01300938,0.011008881,0.06507081,0.06507454,0.058060035,1.4652139e-11,1.469341e-11,2.2770587e-11,5.0000253e-08,5.000004e-08,5.000004e-08,0.0,0.0,0.0,0.0,0.0,0.0,0.0,0.0,8389271,0.36075664,0.2409565,0.005017397,0.055796895,0.024012284,0.091839254,0.0,0.0,0.0,0.016799,0,0,0,831,24,0,0,0
380691775,0.9793436,-0.056556758,-0.02561829,0.19243501,0.05445315,-0.07793144,-0.7133244,2.4523919,3.003221,-18.25052,-0.0003493007,0.00022194271,-3.4319168e-05,0.00024968197,-0.0009007587,-4.1211795e-05,0.22894613,0.03821999,0.39265066,0.0036617767,-0.00053143286,0.015577415,0.0,0.0,5.3077537e-07,0.0012944007,0.022971764,2.466285e-06,6.071152e-06,6.214129e-06,5.826436e-05,0.012913876,0.012917824,0.011002742,0.064905755,0.0649097,0.05837485,1.4699467e-11,1.4740795e-11,2.286147e-11,5.0000196e-08,5e-08,5e-08,0.0,0.0,0.0,0.0,0.0,0.0,0.0,0.0,8389271,0.3602991,0.24160887,0.008909759,0.011661602,0.020812178,0.09263569,0.0,0.0,0.0,0.016799,0,0,0,831,24,0,0,0
380889375,0.9790652,-0.0484248,-0.04470455,0.19258255,0.050812993,-0.1455739,-0.5237057,2.4651575,2.9769475,-18.438574,-0.00034926523,0.00022197394,-3.4322027e-05,0.00024979163,-0.00090102624,-2.160516e-05,0.22894613,0.03821999,0.39265066,0.0036617767,-0.00053143286,0.015577415,0.0,0.0,4.8059684e-07,0.001136625,0.02158778,2.4350131e-06,6.231609e-06,6.2433637e-06,5.723533e-05,0.012793224,0.012794323,0.010984351,0.064657725,0.064661644,0.058526006,1.4738193e-11,1.4779568e-11,2.2948051e-11,5.0000178e-08,5e-08,5e-08,0.0,0.0,0.0,0.0,0.0,0.0,0.0,0.0,8389271,0.35961002,0.24192148,0.0050572795,0.05430743,0.019153621,0.1045705,0.0,0.0,0.0,0.016799,0,0,0,831,24,0,0,0
381098175,0.9794538,-0.040610064,-0.038132433,0.19382206,0.098049626,-0.20405723,-0.29982784,2.4966505,2.9335036,-18.598131,-0.00034920796,0.00022205747,-3.4321976e-05,0.00024919902,-0.00090101856,1.9064258e-06,0.22894613,0.03821999,0.39265066,0.0036617767,-0.00053143286,0.015577415,0.0,0.0,5.9192666e-07,0.0011859159,0.021111423,2.4098604e-06,6.302373e-06,6.304934e-06,5.6037745e-05,0.01274641,0.012745475,0.010915809,0.06481022,0.06481402,0.058249485,1.4780004e-11,1.4821413e-11,2.303811e-11,5.0000228e-08,5e-08,5e-08,0.0,0.0,0.0,0.0,0.0,0.0,0.0,0.0,8389271,0.36003366,0.2413493,0.0091003645,0.08514458,0.007859844,0.07172445,0.0,0.0,0.0,0.016799,0,0,0,831,24,0,0,0
381298975,0.9790741,-0.024437916,-0.03635039,0.1987343,0.110582575,-0.18717517,-0.18760775,2.517611,2.9076564,-18.750004,-0.0003492808,0.00022209172,-3.432378e-05,0.0002492708,-0.0009033714,3.596073e-05,0.22894613,0.03821999,0.39265066,0.0036617767,-0.00053143286,0.015577415,0.0,0.0,5.078647e-07,0.0011921844,0.021203274,2.4761548e-06,6.38932e-06,6.342563e-06,5.5087516e-05,0.012719308,0.0127189,0.010911195,0.064695254,0.06469895,0.058548097,1.4813472e-11,1.4854938e-11,2.3128754e-11,5.0000217e-08,5.0000036e-08,5.0000036e-08,0.0,0.0,0.0,0.0,0.0,0.0,0.0,0.0,8389271,0.35971406,0.24196714,0.005126598,0.06513448,0.0049743406,0.09437395,0.0,0.0,0.0,0.016799,0,0,0,831,24,0,0,0
381500575,0.9787074,-0.02304989,-0.029049,0.20188326,0.13459814,-0.1507198,-0.16390468,2.5465028,2.8835642,-18.871092,-0.0003493237,0.00022213891,-3.432288e-05,0.00024921965,-0.00090490823,6.185941e-05,0.22894613,0.03821999,0.39265066,0.0036617767,-0.00053143286,0.015577415,0.0,0.0,4.4139836e-07,0.0011780823,0.02000589,2.508811e-06,6.4516403e-06,6.4286487e-06,5.418433e-05,0.012771658,0.012773193,0.01091086,0.064657845,0.0646614,0.05882075,1.4839093e-11,1.4880649e-11,2.3216772e-11,5.0000246e-08,5.000007e-08,5.000007e-08,0.0,0.0,0.0,0.0,0.0,0.0,0.0,0.0,8389271,0.35960987,0.2425299,0.0036458212,0.07086086,0.005122822,0.0782951,0.0,0.0,0.0,0.016799,0,0,0,831,24,0,0,0
381705375,0.9786689,-0.02133858,-0.020871045,0.20326436,0.113304645,-0.12433985,-0.108092144,2.5721455,2.8685465,-18.992296,-0.0003493872,0.00022216712,-3.4328612e-05,0.00024937146,-0.0009066743,8.832001e-05,0.22894613,0.03821999,0.39265066,0.0036617767,-0.00053143286,0.015577415,0.0,0.0,4.901568e-07,0.0012303338,0.021487786,2.497057e-06,6.525827e-06,6.5213235e-06,5.3234748e-05,0.012882196,0.012882927,0.010854349,0.06500994,0.06501346,0.058531683,1.4862353e-11,1.4904022e-11,2.330599e-11,5.0000267e-08,5e-08,5e-08,0.0,0.0,0.0,0.0,0.0,0.0,0.0,0.0,8389271,0.36058757,0.24193323,0.0057452503,0.09515002,0.008725709,0.090846345,0.0,0.0,0.0,0.016799,0,0,0,831,24,0,0,0
381906975,0.97861123,-0.022330398,-0.020585427,0.20346414,0.10248413,-0.104510866,-0.14250425,2.5869124,2.8570817,-19.146202,-0.00034944384,0.00022216469,-3.4337012e-05,0.00025005385,-0.00090919907,0.0001295706,0.22894613,0.03821999,0.39265066,0.0036617767,-0.00053143286,0.015577415,0.0,0.0,5.6607854e-07,0.0012643391,0.023495862,2.4685642e-06,6.6019907e-06,6.6002917e-06,5.2446143e-05,0.012960166,0.012960921,0.010852116,0.064921215,0.06492447,0.058653593,1.4868058e-11,1.4909882e-11,2.3386976e-11,5.000023e-08,5.000011e-08,5.000011e-08,0.0,0.0,0.0,0.0,0.0,0.0,0.0,0.0,8389271,0.36034107,0.24218504,0.004781165,0.058136698,0.011338504,0.12625037,0.0,0.0,0.0,0.016799,0,0,0,831,24,0,0,0
382111790,0.9794581,-0.017844422,-0.019226618,0.19993454,0.06317937,-0.06889474,-0.12408623,2.591793,2.8541162,-19.312447,-0.00034954,0.00022215255,-3.4344423e-05,0.00025071632,-0.0009118327,0.00017111309,0.22894613,0.03821999,0.39265066,0.0036617767,-0.00053143286,0.015577415,0.0,0.0,8.4219613e-07,0.00131862,0.027420796,2.3609211e-06,6.686687e-06,6.6793336e-06,5.179531e-05,0.013114731,0.013114887,0.010800925,0.065470584,0.06547353,0.058394656,1.4877126e-11,1.4919134e-11,2.3478131e-11,5.000023e-08,5e-08,5e-08,0.0,0.0,0.0,0.0,0.0,0.0,0.0,0.0,8389271,0.361862,0.24164987,0.004289829,0.099555954,0.01586568,0.10082752,0.0,0.0,0.0,0.016799,0,0,0,831,24,0,0,0
382312575,0.979935,-0.029955909,-0.0320563,0.19442897,0.032832086,-0.043959294,-0.0008048661,2.6034415,2.8659768,-19.380423,-0.00034964192,0.00022222093,-3.4330435e-05,0.0002506175,-0.00091262773,0.00018330426,0.22894613,0.03821999,0.39265066,0.0036617767,-0.00053143286,0.015577415,0.0,0.0,7.155623e-07,0.0012888553,0.028396985,2.2237423e-06,6.780081e-06,6.7672136e-06,5.1015366e-05,0.01311185,0.013111754,0.010787873,0.06541034,0.06541285,0.058450244,1.4867293e-11,1.4909534e-11,2.3554547e-11,5.0000207e-08,5.0000036e-08,5.0000036e-08,0.0,0.0,0.0,0.0,0.0,0.0,0.0,0.0,8389271,0.3616949,0.24176486,0.01136084,0.1246053,0.0152467815,0.077035755,0.0,0.0,0.0,0.016799,0,0,0,831,24,0,0,0
382510185,0.9806355,-0.033738177,-0.028141983,0.19085035,0.064806364,-0.06052163,0.08271068,2.6120756,2.871486,-19.42953,-0.00034969777,0.00022224699,-3.4330187e-05,0.00025078678,-0.0009136279,0.00019964349,0.22894613,0.03821999,0.39265066,0.0036617767,-0.00053143286,0.015577415,0.0,0.0,6.2512197e-07,0.0012446088,0.02751537,2.128173e-06,6.8369113e-06,6.8475833e-06,5.040232e-05,0.013180988,0.013180881,0.010790809,0.06556025,0.065562345,0.05869644,1.4857669e-11,1.4900149e-11,2.3637944e-11,5.000024e-08,5.000007e-08,5.000007e-08,0.0,0.0,0.0,0.0,0.0,0.0,0.0,0.0,8389271,0.36210853,0.24227348,0.0054118778,0.062062863,0.01606638,0.07196211,0.0,0.0,0.0,0.016799,0,0,0,831,24,0,0,0
382710975,0.98158634,-0.026405236,-0.016668342,0.18844987,0.05153371,-0.093404695,0.12599728,2.6174061,2.8750093,-19.413738,-0.00034979288,0.00022225312,-3.43295e-05,0.00025056713,-0.0009136113,0.00019694954,0.22894613,0.03821999,0.39265066,0.0036617767,-0.00053143286,0.015577415,0.0,0.0,7.009841e-07,0.001330517,0.029970327,2.0524774e-06,6.8793825e-06,6.894027e-06,4.983067e-05,0.013260687,0.013260721,0.010706443,0.065573595,0.06557532,0.0580188,1.4836674e-11,1.487935e-11,2.3716955e-11,5.000022e-08,5.000007e-08,5.000007e-08,0.0,0.0,0.0,0.0,0.0,0.0,0.0,0.0,8389271,0.36214486,0.24087092,0.0031642378,0.081220865,0.017815521,0.0062652035,0.0,0.0,0.0,0.016799,0,0,0,831,24,0,0,0
382919775,0.9820252,-0.011763558,-0.02444147,0.18679067,-0.0029927134,-0.14637746,0.0670633,2.6197095,2.8718944,-19.387047,-0.00034990054,0.00022229519,-3.432617e-05,0.00025037015,-0.00091318856,0.00018984021,0.22894613,0.03821999,0.39265066,0.0036617767,-0.00053143286,0.015577415,0.0,0.0,6.7554953e-07,0.0013354466,0.029077526,1.9890324e-06,6.9627627e-06,6.937471e-06,4.9030357e-05,0.013504472,0.013504504,0.010677652,0.066102974,0.06610426,0.057825815,1.481472e-11,1.4857554e-11,2.379737e-11,5.0000217e-08,5.000007e-08,5.000005e-08,0.0,0.0,0.0,0.0,0.0,0.0,0.0,0.0,8389271,0.36360314,0.24046999,0.0119657535,0.082089506,0.020733569,0.024627205,0.0,0.0,0.0,0.016799,0,0,0,831,24,0,0,0
383121375,0.9820936,-0.013391347,-0.03489686,0.1846489,0.0045667742,-0.115521036,0.010942,2.622455,2.8668513,-19.376398,-0.00034998273,0.0002223671,-3.431659e-05,0.0002503569,-0.0009127338,0.000181679,0.22894613,0.03821999,0.39265066,0.0036617767,-0.00053143286,0.015577415,0.0,0.0,7.668424e-07,0.0015951218,0.03219312,1.9337067e-06,7.0397186e-06,6.9866087e-06,4.8445876e-05,0.013701563,0.013701974,0.010700158,0.06643309,0.06643396,0.058177676,1.4783235e-11,1.482628e-11,2.387989e-11,5.0000253e-08,5.000009e-08,5.000009e-08,0.0,0.0,0.0,0.0,0.0,0.0,0.0,0.0,8389271,0.3645093,0.24120049,0.0060016066,0.12362578,0.023471955,0.018587392,0.0,0.0,0.0,0.016799,0,0,0,831,24,0,0,0
383322175,0.9826887,-0.010246009,-0.02367231,0.18345986,-0.016579794,-0.09628787,-0.09439624,2.6298711,2.8612757,-19.356813,-0.00035003523,0.00022245596,-3.4311975e-05,0.0002504697,-0.0009120883,0.00016839843,0.22894613,0.03821999,0.39265066,0.0036617767,-0.00053143286,0.015577415,0.0,0.0,9.029782e-07,0.001734169,0.035677377,1.8885991e-06,7.056339e-06,7.0318506e-06,4.792376e-05,0.013933732,0.013935257,0.010714202,0.06681804,0.0668186,0.058455363,1.4741746e-11,1.4785012e-11,2.395957e-11,5.000027e-08,5.000007e-08,5.000005e-08,0.0,0.0,0.0,0.0,0.0,0.0,0.0,0.0,8389271,0.36556348,0.24177544,0.0073153586,0.08191142,0.024179952,0.06365914,0.0,0.0,0.0,0.016799,0,0,0,831,24,0,0,0
383522975,0.9821192,-0.017572548,-0.03150576,0.18477125,-0.049618248,-0.112814195,-0.20842858,2.6261387,2.8511603,-19.362904,-0.00035004516,0.00022249545,-3.4310793e-05,0.00025032272,-0.0009117147,0.00015282902,0.22894613,0.03821999,0.39265066,0.0036617767,-0.00053143286,0.015577415,0.0,0.0,8.901855e-07,0.0016134931,0.035680726,1.897615e-06,7.104858e-06,7.0686756e-06,4.7326772e-05,0.014154437,0.014157422,0.010633309,0.0671652,0.06716551,0.05786271,1.4690195e-11,1.473374e-11,2.403814e-11,5.000015e-08,5e-08,5e-08,0.0,0.0,0.0,0.0,0.0,0.0,0.0,0.0,8389271,0.36651155,0.24054669,0.01846713,0.116348505,0.022640437,0.104078084,0.0,0.0,0.0,0.016799,0,0,0,831,24,0,0,0
383728577,0.98110265,-0.02787557,-0.04457855,0.18620785,0.025475226,-0.06683273,-0.24440376,2.6304092,2.8550942,-19.40899,-0.00035012423,0.00022258428,-3.4290806e-05,0.000250802,-0.0009110661,0.00014585833,0.22894613,0.03821999,0.39265066,0.0036617767,-0.00053143286,0.015577415,0.0,0.0,7.717593e-07,0.0014581541,0.03212111,1.912938e-06,7.175929e-06,7.114815e-06,4.662849e-05,0.014369985,0.014370366,0.010675761,0.06790091,0.06790109,0.05841462,1.4637146e-11,1.4680993e-11,2.4118428e-11,5.0000114e-08,5e-08,5e-08,0.0,0.0,0.0,0.0,0.0,0.0,0.0,0.0,8389271,0.36851323,0.24169117,0.023618354,0.10637723,0.024731377,0.015328915,0.0,0.0,0.0,0.016799,0,0,0,831,24,0,0,0
383929375,0.98130095,-0.024059424,-0.03114401,0.1884137,0.045656953,-0.030703587,-0.2929183,2.636062,2.8706357,-19.436836,-0.00035024885,0.00022261216,-3.428323e-05,0.00025053698,-0.00090959494,0.00013025221,0.22894613,0.03821999,0.39265066,0.0036617767,-0.00053143286,0.015577415,0.0,0.0,6.993624e-07,0.0015608276,0.030471021,1.9233019e-06,7.151465e-06,7.1293844e-06,4.6035126e-05,0.014482351,0.0144820595,0.010753721,0.06809509,0.068095244,0.059266523,1.456655e-11,1.4610738e-11,2.4186384e-11,5.000018e-08,5.0000025e-08,5.000001e-08,0.0,0.0,0.0,0.0,0.0,0.0,0.0,0.0,8389271,0.36903974,0.24344717,0.009077315,0.13104956,0.02688008,0.037819933,0.0,0.0,0.0,0.016799,0,0,0,831,24,0,0,0
384130975,0.9808113,-0.021703964,-0.028002894,0.19171353,0.06943433,-0.016203562,-0.30500504,2.6545382,2.8797836,-19.459892,-0.00035027912,0.00022266,-3.428065e-05,0.000250443,-0.00090895104,0.00011044595,0.22894613,0.03821999,0.39265066,0.0036617767,-0.00053143286,0.015577415,0.0,0.0,6.2297505e-07,0.0015124046,0.028092245,1.9589324e-06,7.1574314e-06,7.139333e-06,4.5415727e-05,0.014604388,0.014604053,0.010741881,0.068544365,0.068544574,0.059377395,1.4496575e-11,1.4541038e-11,2.4258947e-11,5.0000217e-08,5.0000065e-08,5.0000047e-08,0.0,0.0,0.0,0.0,0.0,0.0,0.0,0.0,8389271,0.37025523,0.24367477,0.008034074,0.12765542,0.026832152,0.023113636,0.0,0.0,0.0,0.016799,0,0,0,831,24,0,0,0
384331775,0.9805868,-0.025776235,-0.019991476,0.19335337,0.080982186,-0.01675588,-0.31916746,2.6857731,2.8851252,-19.485796,-0.0003502432,0.000222766,-3.427481e-05,0.00025108986,-0.0009090792,8.9252455e-05,0.22894613,0.03821999,0.39265066,0.0036617767,-0.00053143286,0.015577415,0.0,0.0,5.363427e-07,0.0014489687,0.026850723,1.974242e-06,7.1470577e-06,7.154632e-06,4.5032422e-05,0.014718058,0.014718202,0.010726653,0.069039024,0.06903931,0.05947917,1.4422287e-11,1.446707e-11,2.4339041e-11,5.000022e-08,5.0000036e-08,5.0000036e-08,0.0,0.0,0.0,0.0,0.0,0.0,0.0,0.0,8389271,0.37158892,0.24388352,0.00010778761,0.15127723,0.0243105,0.004793744,0.0,0.0,0.0,0.016799,0,0,0,831,24,0,0,0
384532575,0.9805878,-0.025919678,-0.02130632,0.19318885,0.061351605,0.0040868586,-0.34431517,2.6912622,2.9005625,-19.51934,-0.00035034123,0.00022274294,-3.4282995e-05,0.00025031535,-0.00090760365,7.083072e-05,0.22894613,0.03821999,0.39265066,0.0036617767,-0.00053143286,0.015577415,0.0,0.0,6.6751414e-07,0.0015496886,0.027282096,1.951436e-06,7.1501995e-06,7.1559953e-06,4.4503427e-05,0.014825899,0.014826492,0.010712124,0.06949193,0.06949234,0.05954573,1.43434405e-11,1.43885156e-11,2.4409462e-11,5.0000224e-08,5.000007e-08,5.000007e-08,0.0,0.0,0.0,0.0,0.0,0.0,0.0,0.0,8389271,0.37280592,0.24401994,0.00087116665,0.11904963,0.023093233,0.06284843,0.0,0.0,0.0,0.016799,0,0,0,831,24,0,0,0
384737440,0.98096496,-0.032542113,-0.011753902,0.19107804,0.0045302627,-0.005167553,-0.3339495,2.6938655,2.922,-19.520878,-0.000350454,0.00022275028,-3.4286528e-05,0.0002496574,-0.0009054425,3.8918508e-05,0.22894613,0.03821999,0.39265066,0.0036617767,-0.00053143286,0.015577415,0.0,0.0,6.733486e-07,0.0015520897,0.028418085,1.8944877e-06,7.141156e-06,7.1770487e-06,4.395291e-05,0.0149645675,0.014967347,0.01064392,0.07027079,0.07027141,0.059044305,1.4264872e-11,1.43102205e-11,2.4479292e-11,5.000022e-08,5.000003e-08,5e-08,0.0,0.0,0.0,0.0,0.0,0.0,0.0,0.0,8389271,0.37488958,0.24299034,0.018188747,0.14567743,0.021254571,0.046520744,0.0,0.0,0.0,0.016799,0,0,0,831,24,0,0,0
384938975,0.98096824,-0.037439346,-0.018641198,0.18961078,-0.07573315,-0.044911034,-0.36753026,2.6828697,2.929728,-19.514292,-0.0003505109,0.00022275065,-3.429219e-05,0.00024895163,-0.00090389856,6.204334e-06,0.22894613,0.03821999,0.39265066,0.0036617767,-0.00053143286,0.015577415,0.0,0.0,6.271493e-07,0.0016090205,0.028658696,1.8587208e-06,7.134915e-06,7.1770623e-06,4.3558477e-05,0.015024169,0.015031478,0.010628375,0.070426226,0.07042716,0.058985084,1.417583e-11,1.42213975e-11,2.4547454e-11,5.000021e-08,5.000008e-08,5.0000036e-08,0.0,0.0,0.0,0.0,0.0,0.0,0.0,0.0,8389271,0.37530437,0.24286845,0.013425482,0.10955645,0.012477954,0.058334306,0.0,0.0,0.0,0.016799,0,0,0,831,24,0,0,0
385143775,0.9797599,-0.029318577,-0.03481179,0.19493406,-0.11274508,-0.04821222,-0.33669516,2.6572175,2.93605,-19.486036,-0.0003506105,0.00022276113,-3.4298213e-05,0.00024819377,-0.00090146094,-3.6301324e-05,0.22894613,0.03821999,0.39265066,0.0036617767,-0.00053143286,0.015577415,0.0,0.0,6.524698e-07,0.001536872,0.02711605,1.9289507e-06,7.166303e-06,7.147479e-06,4.29184e-05,0.015118516,0.015127393,0.010571121,0.0710304,0.071031764,0.0585282,1.4091767e-11,1.4137379e-11,2.4614482e-11,5.000021e-08,5.000005e-08,5e-08,0.0,0.0,0.0,0.0,0.0,0.0,0.0,0.0,8389271,0.37691134,0.24192601,0.023979012,0.1257488,0.0116615435,0.051526006,0.0,0.0,0.0,0.016799,0,0,0,831,24,0,0,0
