timestamp,ref_timestamp,ref_lat,ref_lon,x,y,z,delta_xy[0],delta_xy[1],delta_z,vx,vy,vz,z_deriv,delta_vxy[0],delta_vxy[1],delta_vz,ax,ay,az,yaw,ref_alt,dist_bottom,dist_bottom_rate,eph,epv,evh,evv,vxy_max,vz_max,hagl_min,hagl_max,xy_valid,z_valid,v_xy_valid,v_z_valid,xy_reset_counter,z_reset_counter,vxy_reset_counter,vz_reset_counter,xy_global,z_global,dist_bottom_valid
1072678434,40023207,32.3873805,-117.07638700000001,6.685698,-0.26200354,-2.6846876,-0.00497199,-0.019541295,0.0,0.004937496,0.05515299,-0.027555637,0.0006182351,-0.07570497,0.020968163,0.11818779,0.026024882,0.8036137,-0.11715829,0.3977581,16.215641,0.103711605,0.027555637,0.29918635,0.23753026,0.15371154,0.10467087,inf,inf,inf,inf,1,1,1,1,2,0,2,2,1,1,0
1072782410,40023207,32.3873805,-117.07638700000001,6.68041,-0.25756204,-2.6797278,-0.00497199,-0.019541295,0.0,0.0023751603,0.051104687,-0.028691893,0.0040897178,-0.07570497,0.020968163,0.11818779,0.0089473585,-0.7825723,-0.30597863,0.39772245,16.215641,0.1,0.028691893,0.28822094,0.23617983,0.1494216,0.104000375,inf,inf,inf,inf,1,1,1,1,2,0,2,2,1,1,0
1072879197,40023207,32.3873805,-117.07638700000001,6.676848,-0.2534438,-2.6775928,-0.00497199,-0.019541295,0.0,0.0020288802,0.05438151,-0.02497543,0.008970293,-0.07570497,0.020968163,0.11818779,-0.22655906,0.93055874,0.6240075,0.39752665,16.215641,0.1,0.02497543,0.29916152,0.2372084,0.15374127,0.104577444,inf,inf,inf,inf,1,1,1,1,2,0,2,2,1,1,0
1072983224,40023207,32.3873805,-117.07638700000001,6.671877,-0.24943422,-2.6792052,-0.00497199,-0.019541295,0.0,-0.0040748436,0.04948908,-0.030950498,0.0004644469,-0.07570497,0.020968163,0.11818779,0.6050653,-2.5865622,0.55945677,0.3969454,16.215641,0.1,0.030950498,0.2882942,0.23593944,0.1494865,0.10392181,inf,inf,inf,inf,1,1,1,1,2,0,2,2,1,1,0
1073087214,40023207,32.3873805,-117.07638700000001,6.666729,-0.24581312,-2.6817389,-0.00497199,-0.019541295,0.0,-0.026793145,0.026392957,-0.08462238,-0.05508468,-0.07570497,0.020968163,0.11818779,-1.5948642,0.3250743,-2.2404406,0.39534593,16.215641,0.100762844,0.08462238,0.3001859,0.23756056,0.15414932,0.10466914,inf,inf,inf,inf,1,1,1,1,2,0,2,2,1,1,0
1073184004,40023207,32.3873805,-117.07638700000001,6.654614,-0.24767841,-2.7043834,-0.00497199,-0.019541295,0.0,-0.13140246,-0.038702283,-0.5274644,-0.4984716,-0.07570497,0.020968163,0.11818779,-2.6709697,2.4752595,-7.1077347,0.3838921,16.215641,0.123407364,0.5274644,0.28834203,0.2371651,0.14948483,0.10420898,inf,inf,inf,inf,1,1,1,1,2,0,2,2,1,1,0
1073287998,40023207,32.3873805,-117.07638700000001,6.624854,-0.258208,-2.802909,-0.00497199,-0.019541295,0.0,-0.34960476,-0.16199856,-1.2909434,-1.2704356,-0.07570497,0.020968163,0.11818779,-1.9479883,-7.7609367,-10.142543,0.3758715,16.215641,0.22193289,1.2909434,0.30025345,0.23876758,0.1547425,0.10494876,inf,inf,inf,inf,1,1,1,1,2,0,2,2,1,1,0
1073392009,40023207,32.3873805,-117.07638700000001,6.5713425,-0.280361,-2.9985528,-0.00497199,-0.019541295,0.0,-0.5430305,-0.22771099,-2.0052855,-2.0078146,-0.07570497,0.020968163,0.11818779,-2.199377,6.4302816,-2.4469192,0.37080634,16.215641,0.4175768,2.0052855,0.28961122,0.23902981,0.15317376,0.10467036,inf,inf,inf,inf,1,1,1,1,2,0,2,2,1,1,0
1073492812,40023207,32.3873805,-117.07638700000001,6.5096455,-0.3078363,-3.257449,-0.00497199,-0.019541295,0.0,-0.59102124,-0.26627934,-2.3253675,-2.3635457,-0.07570497,0.020968163,0.11818779,-0.003270527,2.4809232,2.3358722,0.37004533,16.215641,0.6764729,2.3253675,0.30187058,0.23888695,0.16138384,0.104950614,inf,inf,inf,inf,1,1,1,1,2,0,2,2,1,1,0
1073588809,40023207,32.3873805,-117.07638700000001,6.448513,-0.33680895,-3.5134647,-0.00497199,-0.019541295,0.0,-0.5800136,-0.27485391,-2.3954089,-2.4562614,-0.07570497,0.020968163,0.11818779,0.2699197,0.3349356,-0.7736563,0.3711844,16.215641,0.9324887,2.3954089,0.2900053,0.2384294,0.15850411,0.10448372,inf,inf,inf,inf,1,1,1,1,2,0,2,2,1,1,0
1073692818,40023207,32.3873805,-117.07638700000001,6.3879,-0.3669687,-3.7693646,-0.00497199,-0.019541295,0.0,-0.51268584,-0.26411197,-2.285868,-2.350233,-0.07570497,0.020968163,0.11818779,3.1303837,-1.3119277,2.6772633,0.374079,16.215641,1.1883886,2.285868,0.30215368,0.23968706,0.16402355,0.105163306,inf,inf,inf,inf,1,1,1,1,2,0,2,2,1,1,0
1073797611,40023207,32.3873805,-117.07638700000001,6.328934,-0.3939197,-3.9950495,-0.00497199,-0.019541295,0.0,-0.45316806,-0.23650114,-2.1462674,-2.1959581,-0.07570497,0.020968163,0.11818779,0.43259633,-2.1474476,1.7107382,0.37728196,16.215641,1.4140735,2.1462674,0.29111555,0.23981398,0.15876667,0.10483152,inf,inf,inf,inf,1,1,1,1,2,0,2,2,1,1,0
1073893688,40023207,32.3873805,-117.07638700000001,6.2827234,-0.41562507,-4.179858,-0.00497199,-0.019541295,0.0,-0.38289776,-0.21021903,-2.0327942,-2.0619564,-0.07570497,0.020968163,0.11818779,2.295254,0.18316612,1.5538433,0.38028738,16.215641,1.5988822,2.0327942,0.3027027,0.23897839,0.16259743,0.10487622,inf,inf,inf,inf,1,1,1,1,2,0,2,2,1,1,0
1073997605,40023207,32.3873805,-117.07638700000001,6.2382517,-0.43627673,-4.3669863,-0.00497199,-0.019541295,0.0,-0.3047222,-0.18088157,-1.9494656,-1.9560883,-0.07570497,0.020968163,0.11818779,1.4621005,-0.32072195,-0.562749,0.38288203,16.215641,1.7860103,1.9494656,0.29175135,0.23916155,0.1569689,0.104541145,inf,inf,inf,inf,1,1,1,1,2,0,2,2,1,1,0
1074102396,40023207,32.3873805,-117.07638700000001,6.2030864,-0.4539827,-4.548844,-0.00497199,-0.019541295,0.0,-0.23167364,-0.1520573,-1.8946209,-1.8817831,-0.07570497,0.020968163,0.11818779,1.8155595,0.45369545,1.9453099,0.3844951,16.215641,1.9678679,1.8946209,0.30425736,0.24062294,0.16119894,0.10519547,inf,inf,inf,inf,1,1,1,1,2,0,2,2,1,1,0
1074198408,40023207,32.3873805,-117.07638700000001,6.1760306,-0.46748623,-4.7095127,-0.00497199,-0.019541295,0.0,-0.18410015,-0.13300025,-1.8490531,-1.8193545,-0.07570497,0.020968163,0.11818779,-1.1979628,0.5539376,-0.84049124,0.38579404,16.215641,2.1285367,1.8490531,0.29228505,0.24004066,0.15562287,0.10465214,inf,inf,inf,inf,1,1,1,1,2,0,2,2,1,1,0
1074302438,40023207,32.3873805,-117.07638700000001,6.154847,-0.4799617,-4.876962,-0.00497199,-0.019541295,0.0,-0.113967754,-0.10776424,-1.7904357,-1.7435124,-0.07570497,0.020968163,0.11818779,1.1959789,2.11251,2.188257,0.38616312,16.215641,2.2959862,1.7904357,0.30483985,0.2415824,0.16019334,0.10533423,inf,inf,inf,inf,1,1,1,1,2,0,2,2,1,1,0
1074407209,40023207,32.3873805,-117.07638700000001,6.1351967,-0.488234,-5.0468044,-0.00497199,-0.019541295,0.0,-0.074349076,-0.0925819,-1.7609566,-1.7041228,-0.07570497,0.020968163,0.11818779,-0.8478104,-0.3770933,-2.3650045,0.38571194,16.215641,2.4658284,1.7609566,0.29367614,0.24160634,0.1549824,0.10497395,inf,inf,inf,inf,1,1,1,1,2,0,2,2,1,1,0
1074503194,40023207,32.3873805,-117.07638700000001,6.122713,-0.4943403,-5.200129,-0.00497199,-0.019541295,0.0,-0.044546653,-0.081894524,-1.725816,-1.6620945,-0.07570497,0.020968163,0.11818779,-0.32751867,-1.762944,-1.4420954,0.3856795,16.215641,2.619153,1.725816,0.30515194,0.24060154,0.15913844,0.1049798,inf,inf,inf,inf,1,1,1,1,2,0,2,2,1,1,0
1074607192,40023207,32.3873805,-117.07638700000001,6.1086984,-0.49753788,-5.364264,-0.00497199,-0.019541295,0.0,0.00011941101,-0.057951838,-1.661006,-1.5934429,-0.07570497,0.020968163,0.11818779,1.6241341,1.4939469,2.3206477,0.38441113,16.215641,2.783288,1.661006,0.2943675,0.24067616,0.15433314,0.10463955,inf,inf,inf,inf,1,1,1,1,2,0,2,2,1,1,0
1074712027,40023207,32.3873805,-117.07638700000001,6.101703,-0.5003026,-5.5228357,-0.00497199,-0.019541295,0.0,0.03764116,-0.054771982,-1.6243677,-1.551645,-0.07570497,0.020968163,0.11818779,-0.48287466,-0.38622957,-1.3361547,0.38297603,16.215641,2.9418597,1.6243677,0.28435382,0.24064367,0.14956978,0.1042632,inf,inf,inf,inf,1,1,1,1,2,0,2,2,1,1,0
1074815994,40023207,32.3873805,-117.07638700000001,6.1001678,-0.504701,-5.6796994,-0.00497199,-0.019541295,0.0,0.08039451,-0.057914782,-1.5637867,-1.4903103,-0.07570497,0.020968163,0.11818779,1.7175962,0.29970983,2.2945812,0.38138282,16.215641,3.0987234,1.5637867,0.29620945,0.24029073,0.15399067,0.10449402,inf,inf,inf,inf,1,1,1,1,2,0,2,2,1,1,0
1074911998,40023207,32.3873805,-117.07638700000001,6.104468,-0.50896466,-5.8200445,-0.00497199,-0.019541295,0.0,0.12176947,-0.057057198,-1.5177196,-1.4439576,-0.07570497,0.020968163,0.11818779,2.7965727,0.77028143,4.8221474,0.38017446,16.215641,3.2390685,1.5177196,0.28550124,0.23973264,0.14911464,0.10396961,inf,inf,inf,inf,1,1,1,1,2,0,2,2,1,1,0
1075016812,40023207,32.3873805,-117.07638700000001,6.114537,-0.5131171,-5.9751124,-0.00497199,-0.019541295,0.0,0.14421357,-0.056455884,-1.4736812,-1.4064686,-0.07570497,0.020968163,0.11818779,3.027371,-0.3101601,1.7069767,0.37951052,16.215641,3.3941364,1.4736812,0.2973459,0.23942721,0.15343282,0.10422745,inf,inf,inf,inf,1,1,1,1,2,0,2,2,1,1,0
1075120823,40023207,32.3873805,-117.07638700000001,6.128561,-0.51732993,-6.125805,-0.00497199,-0.019541295,0.0,0.15929429,-0.04746502,-1.4276407,-1.3677552,-0.07570497,0.020968163,0.11818779,0.58496815,-0.551624,-0.7305319,0.37934476,16.215641,3.544829,1.4276407,0.2876244,0.23947243,0.14889695,0.10390749,inf,inf,inf,inf,1,1,1,1,2,0,2,2,1,1,0
1075216841,40023207,32.3873805,-117.07638700000001,6.145656,-0.52120143,-6.2596607,-0.00497199,-0.019541295,0.0,0.16901463,-0.03009636,-1.3741114,-1.319578,-0.07570497,0.020968163,0.11818779,-0.9316843,-0.3542707,-0.68396944,0.3805649,16.215641,3.6786847,1.3741114,0.29866144,0.24030535,0.15305375,0.10442671,inf,inf,inf,inf,1,1,1,1,2,0,2,2,1,1,0
1075320821,40023207,32.3873805,-117.07638700000001,6.1649456,-0.523744,-6.399409,-0.00497199,-0.019541295,0.0,0.18740773,-0.017764525,-1.3207948,-1.2712035,-0.07570497,0.020968163,0.11818779,2.3681974,0.77677155,2.206441,0.38265032,16.215641,3.8184328,1.3207948,0.28912932,0.23860724,0.14857246,0.103659466,inf,inf,inf,inf,1,1,1,1,2,0,2,2,1,1,0
1075425607,40023207,32.3873805,-117.07638700000001,6.1826787,-0.5237721,-6.5343213,-0.00497199,-0.019541295,0.0,0.19204734,-0.0018944748,-1.2710105,-1.2253816,-0.07570497,0.020968163,0.11818779,2.223955,0.8044902,3.152447,0.38415462,16.215641,3.9533453,1.2710105,0.3010025,0.23998718,0.15290317,0.10435286,inf,inf,inf,inf,1,1,1,1,2,0,2,2,1,1,0
1075521597,40023207,32.3873805,-117.07638700000001,6.2011843,-0.5231892,-6.6521277,-0.00497199,-0.019541295,0.0,0.20403528,0.013366904,-1.2277493,-1.1840545,-0.07570497,0.020968163,0.11818779,-0.30075228,1.2377335,3.0735304,0.38515908,16.215641,4.0711517,1.2277493,0.29078457,0.2393913,0.1482719,0.10383044,inf,inf,inf,inf,1,1,1,1,2,0,2,2,1,1,0
1075625609,40023207,32.3873805,-117.07638700000001,6.2238154,-0.5242184,-6.77541,-0.00497199,-0.019541295,0.0,0.2081618,0.013932904,-1.2082003,-1.1658032,-0.07570497,0.020968163,0.11818779,-0.76826286,-2.4575315,-0.59662294,0.38595444,16.215641,4.194434,1.2082003,0.30265674,0.24077144,0.15263833,0.10452927,inf,inf,inf,inf,1,1,1,1,2,0,2,2,1,1,0
1075726383,40023207,32.3873805,-117.07638700000001,6.247075,-0.5251256,-6.892592,-0.00497199,-0.019541295,0.0,0.21143673,0.027498597,-1.181726,-1.1413181,-0.07570497,0.020968163,0.11818779,-3.212271,1.924311,-1.4042287,0.38592473,16.215641,4.311616,1.181726,0.29327407,0.23904869,0.14839435,0.10376438,inf,inf,inf,inf,1,1,1,1,2,0,2,2,1,1,0
1075830397,40023207,32.3873805,-117.07638700000001,6.2740498,-0.5276328,-7.013633,-0.00497199,-0.019541295,0.0,0.22154316,0.030503877,-1.1600415,-1.1230453,-0.07570497,0.020968163,0.11818779,0.15969218,0.12635571,0.21334916,0.38537627,16.215641,4.432657,1.1600415,0.3048147,0.2401749,0.15264817,0.104445115,inf,inf,inf,inf,1,1,1,1,2,0,2,2,1,1,0
1075926418,40023207,32.3873805,-117.07638700000001,6.2978926,-0.5283222,-7.122632,-0.00497199,-0.019541295,0.0,0.21161823,0.034560043,-1.1493696,-1.1137943,-0.07570497,0.020968163,0.11818779,-0.88556767,0.77374005,-0.8683894,0.38517934,16.215641,4.541656,1.1493696,0.2944304,0.23956428,0.14812784,0.10394282,inf,inf,inf,inf,1,1,1,1,2,0,2,2,1,1,0
1076031207,40023207,32.3873805,-117.07638700000001,6.3215218,-0.52837247,-7.2406387,-0.00497199,-0.019541295,0.0,0.20257519,0.027836328,-1.1439035,-1.1095542,-0.07570497,0.020968163,0.11818779,0.46761787,-0.21834151,0.0045048594,0.38476717,16.215641,4.6596627,1.1439035,0.30632904,0.23927778,0.15262645,0.10423198,inf,inf,inf,inf,1,1,1,1,2,0,2,2,1,1,0
1076135204,40023207,32.3873805,-117.07638700000001,6.3449574,-0.52904737,-7.3599052,-0.00497199,-0.019541295,0.0,0.19174206,0.034770984,-1.1409113,-1.1102021,-0.07570497,0.020968163,0.11818779,2.9338288,1.0615044,3.8192616,0.3843961,16.215641,4.778929,1.1409113,0.2967898,0.23934996,0.14855461,0.103944294,inf,inf,inf,inf,1,1,1,1,2,0,2,2,1,1,0
1076231200,40023207,32.3873805,-117.07638700000001,6.3675556,-0.5313996,-7.4693303,-0.00497199,-0.019541295,0.0,0.17758565,0.03344264,-1.1423005,-1.1139803,-0.07570497,0.020968163,0.11818779,-0.81441116,-0.59834534,2.4804268,0.3841517,16.215641,4.8883543,1.1423005,0.30789423,0.24020886,0.15276875,0.10449214,inf,inf,inf,inf,1,1,1,1,2,0,2,2,1,1,0
1076336026,40023207,32.3873805,-117.07638700000001,6.390837,-0.53384507,-7.589162,-0.00497199,-0.019541295,0.0,0.16571566,0.035482854,-1.1517036,-1.1259059,-0.07570497,0.020968163,0.11818779,3.182296,0.9537835,3.287549,0.38439345,16.215641,5.008186,1.1517036,0.29793194,0.24022505,0.14857334,0.104175754,inf,inf,inf,inf,1,1,1,1,2,0,2,2,1,1,0
1076440002,40023207,32.3873805,-117.07638700000001,6.41557,-0.53982997,-7.708259,-0.00497199,-0.019541295,0.0,0.14951223,0.030622039,-1.1645687,-1.1398082,-0.07570497,0.020968163,0.11818779,2.1341805,0.40374708,0.7906394,0.3848584,16.215641,5.127283,1.1645687,0.30987713,0.24162017,0.15313645,0.10488916,inf,inf,inf,inf,1,1,1,1,2,0,2,2,1,1,0
1076536001,40023207,32.3873805,-117.07638700000001,6.4373274,-0.5462665,-7.81923,-0.00497199,-0.019541295,0.0,0.13775021,0.033064056,-1.1777723,-1.1534857,-0.07570497,0.020968163,0.11818779,0.042454854,1.6696491,-1.5340736,0.38572985,16.215641,5.238254,1.1777723,0.29903075,0.23927219,0.14869826,0.10392759,inf,inf,inf,inf,1,1,1,1,2,0,2,2,1,1,0
1076636814,40023207,32.3873805,-117.07638700000001,6.460845,-0.5565865,-7.9389286,-0.00497199,-0.019541295,0.0,0.12715043,0.028357765,-1.2018286,-1.1794219,-0.07570497,0.020968163,0.11818779,-1.5501735,-1.2055824,-4.84509,0.38721192,16.215641,5.3579526,1.2018286,0.31097904,0.2406407,0.15337478,0.10463317,inf,inf,inf,inf,1,1,1,1,2,0,2,2,1,1,0
1076740795,40023207,32.3873805,-117.07638700000001,6.4837375,-0.5651701,-8.0643425,-0.00497199,-0.019541295,0.0,0.12108283,0.034030408,-1.2135826,-1.1932476,-0.07570497,0.020968163,0.11818779,1.483664,-1.8953124,0.38236046,0.38888234,16.215641,5.4833665,1.2135826,0.30039012,0.23892519,0.14910546,0.103879355,inf,inf,inf,inf,1,1,1,1,2,0,2,2,1,1,0
1076844790,40023207,32.3873805,-117.07638700000001,6.5072384,-0.5739072,-8.193405,-0.00497199,-0.019541295,0.0,0.108799584,0.043869108,-1.2343717,-1.2171206,-0.07570497,0.020968163,0.11818779,1.0309232,-1.7190964,-1.4849595,0.38985804,16.215641,5.612429,1.2343717,0.31198555,0.24008814,0.15356942,0.10458075,inf,inf,inf,inf,1,1,1,1,2,0,2,2,1,1,0
1076941606,40023207,32.3873805,-117.07638700000001,6.528033,-0.57973135,-8.315799,-0.00497199,-0.019541295,0.0,0.105442226,0.061292086,-1.242615,-1.2277763,-0.07570497,0.020968163,0.11818779,1.0458484,-0.4430899,1.5984305,0.3901959,16.215641,5.7348228,1.242615,0.3001625,0.23782007,0.14895922,0.10366612,inf,inf,inf,inf,1,1,1,1,2,0,2,2,1,1,0
1077045617,40023207,32.3873805,-117.07638700000001,6.551833,-0.58462197,-8.449939,-0.00497199,-0.019541295,0.0,0.10200699,0.07483392,-1.2826538,-1.271296,-0.07570497,0.020968163,0.11818779,0.6451126,-0.39068475,0.8786357,0.39049307,16.215641,5.868963,1.2826538,0.31209248,0.23926915,0.15367052,0.10440437,inf,inf,inf,inf,1,1,1,1,2,0,2,2,1,1,0
1077149599,40023207,32.3873805,-117.07638700000001,6.5751314,-0.58861023,-8.583071,-0.00497199,-0.019541295,0.0,0.08430822,0.09026801,-1.2959689,-1.2837505,-0.07570497,0.020968163,0.11818779,1.9101325,1.2402039,1.3283255,0.3906693,16.215641,6.0020947,1.2959689,0.30088708,0.2394027,0.14932914,0.10412014,inf,inf,inf,inf,1,1,1,1,2,0,2,2,1,1,0
1077245597,40023207,32.3873805,-117.07638700000001,6.5973463,-0.5928524,-8.708141,-0.00497199,-0.019541295,0.0,0.066557005,0.10363233,-1.3134406,-1.301339,-0.07570497,0.020968163,0.11818779,-1.9858043,1.749454,-1.2288041,0.39038745,16.215641,6.1271653,1.3134406,0.31189176,0.24016021,0.1536556,0.10464042,inf,inf,inf,inf,1,1,1,1,2,0,2,2,1,1,0
1077350401,40023207,32.3873805,-117.07638700000001,6.6206036,-0.5967247,-8.845599,-0.00497199,-0.019541295,0.0,0.058626935,0.1127526,-1.3340753,-1.3214408,-0.07570497,0.020968163,0.11818779,-0.8081116,-0.50119495,-0.1807042,0.39076796,16.215641,6.264623,1.3340753,0.30069304,0.24018194,0.14936125,0.10432667,inf,inf,inf,inf,1,1,1,1,2,0,2,2,1,1,0
1077454426,40023207,32.3873805,-117.07638700000001,6.644006,-0.6014957,-8.982081,-0.00497199,-0.019541295,0.0,0.0451956,0.118559726,-1.357836,-1.3431538,-0.07570497,0.020968163,0.11818779,-1.8405572,-0.49351054,-2.432431,0.39121863,16.215641,6.4011054,1.357836,0.3127044,0.23992474,0.1540944,0.10460835,inf,inf,inf,inf,1,1,1,1,2,0,2,2,1,1,0
1077550441,40023207,32.3873805,-117.07638700000001,6.6625166,-0.6024764,-9.111972,-0.00497199,-0.019541295,0.0,0.031883385,0.1307192,-1.3727032,-1.3589664,-0.07570497,0.020968163,0.11818779,0.14301176,0.46680388,-0.71388,0.39181525,16.215641,6.530996,1.3727032,0.30086133,0.23934676,0.14947629,0.10412111,inf,inf,inf,inf,1,1,1,1,2,0,2,2,1,1,0
1077655200,40023207,32.3873805,-117.07638700000001,6.6795893,-0.6001379,-9.256764,-0.00497199,-0.019541295,0.0,0.0024566106,0.13730076,-1.3760924,-1.365104,-0.07570497,0.020968163,0.11818779,-1.3930427,-4.163435,-2.501809,0.3925592,16.215641,6.6757884,1.3760924,0.31277063,0.23907839,0.15416327,0.10441448,inf,inf,inf,inf,1,1,1,1,2,0,2,2,1,1,0
1077759197,40023207,32.3873805,-117.07638700000001,6.694252,-0.59682363,-9.403768,-0.00497199,-0.019541295,0.0,-0.015905,0.15336558,-1.3879769,-1.3816806,-0.07570497,0.020968163,0.11818779,-2.2450433,-0.3703524,-1.5747889,0.39335087,16.215641,6.8227916,1.3879769,0.302165,0.23755383,0.15001506,0.10371066,inf,inf,inf,inf,1,1,1,1,2,0,2,2,1,1,0
1077855191,40023207,32.3873805,-117.07638700000001,6.707886,-0.5947074,-9.534527,-0.00497199,-0.019541295,0.0,-0.0153873265,0.1634377,-1.3734409,-1.365999,-0.07570497,0.020968163,0.11818779,-0.49777144,0.78275573,-0.35656634,0.3934293,16.215641,6.953551,1.3734409,0.31317785,0.23839678,0.15431485,0.104264736,inf,inf,inf,inf,1,1,1,1,2,0,2,2,1,1,0
1077955990,40023207,32.3873805,-117.07638700000001,6.7188377,-0.5930113,-9.66825,-0.00497199,-0.019541295,0.0,-0.03983016,0.1613776,-1.3691523,-1.3570379,-0.07570497,0.020968163,0.11818779,-1.3327719,-1.1370834,0.41598165,0.3928231,16.215641,7.087274,1.3691523,0.30273646,0.23850906,0.15018515,0.10398834,inf,inf,inf,inf,1,1,1,1,2,0,2,2,1,1,0
1078060024,40023207,32.3873805,-117.07638700000001,6.7264276,-0.59081376,-9.805973,-0.00497199,-0.019541295,0.0,-0.057599373,0.16195473,-1.3956149,-1.3782734,-0.07570497,0.020968163,0.11818779,-1.9047904,-0.75204206,-4.0387955,0.39132923,16.215641,7.224997,1.3956149,0.31432012,0.2396901,0.15470515,0.10468816,inf,inf,inf,inf,1,1,1,1,2,0,2,2,1,1,0
1078164035,40023207,32.3873805,-117.07638700000001,6.732472,-0.5882554,-9.942894,-0.00497199,-0.019541295,0.0,-0.06462639,0.1551357,-1.4145602,-1.390549,-0.07570497,0.020968163,0.11818779,-0.58205396,-1.2432358,-3.1297588,0.38953263,16.215641,7.361918,1.4145602,0.3038507,0.23809125,0.15067916,0.103969395,inf,inf,inf,inf,1,1,1,1,2,0,2,2,1,1,0
1078260846,40023207,32.3873805,-117.07638700000001,6.736963,-0.5847001,-10.072289,-0.00497199,-0.019541295,0.0,-0.054806236,0.16102253,-1.4041946,-1.375381,-0.07570497,0.020968163,0.11818779,4.315842,1.706055,3.9727888,0.3882731,16.215641,7.4913135,1.4041946,0.3149067,0.23894317,0.15491897,0.104521304,inf,inf,inf,inf,1,1,1,1,2,0,2,2,1,1,0
1078364810,40023207,32.3873805,-117.07638700000001,6.740709,-0.581542,-10.213928,-0.00497199,-0.019541295,0.0,-0.06932144,0.15807432,-1.4397148,-1.4075174,-0.07570497,0.020968163,0.11818779,0.6128088,1.6655211,2.1082423,0.38775894,16.215641,7.632952,1.4397148,0.30432114,0.23746273,0.15086493,0.10382733,inf,inf,inf,inf,1,1,1,1,2,0,2,2,1,1,0
1078468795,40023207,32.3873805,-117.07638700000001,6.743492,-0.57879716,-10.358052,-0.00497199,-0.019541295,0.0,-0.0670676,0.16769466,-1.4366437,-1.402027,-0.07570497,0.020968163,0.11818779,2.330941,0.84940004,3.0054262,0.3883127,16.215641,7.7770762,1.4366437,0.31632784,0.23898923,0.15553999,0.10458331,inf,inf,inf,inf,1,1,1,1,2,0,2,2,1,1,0
1078565611,40023207,32.3873805,-117.07638700000001,6.747411,-0.5748367,-10.4891205,-0.00497199,-0.019541295,0.0,-0.06619971,0.1655167,-1.4508482,-1.4107431,-0.07570497,0.020968163,0.11818779,-0.34669366,-1.4198064,-0.41189322,0.3893995,16.215641,7.9081445,1.4508482,0.3048419,0.23686211,0.15121362,0.10371227,inf,inf,inf,inf,1,1,1,1,2,0,2,2,1,1,0
1078669613,40023207,32.3873805,-117.07638700000001,6.7514925,-0.568248,-10.627671,-0.00497199,-0.019541295,0.0,-0.05715688,0.16642424,-1.4641732,-1.4159095,-0.07570497,0.020968163,0.11818779,1.7443144,-0.9208668,-1.2765695,0.39040738,16.215641,8.046696,1.4641732,0.31686655,0.23840722,0.15591966,0.104472354,inf,inf,inf,inf,1,1,1,1,2,0,2,2,1,1,0
1078773652,40023207,32.3873805,-117.07638700000001,6.7530494,-0.56310433,-10.768171,-0.00497199,-0.019541295,0.0,-0.07358871,0.17213242,-1.483457,-1.427456,-0.07570497,0.020968163,0.11818779,-1.1622232,0.026008971,-2.0116603,0.39152655,16.215641,8.187195,1.483457,0.3063809,0.237026,0.1517816,0.1038153,inf,inf,inf,inf,1,1,1,1,2,0,2,2,1,1,0
1078870407,40023207,32.3873805,-117.07638700000001,6.7519927,-0.55715793,-10.9046955,-0.00497199,-0.019541295,0.0,-0.0829787,0.16393514,-1.5429016,-1.4826586,-0.07570497,0.020968163,0.11818779,-1.3550646,0.73230505,-0.47442073,0.39339688,16.215641,8.323719,1.5429016,0.31752083,0.23797643,0.1562292,0.10439716,inf,inf,inf,inf,1,1,1,1,2,0,2,2,1,1,0
1078974414,40023207,32.3873805,-117.07638700000001,6.7481937,-0.55136424,-11.057357,-0.00497199,-0.019541295,0.0,-0.08575463,0.16339281,-1.545575,-1.484741,-0.07570497,0.020968163,0.11818779,0.7625851,-0.28057504,1.1299763,0.39539367,16.215641,8.476381,1.545575,0.30689427,0.23653834,0.15209301,0.103726305,inf,inf,inf,inf,1,1,1,1,2,0,2,2,1,1,0
1079078430,40023207,32.3873805,-117.07638700000001,6.7428374,-0.5441859,-11.21525,-0.00497199,-0.019541295,0.0,-0.081591435,0.16766977,-1.5632437,-1.5059024,-0.07570497,0.020968163,0.11818779,-1.4132311,-1.4285799,-3.5420442,0.39699847,16.215641,8.634274,1.5632437,0.3191021,0.23819241,0.15698501,0.10450485,inf,inf,inf,inf,1,1,1,1,2,0,2,2,1,1,0
1079175229,40023207,32.3873805,-117.07638700000001,6.7388616,-0.53858304,-11.364047,-0.00497199,-0.019541295,0.0,-0.07321236,0.17607173,-1.5394695,-1.4869056,-0.07570497,0.020968163,0.11818779,2.6019742,1.9909468,4.2055817,0.3987743,16.215641,8.7830715,1.5394695,0.30768812,0.23614027,0.15249862,0.10365103,inf,inf,inf,inf,1,1,1,1,2,0,2,2,1,1,0
1079279194,40023207,32.3873805,-117.07638700000001,6.7342033,-0.5307487,-11.522199,-0.00497199,-0.019541295,0.0,-0.08379356,0.17132796,-1.5445894,-1.4951813,-0.07570497,0.020968163,0.11818779,-1.0782849,-1.0012383,-0.6292367,0.3998128,16.215641,8.941223,1.5445894,0.31982565,0.23774973,0.15712577,0.10442438,inf,inf,inf,inf,1,1,1,1,2,0,2,2,1,1,0
1079383188,40023207,32.3873805,-117.07638700000001,6.7267313,-0.52365834,-11.681647,-0.00497199,-0.019541295,0.0,-0.0914202,0.17882994,-1.5426612,-1.4981246,-0.07570497,0.020968163,0.11818779,-3.4326885,2.6285653,-0.6570642,0.40048873,16.215641,9.100672,1.5426612,0.30943877,0.23643163,0.15304533,0.10377901,inf,inf,inf,inf,1,1,1,1,2,0,2,2,1,1,0
1079484004,40023207,32.3873805,-117.07638700000001,6.718166,-0.51482385,-11.8374605,-0.00497199,-0.019541295,0.0,-0.08572554,0.17679265,-1.5260417,-1.4880198,-0.07570497,0.020968163,0.11818779,-0.056595895,1.4415628,1.3332748,0.40069687,16.215641,9.256485,1.5260417,0.32163912,0.2363931,0.15768062,0.10412362,inf,inf,inf,inf,1,1,1,1,2,0,2,2,1,1,0
1079579988,40023207,32.3873805,-117.07638700000001,6.707942,-0.5066663,-11.985488,-0.00497199,-0.019541295,0.0,-0.090179585,0.1742609,-1.5083452,-1.476353,-0.07570497,0.020968163,0.11818779,-0.3271483,-0.08255311,-0.63626564,0.40071264,16.215641,9.404512,1.5083452,0.31017387,0.23604928,0.15310048,0.103708185,inf,inf,inf,inf,1,1,1,1,2,0,2,2,1,1,0
1079683995,40023207,32.3873805,-117.07638700000001,6.6964116,-0.49599674,-12.144683,-0.00497199,-0.019541295,0.0,-0.08925443,0.17930984,-1.4864777,-1.4605387,-0.07570497,0.020968163,0.11818779,-1.247731,1.7198073,-0.22334996,0.40002295,16.215641,9.563707,1.4864777,0.3219995,0.23737647,0.15755953,0.10443395,inf,inf,inf,inf,1,1,1,1,2,0,2,2,1,1,0
1079788833,40023207,32.3873805,-117.07638700000001,6.685125,-0.48454902,-12.300666,-0.00497199,-0.019541295,0.0,-0.083124004,0.16683286,-1.500319,-1.4764848,-0.07570497,0.020968163,0.11818779,-2.3511267,-0.64040387,-3.6283674,0.3990613,16.215641,9.71969,1.500319,0.31153992,0.23761627,0.15335654,0.1041805,inf,inf,inf,inf,1,1,1,1,2,0,2,2,1,1,0
1079884826,40023207,32.3873805,-117.07638700000001,6.675526,-0.47277248,-12.444109,-0.00497199,-0.019541295,0.0,-0.079665385,0.16290903,-1.4881965,-1.4661809,-0.07570497,0.020968163,0.11818779,-1.111481,-1.7901542,0.294605,0.39794764,16.215641,9.863132,1.4881965,0.32282397,0.23689528,0.15763938,0.10430667,inf,inf,inf,inf,1,1,1,1,2,0,2,2,1,1,0
1079988814,40023207,32.3873805,-117.07638700000001,6.6666317,-0.46267793,-12.597055,-0.00497199,-0.019541295,0.0,-0.07604888,0.15205999,-1.4902719,-1.4690478,-0.07570497,0.020968163,0.11818779,-1.9153185,-2.474104,-1.9419849,0.39712143,16.215641,10.016079,1.4902719,0.31224814,0.23722558,0.1535044,0.10406775,inf,inf,inf,inf,1,1,1,1,2,0,2,2,1,1,0
1080092814,40023207,32.3873805,-117.07638700000001,6.658763,-0.4524663,-12.747166,-0.00497199,-0.019541295,0.0,-0.059805706,0.14905539,-1.467814,-1.4453568,-0.07570497,0.020968163,0.11818779,1.1480056,0.38477686,2.912485,0.39632323,16.215641,10.166189,1.467814,0.32450286,0.23716356,0.15815909,0.10438947,inf,inf,inf,inf,1,1,1,1,2,0,2,2,1,1,0
1080189610,40023207,32.3873805,-117.07638700000001,6.6467743,-0.4443865,-12.883107,-0.00497199,-0.019541295,0.0,-0.051105153,0.14013438,-1.4803765,-1.452795,-0.07570497,0.020968163,0.11818779,0.88890576,0.7212244,-0.5601359,0.3956275,16.215641,10.302132,1.4803765,0.31307936,0.23681435,0.15354216,0.10396317,inf,inf,inf,inf,1,1,1,1,2,0,2,2,1,1,0
1080293682,40023207,32.3873805,-117.07638700000001,6.6344876,-0.43494758,-13.029997,-0.00497199,-0.019541295,0.0,-0.051240187,0.12433036,-1.5167674,-1.4830238,-0.07570497,0.020968163,0.11818779,1.4506525,-1.2074252,1.832891,0.39489114,16.215641,10.44902,1.5167674,0.32544315,0.2368286,0.15830897,0.10429496,inf,inf,inf,inf,1,1,1,1,2,0,2,2,1,1,0
1080397609,40023207,32.3873805,-117.07638700000001,6.617293,-0.42415255,-13.187969,-0.00497199,-0.019541295,0.0,-0.054846566,0.11491046,-1.6369656,-1.602016,-0.07570497,0.020968163,0.11818779,0.3474758,0.17024338,-1.8150263,0.39397106,16.215641,10.606993,1.6369656,0.31513995,0.23713067,0.1542683,0.104064,inf,inf,inf,inf,1,1,1,1,2,0,2,2,1,1,0
1080494390,40023207,32.3873805,-117.07638700000001,6.603525,-0.41459492,-13.351731,-0.00497199,-0.019541295,0.0,-0.05288567,0.09808242,-1.8190958,-1.7836889,-0.07570497,0.020968163,0.11818779,0.72685796,-0.87798685,-1.9604287,0.39333954,16.215641,10.770756,1.8190958,0.32652205,0.23813994,0.15884076,0.10463583,inf,inf,inf,inf,1,1,1,1,2,0,2,2,1,1,0
1080598399,40023207,32.3873805,-117.07638700000001,6.578303,-0.401802,-13.547769,-0.00497199,-0.019541295,0.0,-0.07538141,0.10196013,-2.0551264,-2.0191104,-0.07570497,0.020968163,0.11818779,0.7569185,1.5208541,0.9467467,0.3937754,16.215641,10.966793,2.0551264,0.31634519,0.23837271,0.15535995,0.104369044,inf,inf,inf,inf,1,1,1,1,2,0,2,2,1,1,0
1080702431,40023207,32.3873805,-117.07638700000001,6.5536804,-0.38886958,-13.775567,-0.00497199,-0.019541295,0.0,-0.08139379,0.09353089,-2.34083,-2.3081863,-0.07570497,0.020968163,0.11818779,-1.162596,1.3329499,-2.455857,0.39435592,16.215641,11.1945915,2.34083,0.32888693,0.23829794,0.16091287,0.10465773,inf,inf,inf,inf,1,1,1,1,2,0,2,2,1,1,0
1080799217,40023207,32.3873805,-117.07638700000001,6.532459,-0.37934366,-14.013278,-0.00497199,-0.019541295,0.0,-0.07552533,0.08157741,-2.5895991,-2.5596778,-0.07570497,0.020968163,0.11818779,-1.8210071,0.3074268,-2.8586106,0.3951341,16.215641,11.432302,2.5895991,0.31794012,0.23787753,0.15736946,0.104199804,inf,inf,inf,inf,1,1,1,1,2,0,2,2,1,1,0
1080903174,40023207,32.3873805,-117.07638700000001,6.513777,-0.37001973,-14.291026,-0.00497199,-0.019541295,0.0,-0.06483193,0.071285,-2.8004124,-2.7708766,-0.07570497,0.020968163,0.11818779,-0.93306637,-1.8607323,-1.9116672,0.396002,16.215641,11.710051,2.8004124,0.33053795,0.23945604,0.16327535,0.10492995,inf,inf,inf,inf,1,1,1,1,2,0,2,2,1,1,0
1081007194,40023207,32.3873805,-117.07638700000001,6.488531,-0.3584567,-14.583773,-0.00497199,-0.019541295,0.0,-0.038861327,0.06492786,-2.91385,-2.8818254,-0.07570497,0.020968163,0.11818779,-0.09980038,-0.61702234,0.06359714,0.3964609,16.215641,12.002796,2.91385,0.3207718,0.2379831,0.16006136,0.10420544,inf,inf,inf,inf,1,1,1,1,2,0,2,2,1,1,0
1081103991,40023207,32.3873805,-117.07638700000001,6.470709,-0.3486743,-14.856794,-0.00497199,-0.019541295,0.0,-0.02491518,0.06470757,-2.9469945,-2.9080832,-0.07570497,0.020968163,0.11818779,-1.4409287,-0.3639229,-1.3999925,0.3964283,16.215641,12.275818,2.9469945,0.33256677,0.23885566,0.1651407,0.10471765,inf,inf,inf,inf,1,1,1,1,2,0,2,2,1,1,0
1081208031,40023207,32.3873805,-117.07638700000001,6.4543986,-0.33666852,-15.149411,-0.00497199,-0.019541295,0.0,0.009123728,0.06228895,-2.9533408,-2.9047346,-0.07570497,0.020968163,0.11818779,2.5675557,0.5036035,1.6528308,0.39624834,16.215641,12.568436,2.9533408,0.32282776,0.2389898,0.16103809,0.10441464,inf,inf,inf,inf,1,1,1,1,2,0,2,2,1,1,0
1081311998,40023207,32.3873805,-117.07638700000001,6.4438825,-0.3259033,-15.443693,-0.00497199,-0.019541295,0.0,0.02221278,0.057059906,-2.9928415,-2.9337442,-0.07570497,0.020968163,0.11818779,0.3216263,-1.3956561,1.5384833,0.39622086,16.215641,12.862717,2.9928415,0.33580765,0.24053152,0.16599824,0.10510712,inf,inf,inf,inf,1,1,1,1,2,0,2,2,1,1,0
1081412838,40023207,32.3873805,-117.07638700000001,6.435799,-0.31248066,-15.726123,-0.00497199,-0.019541295,0.0,0.06199099,0.05637796,-2.955004,-2.8863633,-0.07570497,0.020968163,0.11818779,-0.73722315,0.21367584,-2.1643944,0.39633346,16.215641,13.145147,2.955004,0.3256065,0.23890045,0.16157033,0.10433771,inf,inf,inf,inf,1,1,1,1,2,0,2,2,1,1,0
1081508840,40023207,32.3873805,-117.07638700000001,6.43316,-0.30174848,-15.992188,-0.00497199,-0.019541295,0.0,0.067021735,0.041851457,-2.9930658,-2.913554,-0.07570497,0.020968163,0.11818779,-3.3218133,-1.0021684,-2.8915067,0.39660707,16.215641,13.411213,2.9930658,0.3148813,0.24003063,0.15669358,0.1042446,inf,inf,inf,inf,1,1,1,1,2,0,2,2,1,1,0
1081612792,40023207,32.3873805,-117.07638700000001,6.428483,-0.28848717,-16.279491,-0.00497199,-0.019541295,0.0,0.10343597,0.031123336,-2.9702878,-2.8779335,-0.07570497,0.020968163,0.11818779,1.1999176,1.4429139,1.1404637,0.39687628,16.215641,13.698515,2.9702878,0.32683998,0.2394847,0.16111676,0.104463644,inf,inf,inf,inf,1,1,1,1,2,0,2,2,1,1,0
1081717644,40023207,32.3873805,-117.07638700000001,6.430074,-0.27917424,-16.570572,-0.00497199,-0.019541295,0.0,0.12035127,0.006500528,-3.0147848,-2.9106276,-0.07570497,0.020968163,0.11818779,1.1526604,-2.503787,-0.9385888,0.39695626,16.215641,13.989595,3.0147848,0.33978152,0.2392183,0.1659832,0.104697205,inf,inf,inf,inf,1,1,1,1,2,0,2,2,1,1,0
1081813657,40023207,32.3873805,-117.07638700000001,6.4302254,-0.2763227,-16.844114,-0.00497199,-0.019541295,0.0,0.1401913,-0.009111382,-3.0447524,-2.933925,-0.07570497,0.020968163,0.11818779,0.48562947,-0.78435946,-1.7757747,0.39709663,16.215641,14.263138,3.0447524,0.32796848,0.2386998,0.16096355,0.10420911,inf,inf,inf,inf,1,1,1,1,2,0,2,2,1,1,0
1081917617,40023207,32.3873805,-117.07638700000001,6.4347343,-0.2755048,-17.141382,-0.00497199,-0.019541295,0.0,0.14914353,-0.028292134,-3.0397477,-2.9228878,-0.07570497,0.020968163,0.11818779,0.25896645,-0.8515559,-1.6516961,0.39715388,16.215641,14.560406,3.0397477,0.31765547,0.23720849,0.15659009,0.103477806,inf,inf,inf,inf,1,1,1,1,2,0,2,2,1,1,0
1082022389,40023207,32.3873805,-117.07638700000001,6.4357066,-0.2727711,-17.441355,-0.00497199,-0.019541295,0.0,0.1610489,-0.029788993,-2.9989688,-2.8804843,-0.07570497,0.020968163,0.11818779,2.5468514,1.8512163,1.3427365,0.39685354,16.215641,14.860378,2.9989688,0.330028,0.2387301,0.16133457,0.10420829,inf,inf,inf,inf,1,1,1,1,2,0,2,2,1,1,0
1082118399,40023207,32.3873805,-117.07638700000001,6.4407883,-0.27217466,-17.713413,-0.00497199,-0.019541295,0.0,0.16699809,-0.046933595,-3.006763,-2.8845968,-0.07570497,0.020968163,0.11818779,-2.2574608,-0.88357645,-0.7015648,0.39677832,16.215641,15.132437,3.006763,0.31839085,0.23820925,0.15615632,0.10370952,inf,inf,inf,inf,1,1,1,1,2,0,2,2,1,1,0
1082222398,40023207,32.3873805,-117.07638700000001,6.4432793,-0.26769096,-18.006216,-0.00497199,-0.019541295,0.0,0.17962898,-0.043707307,-2.9704595,-2.8452485,-0.07570497,0.020968163,0.11818779,2.0850785,-0.4867242,1.6083338,0.39688605,16.215641,15.42524,2.9704595,0.33082518,0.23971324,0.16084296,0.10441323,inf,inf,inf,inf,1,1,1,1,2,0,2,2,1,1,0
1082326437,40023207,32.3873805,-117.07638700000001,6.450832,-0.2652374,-18.298819,-0.00497199,-0.019541295,0.0,0.18568602,-0.04652757,-2.974652,-2.847206,-0.07570497,0.020968163,0.11818779,-0.42487505,-0.275043,-0.30091503,0.3969395,16.215641,15.717842,2.974652,0.3199259,0.23809083,0.15607421,0.10365537,inf,inf,inf,inf,1,1,1,1,2,0,2,2,1,1,0
1082423217,40023207,32.3873805,-117.07638700000001,6.4611683,-0.26207668,-18.575857,-0.00497199,-0.019541295,0.0,0.18505369,-0.05953927,-2.9812183,-2.8554065,-0.07570497,0.020968163,0.11818779,1.6769968,0.55152744,2.4590728,0.3968694,16.215641,15.994881,2.9812183,0.33130342,0.23893969,0.16031711,0.10418432,inf,inf,inf,inf,1,1,1,1,2,0,2,2,1,1,0
1082527214,40023207,32.3873805,-117.07638700000001,6.4732184,-0.2601732,-18.867764,-0.00497199,-0.019541295,0.0,0.1793564,-0.0435157,-2.9246233,-2.7977192,-0.07570497,0.020968163,0.11818779,-1.075863,2.6208344,0.8811284,0.39726013,16.215641,16.286787,2.9246233,0.3203462,0.2374357,0.15574835,0.10345915,inf,inf,inf,inf,1,1,1,1,2,0,2,2,1,1,0
1082631218,40023207,32.3873805,-117.07638700000001,6.480429,-0.25504768,-19.156261,-0.00497199,-0.019541295,0.0,0.1841635,-0.055530608,-2.9383717,-2.8107939,-0.07570497,0.020968163,0.11818779,-1.4322919,-0.83500284,-2.265246,0.39776573,16.215641,16.575285,2.9383717,0.33266476,0.23894653,0.16027291,0.10419044,inf,inf,inf,inf,1,1,1,1,2,0,2,2,1,1,0
1082728000,40023207,32.3873805,-117.07638700000001,6.489372,-0.252772,-19.42762,-0.00497199,-0.019541295,0.0,0.19208683,-0.05180712,-2.938522,-2.8120341,-0.07570497,0.020968163,0.11818779,-1.5522537,-0.16553842,-2.4700387,0.3973,16.215641,16.846643,2.938522,0.32048905,0.23680253,0.15510629,0.10329107,inf,inf,inf,inf,1,1,1,1,2,0,2,2,1,1,0
1082832025,40023207,32.3873805,-117.07638700000001,6.4914656,-0.25152072,-19.725027,-0.00497199,-0.019541295,0.0,0.1751395,-0.050282225,-2.9159546,-2.7970035,-0.07570497,0.020968163,0.11818779,0.78730947,-0.9344972,-0.2380312,0.39714327,16.215641,17.14405,2.9159546,0.33275294,0.23834474,0.15972151,0.10403993,inf,inf,inf,inf,1,1,1,1,2,0,2,2,1,1,0
1082936000,40023207,32.3873805,-117.07638700000001,6.495921,-0.25145027,-20.023113,-0.00497199,-0.019541295,0.0,0.16809098,-0.06332485,-2.9374335,-2.82564,-0.07570497,0.020968163,0.11818779,-0.33028737,1.9314965,1.0056634,0.39671472,16.215641,17.442137,2.9374335,0.32161272,0.23693712,0.15526405,0.10335827,inf,inf,inf,inf,1,1,1,1,2,0,2,2,1,1,0
1083036835,40023207,32.3873805,-117.07638700000001,6.4999084,-0.25102162,-20.312523,-0.00497199,-0.019541295,0.0,0.16616371,-0.06857674,-2.901455,-2.797101,-0.07570497,0.020968163,0.11818779,2.3228981,1.2869476,2.3213181,0.39692938,16.215641,17.731546,2.901455,0.33389193,0.23682576,0.15982237,0.10368304,inf,inf,inf,inf,1,1,1,1,2,0,2,2,1,1,0
1083132840,40023207,32.3873805,-117.07638700000001,6.507681,-0.25321046,-20.586931,-0.00497199,-0.019541295,0.0,0.14701253,-0.066758364,-2.8627114,-2.7668986,-0.07570497,0.020968163,0.11818779,-2.073291,-1.3418453,-0.90422505,0.3970731,16.215641,18.005955,2.8627114,0.32166886,0.23640643,0.15495184,0.10323832,inf,inf,inf,inf,1,1,1,1,2,0,2,2,1,1,0
1083236836,40023207,32.3873805,-117.07638700000001,6.5190015,-0.25875148,-20.883528,-0.00497199,-0.019541295,0.0,0.15699151,-0.07461499,-2.8693364,-2.782319,-0.07570497,0.020968163,0.11818779,-0.26172304,-0.24267139,1.5729481,0.39690518,16.215641,18.302551,2.8693364,0.33352554,0.23766528,0.15920496,0.103944734,inf,inf,inf,inf,1,1,1,1,2,0,2,2,1,1,0
1083341638,40023207,32.3873805,-117.07638700000001,6.530123,-0.26491195,-21.181095,-0.00497199,-0.019541295,0.0,0.14676043,-0.06847557,-2.8256207,-2.747094,-0.07570497,0.020968163,0.11818779,-0.27437726,-0.17969583,0.23925333,0.39710882,16.215641,18.600119,2.8256207,0.32216424,0.23786643,0.15460932,0.103678055,inf,inf,inf,inf,1,1,1,1,2,0,2,2,1,1,0
1083437587,40023207,32.3873805,-117.07638700000001,6.5382843,-0.27148986,-21.44902,-0.00497199,-0.019541295,0.0,0.14897433,-0.08031977,-2.8416376,-2.7670906,-0.07570497,0.020968163,0.11818779,4.2045054,-0.090355545,2.2977734,0.39696234,16.215641,18.868044,2.8416376,0.33342522,0.23711258,0.15876976,0.103805564,inf,inf,inf,inf,1,1,1,1,2,0,2,2,1,1,0
1083541622,40023207,32.3873805,-117.07638700000001,6.5477066,-0.28010824,-21.738947,-0.00497199,-0.019541295,0.0,0.13900822,-0.073100105,-2.8137171,-2.7427301,-0.07570497,0.020968163,0.11818779,0.08687315,0.886369,-0.69486254,0.3971603,16.215641,19.15797,2.8137171,0.3222625,0.23741369,0.15430874,0.10356551,inf,inf,inf,inf,1,1,1,1,2,0,2,2,1,1,0
1083646453,40023207,32.3873805,-117.07638700000001,6.5575852,-0.2888778,-22.030916,-0.00497199,-0.019541295,0.0,0.14146896,-0.062778816,-2.7773914,-2.7136352,-0.07570497,0.020968163,0.11818779,-0.4540096,0.70852065,0.24256468,0.39747378,16.215641,19.44994,2.7773914,0.33445626,0.23730297,0.15889789,0.103886,inf,inf,inf,inf,1,1,1,1,2,0,2,2,1,1,0
1083742395,40023207,32.3873805,-117.07638700000001,6.567887,-0.29613155,-22.298115,-0.00497199,-0.019541295,0.0,0.14292799,-0.041466746,-2.7491138,-2.693645,-0.07570497,0.020968163,0.11818779,-0.53620076,1.7347267,-1.0878873,0.39816192,16.215641,19.717138,2.7491138,0.32201988,0.23689772,0.15390174,0.10343914,inf,inf,inf,inf,1,1,1,1,2,0,2,2,1,1,0
1083846389,40023207,32.3873805,-117.07638700000001,6.5764413,-0.3044805,-22.587233,-0.00497199,-0.019541295,0.0,0.10959325,-0.039492976,-2.7490625,-2.7023492,-0.07570497,0.020968163,0.11818779,-1.3123565,-2.6947315,-1.9635512,0.39856008,16.215641,20.006256,2.7490625,0.33425614,0.23684911,0.1584494,0.103766665,inf,inf,inf,inf,1,1,1,1,2,0,2,2,1,1,0
1083951223,40023207,32.3873805,-117.07638700000001,6.582234,-0.31263843,-22.879704,-0.00497199,-0.019541295,0.0,0.096302055,-0.03533477,-2.7872808,-2.7474258,-0.07570497,0.020968163,0.11818779,-0.2068538,1.0185109,-0.5958492,0.39887562,16.215641,20.298727,2.7872808,0.32292467,0.23707813,0.15404698,0.10351401,inf,inf,inf,inf,1,1,1,1,2,0,2,2,1,1,0
1084047218,40023207,32.3873805,-117.07638700000001,6.585503,-0.31994134,-23.148232,-0.00497199,-0.019541295,0.0,0.08495124,-0.03429313,-2.7709837,-2.7368126,-0.07570497,0.020968163,0.11818779,1.6207925,0.40654588,1.9359487,0.39882407,16.215641,20.567255,2.7709837,0.33413064,0.23802821,0.15829957,0.10408105,inf,inf,inf,inf,1,1,1,1,2,0,2,2,1,1,0
1084151203,40023207,32.3873805,-117.07638700000001,6.5886393,-0.32797968,-23.440405,-0.00497199,-0.019541295,0.0,0.06750632,-0.033118233,-2.7914867,-2.7622497,-0.07570497,0.020968163,0.11818779,-0.08453719,0.29113486,-0.107957266,0.399031,16.215641,20.859428,2.7914867,0.32289484,0.23667471,0.15410377,0.10341714,inf,inf,inf,inf,1,1,1,1,2,0,2,2,1,1,0
1084255218,40023207,32.3873805,-117.07638700000001,6.5929046,-0.3368456,-23.73433,-0.00497199,-0.019541295,0.0,0.061764248,-0.04599153,-2.8325486,-2.8062756,-0.07570497,0.020968163,0.11818779,-3.274368,0.55179685,-1.6739758,0.39888775,16.215641,21.153353,2.8325486,0.3350528,0.2366067,0.15878272,0.1037454,inf,inf,inf,inf,1,1,1,1,2,0,2,2,1,1,0
1084355997,40023207,32.3873805,-117.07638700000001,6.5986624,-0.34713972,-24.021795,-0.00497199,-0.019541295,0.0,0.08207696,-0.04197799,-2.8256094,-2.8038228,-0.07570497,0.020968163,0.11818779,1.9109868,-0.39184847,1.4854891,0.3993604,16.215641,21.440819,2.8256094,0.3236456,0.23689054,0.15456489,0.103517175,inf,inf,inf,inf,1,1,1,1,2,0,2,2,1,1,0
1084451990,40023207,32.3873805,-117.07638700000001,6.6063046,-0.3569247,-24.293795,-0.00497199,-0.019541295,0.0,0.092066966,-0.03308136,-2.8271897,-2.8071804,-0.07570497,0.020968163,0.11818779,-1.7943197,0.67574644,-0.40457276,0.3995008,16.215641,21.712818,2.8271897,0.3344984,0.23596074,0.15865894,0.10364291,inf,inf,inf,inf,1,1,1,1,2,0,2,2,1,1,0
1084556003,40023207,32.3873805,-117.07638700000001,6.6125574,-0.3664993,-24.586937,-0.00497199,-0.019541295,0.0,0.07754365,-0.024525572,-2.7842832,-2.767818,-0.07570497,0.020968163,0.11818779,-0.83749235,1.0929449,-1.8602469,0.3994866,16.215641,22.00596,2.7842832,0.32302204,0.23626389,0.15432791,0.10341668,inf,inf,inf,inf,1,1,1,1,2,0,2,2,1,1,0
1084660915,40023207,32.3873805,-117.07638700000001,6.6162577,-0.37580708,-24.879316,-0.00497199,-0.019541295,0.0,0.06569693,-0.015636746,-2.7862074,-2.7716687,-0.07570497,0.020968163,0.11818779,-0.9359625,0.50927025,-0.76938885,0.39978027,16.215641,22.29834,2.7862074,0.33517557,0.2362589,0.15884385,0.103767194,inf,inf,inf,inf,1,1,1,1,2,0,2,2,1,1,0
1084756821,40023207,32.3873805,-117.07638700000001,6.6189566,-0.3847145,-25.14765,-0.00497199,-0.019541295,0.0,0.083322786,-0.008544834,-2.766535,-2.7547727,-0.07570497,0.020968163,0.11818779,2.0814636,1.6680958,1.4942454,0.39966616,16.215641,22.566673,2.766535,0.32276505,0.23602054,0.15403287,0.10336622,inf,inf,inf,inf,1,1,1,1,2,0,2,2,1,1,0
1084861615,40023207,32.3873805,-117.07638700000001,6.622327,-0.3955736,-25.442627,-0.00497199,-0.019541295,0.0,0.08656901,-0.016650079,-2.8117926,-2.8024552,-0.07570497,0.020968163,0.11818779,1.7075558,-2.6547985,0.1164525,0.39978755,16.215641,22.86165,2.8117926,0.33488792,0.2360438,0.15866476,0.10372527,inf,inf,inf,inf,1,1,1,1,2,0,2,2,1,1,0
1084965652,40023207,32.3873805,-117.07638700000001,6.6280513,-0.4053376,-25.738724,-0.00497199,-0.019541295,0.0,0.09199654,-0.00842493,-2.8314645,-2.8250782,-0.07570497,0.020968163,0.11818779,3.0769358,-0.15662071,4.711792,0.39981854,16.215641,23.157747,2.8314645,0.32329196,0.23636535,0.15435554,0.10350138,inf,inf,inf,inf,1,1,1,1,2,0,2,2,1,1,0
1085061598,40023207,32.3873805,-117.07638700000001,6.6337576,-0.41307214,-26.010908,-0.00497199,-0.019541295,0.0,0.067870826,0.00032208138,-2.8305726,-2.8246343,-0.07570497,0.020968163,0.11818779,-0.13114412,-1.5344919,0.8428996,0.39974335,16.215641,23.429932,2.8305726,0.33458272,0.23740858,0.1587029,0.104076855,inf,inf,inf,inf,1,1,1,1,2,0,2,2,1,1,0
1085165614,40023207,32.3873805,-117.07638700000001,6.640216,-0.42056227,-26.30601,-0.00497199,-0.019541295,0.0,0.078181036,0.0132249445,-2.836607,-2.831293,-0.07570497,0.020968163,0.11818779,0.4515205,1.6385089,0.30059975,0.3997477,16.215641,23.725033,2.836607,0.32314453,0.23601192,0.15457208,0.10339789,inf,inf,inf,inf,1,1,1,1,2,0,2,2,1,1,0
1085270380,40023207,32.3873805,-117.07638700000001,6.648113,-0.42631662,-26.607008,-0.00497199,-0.019541295,0.0,0.08022852,0.023915812,-2.8507416,-2.8471053,-0.07570497,0.020968163,0.11818779,-1.1253642,-1.0869157,-0.024284314,0.39957872,16.215641,24.026031,2.8507416,0.33529407,0.23761529,0.1591574,0.104146786,inf,inf,inf,inf,1,1,1,1,2,0,2,2,1,1,0
1085366400,40023207,32.3873805,-117.07638700000001,6.658553,-0.43305963,-26.886942,-0.00497199,-0.019541295,0.0,0.074890934,0.03262807,-2.8340042,-2.8364043,-0.07570497,0.020968163,0.11818779,-0.8692466,1.4151434,1.6526597,0.39938873,16.215641,24.305965,2.8340042,0.3228411,0.23725079,0.15459676,0.10371079,inf,inf,inf,inf,1,1,1,1,2,0,2,2,1,1,0
1085470402,40023207,32.3873805,-117.07638700000001,6.671447,-0.4400168,-27.188538,-0.00497199,-0.019541295,0.0,0.08017335,0.04044494,-2.8149176,-2.823423,-0.07570497,0.020968163,0.11818779,0.3032994,1.098575,2.0841851,0.39909485,16.215641,24.607561,2.8149176,0.335082,0.23889883,0.15922576,0.10445947,inf,inf,inf,inf,1,1,1,1,2,0,2,2,1,1,0
1085575218,40023207,32.3873805,-117.07638700000001,6.683607,-0.4468989,-27.488478,-0.00497199,-0.019541295,0.0,0.062284,0.05202409,-2.7942834,-2.8074555,-0.07570497,0.020968163,0.11818779,-0.8702512,0.17539655,-0.9108754,0.3988761,16.215641,24.907501,2.7942834,0.32352522,0.23739626,0.15488172,0.103738,inf,inf,inf,inf,1,1,1,1,2,0,2,2,1,1,0
1085671214,40023207,32.3873805,-117.07638700000001,6.6939073,-0.45144305,-27.759785,-0.00497199,-0.019541295,0.0,0.06791886,0.06094207,-2.7894409,-2.8045762,-0.07570497,0.020968163,0.11818779,-1.2290181,-1.1180282,-3.5398574,0.39867845,16.215641,25.178808,2.7894409,0.33474496,0.23995247,0.15902893,0.104687676,inf,inf,inf,inf,1,1,1,1,2,0,2,2,1,1,0
1085775214,40023207,32.3873805,-117.07638700000001,6.705472,-0.45782283,-28.053055,-0.00497199,-0.019541295,0.0,0.07457987,0.07767673,-2.7677314,-2.7841616,-0.07570497,0.020968163,0.11818779,2.7127876,2.8109708,3.1620448,0.39847815,16.215641,25.472078,2.7677314,0.32327023,0.24011141,0.15469795,0.10437311,inf,inf,inf,inf,1,1,1,1,2,0,2,2,1,1,0
1085876017,40023207,32.3873805,-117.07638700000001,6.714931,-0.463086,-28.336351,-0.00497199,-0.019541295,0.0,0.036458462,0.081505105,-2.8017957,-2.8183591,-0.07570497,0.020968163,0.11818779,-0.7151867,1.1000564,-0.6087467,0.3981738,16.215641,25.755375,2.8017957,0.335433,0.23983108,0.15935585,0.10460895,inf,inf,inf,inf,1,1,1,1,2,0,2,2,1,1,0
1085979998,40023207,32.3873805,-117.07638700000001,6.736633,-0.47324547,-28.631514,-0.00497199,-0.019541295,0.0,0.033703808,0.078422055,-2.8135674,-2.8306766,-0.07570497,0.020968163,0.11818779,-0.05062153,-0.49178898,-2.6455557,0.397923,16.215641,26.050537,2.8135674,0.324036,0.23821896,0.15507692,0.10385579,inf,inf,inf,inf,1,1,1,1,2,0,2,2,1,1,0
1086076001,40023207,32.3873805,-117.07638700000001,6.757402,-0.4809698,-28.905409,-0.00497199,-0.019541295,0.0,0.020886082,0.07773918,-2.8446743,-2.8618274,-0.07570497,0.020968163,0.11818779,-0.32610703,-0.5297005,0.015865548,0.3975626,16.215641,26.324432,2.8446743,0.3349043,0.23881827,0.15938458,0.104344755,inf,inf,inf,inf,1,1,1,1,2,0,2,2,1,1,0
1086179995,40023207,32.3873805,-117.07638700000001,6.778664,-0.49203336,-29.207605,-0.00497199,-0.019541295,0.0,0.027368715,0.06446988,-2.8959951,-2.9154217,-0.07570497,0.020968163,0.11818779,-1.3963617,1.7464634,-2.1045206,0.39667505,16.215641,26.626629,2.8959951,0.323897,0.23897032,0.15525904,0.10405764,inf,inf,inf,inf,1,1,1,1,2,0,2,2,1,1,0
1086284796,40023207,32.3873805,-117.07638700000001,6.7958426,-0.50118774,-29.517769,-0.00497199,-0.019541295,0.0,0.028396435,0.05996678,-2.9066906,-2.9293253,-0.07570497,0.020968163,0.11818779,0.16005032,-0.55005205,-0.2960879,0.3967425,16.215641,26.936792,2.9066906,0.33611673,0.2404668,0.16003817,0.10476292,inf,inf,inf,inf,1,1,1,1,2,0,2,2,1,1,0
1086380852,40023207,32.3873805,-117.07638700000001,6.810218,-0.50963306,-29.801495,-0.00497199,-0.019541295,0.0,0.017119622,0.069156215,-2.8757987,-2.901669,-0.07570497,0.020968163,0.11818779,-0.65070516,-1.3011795,-1.5717862,0.39721802,16.215641,27.220518,2.8757987,0.3245383,0.23826517,0.15578644,0.10382267,inf,inf,inf,inf,1,1,1,1,2,0,2,2,1,1,0
1086484810,40023207,32.3873805,-117.07638700000001,6.8230143,-0.51506,-30.103685,-0.00497199,-0.019541295,0.0,0.01578398,0.09065198,-2.8274305,-2.8544025,-0.07570497,0.020968163,0.11818779,1.8499312,0.861068,1.7066212,0.39820075,16.215641,27.522709,2.8274305,0.33679888,0.23974621,0.16045694,0.10452758,inf,inf,inf,inf,1,1,1,1,2,0,2,2,1,1,0
1086589664,40023207,32.3873805,-117.07638700000001,6.8360715,-0.5189724,-30.40452,-0.00497199,-0.019541295,0.0,0.0036498304,0.10339727,-2.8073297,-2.8355596,-0.07570497,0.020968163,0.11818779,-2.4913232,1.0700253,-1.4060674,0.39860937,16.215641,27.823544,2.8073297,0.32632443,0.23983152,0.1562585,0.10421556,inf,inf,inf,inf,1,1,1,1,2,0,2,2,1,1,0
1086685596,40023207,32.3873805,-117.07638700000001,6.845047,-0.5192834,-30.680716,-0.00497199,-0.019541295,0.0,-0.0067810263,0.1190894,-2.7800715,-2.8115838,-0.07570497,0.020968163,0.11818779,0.91519856,1.2834445,3.4780953,0.39890987,16.215641,28.09974,2.7800715,0.33777535,0.24067627,0.16044496,0.10471322,inf,inf,inf,inf,1,1,1,1,2,0,2,2,1,1,0
1086789633,40023207,32.3873805,-117.07638700000001,6.852039,-0.51802045,-30.976095,-0.00497199,-0.019541295,0.0,-0.035832796,0.13598342,-2.7807157,-2.8132875,-0.07570497,0.020968163,0.11818779,-0.42618057,-0.68815374,1.4792807,0.39898312,16.215641,28.395119,2.7807157,0.32777798,0.23901212,0.15647015,0.103958234,inf,inf,inf,inf,1,1,1,1,2,0,2,2,1,1,0
1086894390,40023207,32.3873805,-117.07638700000001,6.8556104,-0.5114772,-31.27178,-0.00497199,-0.019541295,0.0,-0.047216393,0.15867493,-2.7473025,-2.7814746,-0.07570497,0.020968163,0.11818779,0.17234485,1.6025739,0.70841825,0.39867312,16.215641,28.690804,2.7473025,0.34014744,0.24042846,0.16109978,0.10464005,inf,inf,inf,inf,1,1,1,1,2,0,2,2,1,1,0
1086990399,40023207,32.3873805,-117.07638700000001,6.857993,-0.5083302,-31.539547,-0.00497199,-0.019541295,0.0,-0.07027253,0.16881676,-2.7139606,-2.75005,-0.07570497,0.020968163,0.11818779,-0.02560796,-1.2248161,-0.6321912,0.3986777,16.215641,28.95857,2.7139606,0.32926625,0.23983623,0.1567636,0.10413697,inf,inf,inf,inf,1,1,1,1,2,0,2,2,1,1,0
1087094399,40023207,32.3873805,-117.07638700000001,6.855736,-0.50150114,-31.828415,-0.00497199,-0.019541295,0.0,-0.1030256,0.16895695,-2.7625597,-2.7982256,-0.07570497,0.020968163,0.11818779,0.14144608,0.6508831,-0.8675251,0.3983624,16.215641,29.247438,2.7625597,0.34177235,0.23961887,0.16130976,0.10439823,inf,inf,inf,inf,1,1,1,1,2,0,2,2,1,1,0
1087199211,40023207,32.3873805,-117.07638700000001,6.8524323,-0.49789357,-32.125504,-0.00497199,-0.019541295,0.0,-0.11658076,0.1619837,-2.7655742,-2.8044317,-0.07570497,0.020968163,0.11818779,-2.2006774,0.10227508,-1.7090234,0.39774415,16.215641,29.544527,2.7655742,0.33193484,0.23972785,0.15738823,0.10411285,inf,inf,inf,inf,1,1,1,1,2,0,2,2,1,1,0
1087295226,40023207,32.3873805,-117.07638700000001,6.847696,-0.49316302,-32.40114,-0.00497199,-0.019541295,0.0,-0.11241531,0.1447919,-2.8262393,-2.8687754,-0.07570497,0.020968163,0.11818779,-3.121052,0.3375907,-3.6379786,0.39694273,16.215641,29.820162,2.8262393,0.34345883,0.24051999,0.1618537,0.104616776,inf,inf,inf,inf,1,1,1,1,2,0,2,2,1,1,0
1087399205,40023207,32.3873805,-117.07638700000001,6.8421707,-0.4898379,-32.700916,-0.00497199,-0.019541295,0.0,-0.10468215,0.13722825,-2.8365269,-2.8796475,-0.07570497,0.020968163,0.11818779,1.6024507,0.42733094,1.1072485,0.39633524,16.215641,30.11994,2.8365269,0.33361226,0.23891968,0.15790173,0.103872836,inf,inf,inf,inf,1,1,1,1,2,0,2,2,1,1,0
1087503997,40023207,32.3873805,-117.07638700000001,6.835386,-0.48428562,-33.001163,-0.00497199,-0.019541295,0.0,-0.1101374,0.143777,-2.8281624,-2.8689601,-0.07570497,0.020968163,0.11818779,-0.79279953,1.2795126,0.75099474,0.39579538,16.215641,30.420187,2.8281624,0.3461738,0.24033047,0.16279875,0.10455867,inf,inf,inf,inf,1,1,1,1,2,0,2,2,1,1,0
1087600005,40023207,32.3873805,-117.07638700000001,6.8313117,-0.48002625,-33.273884,-0.00497199,-0.019541295,0.0,-0.10180939,0.13301785,-2.8217955,-2.8592238,-0.07570497,0.020968163,0.11818779,4.3094697,0.7255419,3.8564374,0.39540407,16.215641,30.692907,2.8217955,0.33512938,0.23971222,0.158449,0.104048826,inf,inf,inf,inf,1,1,1,1,2,0,2,2,1,1,0
1087704038,40023207,32.3873805,-117.07638700000001,6.825759,-0.47283545,-33.566826,-0.00497199,-0.019541295,0.0,-0.11169866,0.13637155,-2.818326,-2.8524737,-0.07570497,0.020968163,0.11818779,-0.61368716,1.1202047,-3.0422032,0.39544722,16.215641,30.98585,2.818326,0.34782752,0.23945919,0.16314957,0.10429908,inf,inf,inf,inf,1,1,1,1,2,0,2,2,1,1,0
1087804818,40023207,32.3873805,-117.07638700000001,6.8135757,-0.46351758,-33.85797,-0.00497199,-0.019541295,0.0,-0.107064486,0.12977602,-2.825737,-2.862708,-0.07570497,0.020968163,0.11818779,0.7764511,-0.32484972,2.092509,0.3960817,16.215641,31.276995,2.825737,0.33760685,0.23952799,0.15887491,0.10400436,inf,inf,inf,inf,1,1,1,1,2,0,2,2,1,1,0
1087908820,40023207,32.3873805,-117.07638700000001,6.7998147,-0.45247814,-34.15791,-0.00497199,-0.019541295,0.0,-0.11547917,0.1183195,-2.8702087,-2.906229,-0.07570497,0.020968163,0.11818779,-0.7834448,-0.6475915,-2.0974073,0.3968354,16.215641,31.576933,2.8702087,0.35027394,0.24092045,0.16364242,0.10468348,inf,inf,inf,inf,1,1,1,1,2,0,2,2,1,1,0
1088004813,40023207,32.3873805,-117.07638700000001,6.784773,-0.44619802,-34.440376,-0.00497199,-0.019541295,0.0,-0.11869477,0.12796174,-2.8424501,-2.8828583,-0.07570497,0.020968163,0.11818779,-1.1986231,0.8132428,-1.5689762,0.39794624,16.215641,31.8594,2.8424501,0.3386961,0.24003577,0.15919557,0.10415196,inf,inf,inf,inf,1,1,1,1,2,0,2,2,1,1,0
1088109616,40023207,32.3873805,-117.07638700000001,6.770341,-0.43675485,-34.74161,-0.00497199,-0.019541295,0.0,-0.09981065,0.1267943,-2.8469968,-2.8855424,-0.07570497,0.020968163,0.11818779,0.1108119,-1.5837568,-1.5861007,0.39817712,16.215641,32.160637,2.8469968,0.35138443,0.241437,0.16395374,0.10483684,inf,inf,inf,inf,1,1,1,1,2,0,2,2,1,1,0
1088213694,40023207,32.3873805,-117.07638700000001,6.7551074,-0.4326836,-35.039696,-0.00497199,-0.019541295,0.0,-0.09999176,0.11863585,-2.8404138,-2.8764052,-0.07570497,0.020968163,0.11818779,2.0536766,-1.0837743,2.0585933,0.39778242,16.215641,32.45872,2.8404138,0.3411425,0.2414042,0.15978342,0.10450307,inf,inf,inf,inf,1,1,1,1,2,0,2,2,1,1,0
1088309606,40023207,32.3873805,-117.07638700000001,6.742072,-0.42667785,-35.312344,-0.00497199,-0.019541295,0.0,-0.10827954,0.120697215,-2.8245502,-2.8578985,-0.07570497,0.020968163,0.11818779,-1.201261,-0.7588006,-1.7911646,0.39642063,16.215641,32.73137,2.8245502,0.35299748,0.24042039,0.1641453,0.10453514,inf,inf,inf,inf,1,1,1,1,2,0,2,2,1,1,0
1088413666,40023207,32.3873805,-117.07638700000001,6.7320867,-0.42341164,-35.60399,-0.00497199,-0.019541295,0.0,-0.10006527,0.12582976,-2.801671,-2.8305871,-0.07570497,0.020968163,0.11818779,0.503336,2.2149339,1.0869222,0.39515188,16.215641,33.023014,2.801671,0.34257674,0.24041277,0.15993512,0.10421193,inf,inf,inf,inf,1,1,1,1,2,0,2,2,1,1,0
1088518402,40023207,32.3873805,-117.07638700000001,6.722345,-0.4176371,-35.898537,-0.00497199,-0.019541295,0.0,-0.092415735,0.11589173,-2.8309903,-2.8565876,-0.07570497,0.020968163,0.11818779,-0.73386514,0.36568356,-1.8832189,0.39485535,16.215641,33.317562,2.8309903,0.35534704,0.24005868,0.16456962,0.10444796,inf,inf,inf,inf,1,1,1,1,2,0,2,2,1,1,0
1088614389,40023207,32.3873805,-117.07638700000001,6.7116995,-0.4158654,-36.17305,-0.00497199,-0.019541295,0.0,-0.06316316,0.10435029,-2.8432925,-2.8677585,-0.07570497,0.020968163,0.11818779,1.4054549,0.5908624,1.4754038,0.39517236,16.215641,33.592075,2.8432925,0.34394023,0.23951149,0.16002439,0.10396311,inf,inf,inf,inf,1,1,1,1,2,0,2,2,1,1,0
1088718408,40023207,32.3873805,-117.07638700000001,6.7024016,-0.411478,-36.471317,-0.00497199,-0.019541295,0.0,-0.055768184,0.10453849,-2.834623,-2.8578155,-0.07570497,0.020968163,0.11818779,1.3816656,-0.6971651,-0.39093572,0.39648998,16.215641,33.890343,2.834623,0.35672718,0.24091232,0.16489616,0.10465517,inf,inf,inf,inf,1,1,1,1,2,0,2,2,1,1,0
1088823231,40023207,32.3873805,-117.07638700000001,6.6950707,-0.4104768,-36.769737,-0.00497199,-0.019541295,0.0,-0.060525782,0.098862134,-2.840756,-2.8623674,-0.07570497,0.020968163,0.11818779,1.9822544,0.20190226,-0.5867206,0.3982255,16.215641,34.188763,2.840756,0.34615013,0.24093638,0.16078074,0.1043512,inf,inf,inf,inf,1,1,1,1,2,0,2,2,1,1,0
1088919206,40023207,32.3873805,-117.07638700000001,6.68938,-0.40755245,-37.043114,-0.00497199,-0.019541295,0.0,-0.052179355,0.09220522,-2.8772228,-2.8963866,-0.07570497,0.020968163,0.11818779,-1.5195974,-0.6590485,-2.8724327,0.39907184,16.215641,34.46214,2.8772228,0.35808897,0.24171962,0.16501391,0.10484691,inf,inf,inf,inf,1,1,1,1,2,0,2,2,1,1,0
1089023189,40023207,32.3873805,-117.07638700000001,6.6836,-0.40950125,-37.344315,-0.00497199,-0.019541295,0.0,-0.03803316,0.09501363,-2.8689618,-2.8877318,-0.07570497,0.020968163,0.11818779,2.1523228,2.2491646,2.5330627,0.3995262,16.215641,34.76334,2.8689618,0.34732312,0.2399291,0.16079865,0.10406384,inf,inf,inf,inf,1,1,1,1,2,0,2,2,1,1,0
1089127997,40023207,32.3873805,-117.07638700000001,6.6771965,-0.40896964,-37.64811,-0.00497199,-0.019541295,0.0,-0.052267704,0.07952049,-2.908612,-2.9258657,-0.07570497,0.020968163,0.11818779,-1.1566889,-2.614473,-0.49318257,0.39997208,16.215641,35.067135,2.908612,0.3371574,0.23986103,0.15684663,0.10370875,inf,inf,inf,inf,1,1,1,1,2,0,2,2,1,1,0
1089224016,40023207,32.3873805,-117.07638700000001,6.66757,-0.4111198,-37.92823,-0.00497199,-0.019541295,0.0,-0.040915217,0.07460826,-2.9242089,-2.9398687,-0.07570497,0.020968163,0.11818779,0.21867357,-0.04550339,-1.484144,0.3997405,16.215641,35.347256,2.9242089,0.34851512,0.24050274,0.16114797,0.10418011,inf,inf,inf,inf,1,1,1,1,2,0,2,2,1,1,0
1089328026,40023207,32.3873805,-117.07638700000001,6.660062,-0.41237545,-38.23151,-0.00497199,-0.019541295,0.0,-0.03130132,0.07709552,-2.9203622,-2.9345431,-0.07570497,0.020968163,0.11818779,-0.3238097,-0.23380402,-0.60465,0.39989546,16.215641,35.650536,2.9203622,0.3385811,0.24048422,0.15718836,0.10383533,inf,inf,inf,inf,1,1,1,1,2,0,2,2,1,1,0
1089432823,40023207,32.3873805,-117.07638700000001,6.6537905,-0.4172808,-38.537296,-0.00497199,-0.019541295,0.0,-0.007967232,0.06473175,-2.946044,-2.9579813,-0.07570497,0.020968163,0.11818779,0.9392178,1.271769,0.24179731,0.39933854,16.215641,35.95632,2.946044,0.35094172,0.24175602,0.16187932,0.10449394,inf,inf,inf,inf,1,1,1,1,2,0,2,2,1,1,0
1089528791,40023207,32.3873805,-117.07638700000001,6.649945,-0.41959596,-38.817356,-0.00497199,-0.019541295,0.0,-0.011130208,0.05973663,-2.9358115,-2.9431448,-0.07570497,0.020968163,0.11818779,-1.4973798,-0.39406753,0.8325753,0.39913622,16.215641,36.23638,2.9358115,0.3628698,0.24064836,0.16626918,0.10450685,inf,inf,inf,inf,1,1,1,1,2,0,2,2,1,1,0
1089632805,40023207,32.3873805,-117.07638700000001,6.648797,-0.42481732,-39.1186,-0.00497199,-0.019541295,0.0,-0.008046439,0.06763678,-2.897035,-2.9016693,-0.07570497,0.020968163,0.11818779,0.75616616,-1.9923928,0.35486588,0.39967752,16.215641,36.537624,2.897035,0.35201517,0.24066775,0.16216423,0.10419048,inf,inf,inf,inf,1,1,1,1,2,0,2,2,1,1,0
1089737640,40023207,32.3873805,-117.07638700000001,6.6479993,-0.4249716,-39.416824,-0.00497199,-0.019541295,0.0,0.007266434,0.08716219,-2.9000564,-2.899201,-0.07570497,0.020968163,0.11818779,-0.30624536,0.12926282,0.9976925,0.40024707,16.215641,36.83585,2.9000564,0.3414432,0.24056831,0.15775731,0.10382763,inf,inf,inf,inf,1,1,1,1,2,0,2,2,1,1,0
1089841591,40023207,32.3873805,-117.07638700000001,6.648323,-0.42372847,-39.709076,-0.00497199,-0.019541295,0.0,0.022398489,0.096861996,-2.9054697,-2.8956087,-0.07570497,0.020968163,0.11818779,-2.6257482,-0.6221547,0.41076574,0.400163,16.215641,37.1281,2.9054697,0.35383534,0.24184814,0.16225043,0.10449392,inf,inf,inf,inf,1,1,1,1,2,0,2,2,1,1,0
1089937587,40023207,32.3873805,-117.07638700000001,6.6490827,-0.42053542,-39.980587,-0.00497199,-0.019541295,0.0,0.033449043,0.11392009,-2.9065683,-2.89147,-0.07570497,0.020968163,0.11818779,-2.5407677,1.0090225,-0.89937985,0.4000834,16.215641,37.399612,2.9065683,0.342441,0.23946379,0.15783988,0.10353086,inf,inf,inf,inf,1,1,1,1,2,0,2,2,1,1,0
1090038429,40023207,32.3873805,-117.07638700000001,6.6460457,-0.41951144,-40.268394,-0.00497199,-0.019541295,0.0,0.031429164,0.117945366,-2.912249,-2.8932495,-0.07570497,0.020968163,0.11818779,3.103614,1.2066821,1.7277062,0.3998879,16.215641,37.68742,2.912249,0.3548399,0.24078903,0.1624704,0.10422485,inf,inf,inf,inf,1,1,1,1,2,0,2,2,1,1,0
