timestamp,baro_alt_meter,baro_temp_celcius,baro_pressure_pa,rho
751580771,-16.720598,27.55,101525.99,1.2062967
751602771,-17.217354,27.55,101532.0,1.2063681
751615191,-16.720598,27.55,101525.99,1.2062967
751624856,-16.636044,27.55,101525.0,1.206285
751646834,-16.805153,27.55,101526.99,1.2063086
751658633,-16.720598,27.55,101525.99,1.2062967
751670651,-16.968977,27.55,101529.0,1.2063324
751692771,-16.805153,27.55,101526.99,1.2063086
751704325,-17.217354,27.55,101532.0,1.2063681
751714159,-16.968977,27.55,101529.0,1.2063324
751736765,-17.217354,27.55,101532.0,1.2063681
751748403,-16.968977,27.55,101529.0,1.2063324
751759616,-17.138084,27.55,101531.0,1.2063563
751781792,-17.05353,27.55,101530.0,1.2063444
751793355,-16.720598,27.55,101525.99,1.2062967
751803874,-16.805153,27.55,101526.99,1.2063086
751826966,-17.05353,27.56,101530.0,1.2063444
751837355,-16.968977,27.56,101529.0,1.2063324
751847888,-17.138084,27.56,101531.0,1.2063563
751869770,-16.884422,27.56,101528.0,1.2063206
751881354,-16.805153,27.56,101526.99,1.2063086
751891878,-17.05353,27.56,101530.0,1.2063444
751914966,-17.05353,27.56,101530.0,1.2063444
751927116,-16.968977,27.56,101529.0,1.2063324
751937761,-16.303112,27.56,101521.0,1.2062374
751959886,-16.556774,27.56,101524.0,1.2062731
751971499,-16.223843,27.56,101519.99,1.2062254
751981767,-16.223843,27.56,101519.99,1.2062254
752004863,-16.139288,27.56,101519.0,1.2062137
752016322,-16.303112,27.56,101521.0,1.2062374
752026959,-15.806355,27.56,101515.0,1.2061661
752048794,-16.556774,27.57,101524.0,1.2062731
752060315,-15.642531,27.57,101513.0,1.2061424
752070761,-15.642531,27.57,101513.0,1.2061424
752091877,-14.892113,27.56,101504.0,1.2060354
752102334,-15.557978,27.56,101512.0,1.2061305
752112762,-15.3096,27.56,101509.0,1.2060949
752134760,-14.976667,27.57,101505.0,1.2060473
752146336,-14.892113,27.57,101504.0,1.2060354
752156871,-14.807559,27.57,101503.0,1.2060236
752179766,-15.89091,27.57,101516.0,1.2061781
752191928,-15.806355,27.57,101515.0,1.2061661
752202764,-15.642531,27.57,101513.0,1.2061424
752224762,-16.223843,27.57,101519.99,1.2062254
752236323,-16.054733,27.57,101518.0,1.2062018
752246760,-15.721801,27.57,101513.99,1.2061541
752268764,-16.387667,27.58,101522.0,1.2062494
752279978,-16.556774,27.58,101524.0,1.2062731
752290764,-16.556774,27.58,101524.0,1.2062731
752312762,-16.805153,27.58,101526.99,1.2063086
752324322,-17.217354,27.58,101532.0,1.2063681
752334769,-17.05353,27.58,101530.0,1.2063444
752356763,-16.720598,27.58,101525.99,1.2062967
752367967,-16.387667,27.58,101522.0,1.2062494
752378765,-16.054733,27.58,101518.0,1.2062018
752400762,-15.975464,27.58,101517.0,1.2061899
752412745,-16.387667,27.58,101522.0,1.2062494
752422806,-16.47222,27.58,101523.0,1.2062612
752444867,-16.968977,27.59,101529.0,1.2063324
752456324,-16.636044,27.59,101525.0,1.206285
752466761,-17.217354,27.59,101532.0,1.2063681
752488859,-16.303112,27.59,101521.0,1.2062374
752500724,-16.556774,27.59,101524.0,1.2062731
752512218,-16.556774,27.59,101524.0,1.2062731
752533779,-16.387667,27.59,101522.0,1.2062494
752545535,-16.387667,27.59,101522.0,1.2062494
752557171,-16.720598,27.59,101525.99,1.2062967
752577762,-16.805153,27.59,101526.99,1.2063086
752588785,-16.805153,27.59,101526.99,1.2063086
752600191,-16.303112,27.59,101521.0,1.2062374
752621800,-16.303112,27.59,101521.0,1.2062374
752633368,-16.054733,27.59,101518.0,1.2062018
752644907,-15.89091,27.59,101516.0,1.2061781
752666761,-16.636044,27.59,101525.0,1.206285
752677548,-16.47222,27.59,101523.0,1.2062612
752688769,-16.387667,27.59,101522.0,1.2062494
752710802,-16.556774,27.59,101524.0,1.2062731
752722336,-16.223843,27.59,101519.99,1.2062254
752733679,-16.303112,27.59,101521.0,1.2062374
752755777,-16.387667,27.599998,101522.0,1.2062494
752767317,-15.975464,27.599998,101517.0,1.2061899
752777777,-16.223843,27.599998,101519.99,1.2062254
752801040,-16.556774,27.599998,101524.0,1.2062731
752812388,-15.721801,27.599998,101513.99,1.2061541
752822761,-15.975464,27.599998,101517.0,1.2061899
752845716,-16.303112,27.599998,101521.0,1.2062374
752857392,-16.223843,27.599998,101519.99,1.2062254
752867761,-16.303112,27.599998,101521.0,1.2062374
752889785,-15.721801,27.599998,101513.99,1.2061541
752901515,-15.89091,27.599998,101516.0,1.2061781
752912993,-15.642531,27.599998,101513.0,1.2061424
752934762,-15.642531,27.599998,101513.0,1.2061424
752946340,-15.473423,27.599998,101511.0,1.2061186
752957732,-15.89091,27.599998,101516.0,1.2061781
752980472,-16.303112,27.599998,101521.0,1.2062374
752990678,-15.642531,27.599998,101513.0,1.2061424
753002635,-15.642531,27.599998,101513.0,1.2061424
753024769,-15.806355,27.599998,101515.0,1.2061661
753036329,-15.975464,27.599998,101517.0,1.2061899
753046776,-15.557978,27.599998,101512.0,1.2061305
753070148,-15.89091,27.609999,101516.0,1.2061781
753080407,-15.806355,27.609999,101515.0,1.2061661
753090852,-15.225045,27.609999,101507.99,1.2060828
753114771,-15.89091,27.609999,101516.0,1.2061781
753126705,-15.642531,27.609999,101513.0,1.2061424
753138578,-15.721801,27.609999,101513.99,1.2061541
753162714,-15.642531,27.609999,101513.0,1.2061424
753174671,-15.3096,27.609999,101509.0,1.2060949
753186648,-15.388869,27.609999,101510.0,1.2061068
753208761,-15.140491,27.609999,101507.0,1.206071
753220319,-15.721801,27.609999,101513.99,1.2061541
753230768,-15.721801,27.609999,101513.99,1.2061541
753254064,-15.3096,27.609999,101509.0,1.2060949
753264403,-14.976667,27.609999,101505.0,1.2060473
753275432,-15.140491,27.609999,101507.0,1.206071
753297763,-15.061221,27.609999,101506.0,1.2060592
753309354,-15.225045,27.609999,101507.99,1.2060828
753319765,-15.225045,27.609999,101507.99,1.2060828
753342966,-15.3096,27.609999,101509.0,1.2060949
753355184,-15.225045,27.609999,101507.99,1.2060828
753365853,-15.225045,27.609999,101507.99,1.2060828
753388764,-14.55918,27.619999,101500.0,1.2059879
753400317,-15.388869,27.619999,101510.0,1.2061068
753411581,-15.061221,27.619999,101506.0,1.2060592
753433817,-14.723004,27.619999,101501.99,1.2060115
753445357,-14.723004,27.619999,101501.99,1.2060115
753455872,-14.55918,27.619999,101500.0,1.2059879
753479048,-14.976667,27.619999,101505.0,1.2060473
753489498,-14.807559,27.619999,101503.0,1.2060236
753500763,-15.140491,27.619999,101507.0,1.206071
753523604,-14.807559,27.619999,101503.0,1.2060236
753535463,-14.976667,27.619999,101505.0,1.2060473
753545771,-14.643735,27.619999,101500.99,1.2059997
753567888,-14.807559,27.63,101503.0,1.2060236
753579928,-14.643735,27.63,101500.99,1.2059997
753590874,-14.643735,27.63,101500.99,1.2059997
753613812,-15.140491,27.63,101507.0,1.206071
753625366,-14.474627,27.63,101499.0,1.205976
753634802,-14.55918,27.63,101500.0,1.2059879
753655888,-14.976667,27.63,101505.0,1.2060473
753667941,-14.723004,27.63,101501.99,1.2060115
753678768,-14.55918,27.63,101500.0,1.2059879
753700762,-14.474627,27.63,101499.0,1.205976
753712315,-14.395357,27.63,101498.0,1.2059641
753722760,-14.395357,27.63,101498.0,1.2059641
753744763,-14.643735,27.63,101500.99,1.2059997
753756800,-14.395357,27.63,101498.0,1.2059641
753767766,-13.808762,27.63,101491.0,1.205881
753790770,-14.310802,27.64,101497.0,1.2059523
753802331,-14.062425,27.64,101494.0,1.2059166
753812763,-14.723004,27.64,101501.99,1.2060115
753834764,-14.474627,27.64,101499.0,1.205976
753846323,-13.97787,27.64,101493.0,1.2059047
753856762,-14.226249,27.64,101496.0,1.2059404
753878769,-13.893316,27.65,101492.0,1.2058928
753890341,-14.643735,27.65,101500.99,1.2059997
753900762,-14.310802,27.65,101497.0,1.2059523
753922803,-13.893316,27.64,101492.0,1.2058928
753934322,-14.141694,27.64,101494.99,1.2059284
753944217,-13.644938,27.64,101488.99,1.2058572
753965792,-14.062425,27.65,101494.0,1.2059166
753977369,-14.310802,27.65,101497.0,1.2059523
753988976,-14.062425,27.65,101494.0,1.2059166
754010764,-13.729492,27.65,101490.0,1.2058691
754022322,-13.560384,27.65,101488.0,1.2058454
754032871,-13.97787,27.65,101493.0,1.2059047
754056227,-14.226249,27.65,101496.0,1.2059404
754066362,-13.644938,27.65,101488.99,1.2058572
754077185,-14.141694,27.65,101494.99,1.2059284
754098769,-13.560384,27.65,101488.0,1.2058454
754110328,-13.644938,27.65,101488.99,1.2058572
754120761,-13.481114,27.65,101487.0,1.2058334
754144209,-13.97787,27.65,101493.0,1.2059047
754154325,-13.644938,27.65,101488.99,1.2058572
754165092,-13.481114,27.65,101487.0,1.2058334
754186761,-13.481114,27.65,101487.0,1.2058334
754198386,-13.39656,27.65,101486.0,1.2058215
754209100,-13.39656,27.65,101486.0,1.2058215
754233117,-13.481114,27.65,101487.0,1.2058334
754244389,-13.560384,27.65,101488.0,1.2058454
754254762,-13.312006,27.65,101485.0,1.2058097
754277775,-13.227451,27.66,101484.0,1.2057978
754289649,-13.227451,27.66,101484.0,1.2057978
754301665,-13.481114,27.66,101487.0,1.2058334
754325717,-13.39656,27.66,101486.0,1.2058215
754337514,-13.39656,27.66,101486.0,1.2058215
754349853,-13.227451,27.66,101484.0,1.2057978
754373496,-13.142898,27.66,101482.99,1.2057859
754385392,-13.142898,27.66,101482.99,1.2057859
754395892,-13.227451,27.66,101484.0,1.2057978
754417109,-13.142898,27.66,101482.99,1.2057859
754428334,-12.89452,27.66,101480.0,1.2057502
754438768,-12.730696,27.66,101478.0,1.2057265
754461584,-13.063628,27.66,101482.0,1.2057741
754473390,-12.730696,27.66,101478.0,1.2057265
754484482,-12.815249,27.66,101479.0,1.2057384
754506472,-12.815249,27.66,101479.0,1.2057384
754517779,-12.815249,27.66,101479.0,1.2057384
754528466,-12.313209,27.66,101473.0,1.2056671
754550466,-12.89452,27.67,101480.0,1.2057502
754562338,-12.979074,27.67,101481.0,1.2057621
754572473,-13.063628,27.67,101482.0,1.2057741
754594470,-12.561587,27.67,101475.99,1.2057027
754605873,-12.730696,27.67,101478.0,1.2057265
754616481,-12.561587,27.67,101475.99,1.2057027
754638155,-13.063628,27.68,101482.0,1.2057741
754650341,-12.815249,27.68,101479.0,1.2057384
754660770,-12.646141,27.68,101476.99,1.2057146
754682772,-12.482318,27.67,101475.0,1.2056909
754694668,-12.397763,27.67,101474.0,1.2056789
754706818,-12.313209,27.67,101473.0,1.2056671
754730752,-12.313209,27.67,101473.0,1.2056671
754742664,-12.149385,27.67,101471.0,1.2056433
754754625,-12.313209,27.67,101473.0,1.2056671
754778557,-12.482318,27.68,101475.0,1.2056909
754790601,-12.482318,27.68,101475.0,1.2056909
754801768,-12.149385,27.68,101471.0,1.2056433
754824763,-12.064831,27.68,101469.99,1.2056314
754836316,-12.646141,27.68,101476.99,1.2057146
754846963,-12.482318,27.68,101475.0,1.2056909
754868862,-12.482318,27.68,101475.0,1.2056909
754880316,-11.980277,27.68,101469.0,1.2056196
754889812,-11.901008,27.68,101468.0,1.2056077
754911762,-11.980277,27.68,101469.0,1.2056196
754923899,-11.901008,27.68,101468.0,1.2056077
754934874,-11.816453,27.68,101467.0,1.2055959
754957762,-12.233939,27.68,101472.0,1.2056552
754969354,-11.816453,27.68,101467.0,1.2055959
754979767,-12.149385,27.68,101471.0,1.2056433
755001760,-11.647345,27.68,101465.0,1.205572
755013496,-12.397763,27.68,101474.0,1.2056789
755024771,-12.064831,27.68,101469.99,1.2056314
755046851,-11.980277,27.689999,101469.0,1.2056196
755059090,-11.731898,27.689999,101466.0,1.2055839
755069761,-11.647345,27.689999,101465.0,1.205572
755091767,-12.149385,27.689999,101471.0,1.2056433
755103427,-11.568075,27.689999,101463.99,1.2055601
755113769,-11.731898,27.689999,101466.0,1.2055839
755135870,-11.901008,27.689999,101468.0,1.2056077
755148224,-11.4835205,27.689999,101463.0,1.2055483
755158760,-11.4835205,27.689999,101463.0,1.2055483
755180762,-11.816453,27.689999,101467.0,1.2055959
755192322,-11.398967,27.689999,101462.0,1.2055364
755201789,-11.568075,27.689999,101463.99,1.2055601
755223771,-11.980277,27.699999,101469.0,1.2056196
755235949,-11.4835205,27.699999,101463.0,1.2055483
755245784,-11.647345,27.699999,101465.0,1.205572
755268299,-11.398967,27.699999,101462.0,1.2055364
755279426,-11.4835205,27.699999,101463.0,1.2055483
755289796,-11.647345,27.699999,101465.0,1.205572
755312763,-11.568075,27.699999,101463.99,1.2055601
755324790,-11.4835205,27.699999,101463.0,1.2055483
755335874,-11.314412,27.699999,101461.0,1.2055246
755358768,-11.150588,27.699999,101459.0,1.2055007
755370334,-11.398967,27.699999,101462.0,1.2055364
755380762,-11.398967,27.699999,101462.0,1.2055364
755402807,-11.314412,27.71,101461.0,1.2055246
755414336,-11.150588,27.71,101459.0,1.2055007
755423895,-11.066034,27.71,101457.99,1.2054888
755445155,-10.98148,27.71,101457.0,1.205477
755456321,-11.150588,27.71,101459.0,1.2055007
755466760,-10.484724,27.71,101450.99,1.2054056
755488768,-11.4835205,27.71,101463.0,1.2055483
755500707,-11.066034,27.71,101457.99,1.2054888
755512195,-10.90221,27.71,101456.0,1.2054651
755533797,-10.90221,27.71,101456.0,1.2054651
755545372,-10.90221,27.71,101456.0,1.2054651
755557004,-11.150588,27.71,101459.0,1.2055007
755578761,-10.98148,27.71,101457.0,1.205477
755589572,-10.653832,27.71,101453.0,1.2054294
755600762,-10.8176565,27.71,101455.0,1.2054533
755624194,-10.90221,27.72,101456.0,1.2054651
755635323,-10.8176565,27.72,101455.0,1.2054533
755645798,-10.90221,27.72,101456.0,1.2054651
755668893,-10.90221,27.72,101456.0,1.2054651
755680314,-10.569278,27.72,101451.99,1.2054175
755689832,-10.8176565,27.72,101455.0,1.2054533
755712871,-10.484724,27.72,101450.99,1.2054056
755724729,-10.653832,27.72,101453.0,1.2054294
755735775,-10.8176565,27.72,101455.0,1.2054533
755757087,-10.90221,27.72,101456.0,1.2054651
755768400,-10.484724,27.72,101450.99,1.2054056
755778807,-10.90221,27.72,101456.0,1.2054651
755801736,-10.653832,27.72,101453.0,1.2054294
755813684,-10.653832,27.72,101453.0,1.2054294
755825588,-10.653832,27.72,101453.0,1.2054294
755849603,-10.569278,27.72,101451.99,1.2054175
755861642,-10.400169,27.72,101450.0,1.2053938
755873627,-10.400169,27.72,101450.0,1.2053938
755895863,-10.653832,27.72,101453.0,1.2054294
755906410,-10.98148,27.72,101457.0,1.205477
755917101,-10.067238,27.72,101446.0,1.2053463
755938761,-10.3209,27.72,101449.0,1.205382
755950320,-10.3209,27.72,101449.0,1.205382
755961711,-10.151792,27.72,101447.0,1.2053581
755985678,-10.400169,27.73,101450.0,1.2053938
755997826,-10.236346,27.73,101448.0,1.2053701
756008762,-10.400169,27.73,101450.0,1.2053938
756030771,-10.400169,27.73,101450.0,1.2053938
756043137,-9.734305,27.73,101442.0,1.2052988
756054148,-10.3209,27.73,101449.0,1.205382
756076770,-10.484724,27.73,101450.99,1.2054056
756088316,-10.236346,27.73,101448.0,1.2053701
756098790,-9.818859,27.73,101443.0,1.2053107
756120843,-10.236346,27.74,101448.0,1.2053701
756132316,-10.236346,27.74,101448.0,1.2053701
756142168,-10.067238,27.74,101446.0,1.2053463
756164763,-9.982683,27.73,101444.99,1.2053343
756176323,-9.818859,27.73,101443.0,1.2053107
756186819,-9.982683,27.73,101444.99,1.2053343
756208844,-9.818859,27.74,101443.0,1.2053107
756220323,-10.067238,27.74,101446.0,1.2053463
756230164,-9.401373,27.74,101438.0,1.2052512
756252763,-9.818859,27.74,101443.0,1.2053107
756264315,-9.734305,27.74,101442.0,1.2052988
756274762,-9.903414,27.74,101444.0,1.2053225
756297763,-10.151792,27.74,101447.0,1.2053581
756309472,-9.818859,27.74,101443.0,1.2053107
756320763,-9.570481,27.74,101440.0,1.205275
756342877,-9.570481,27.74,101440.0,1.205275
756355150,-10.067238,27.74,101446.0,1.2053463
756365805,-9.570481,27.74,101440.0,1.205275
756388762,-9.3221035,27.74,101437.0,1.2052394
756400316,-9.655036,27.74,101441.0,1.2052869
756409770,-9.237549,27.74,101436.0,1.2052275
756431880,-9.734305,27.75,101442.0,1.2052988
756443945,-9.3221035,27.75,101437.0,1.2052394
756454874,-9.570481,27.75,101440.0,1.205275
756477773,-9.734305,27.75,101442.0,1.2052988
756489357,-9.485928,27.75,101438.99,1.205263
756499553,-9.655036,27.75,101441.0,1.2052869
756521768,-9.3221035,27.75,101437.0,1.2052394
756533357,-9.485928,27.75,101438.99,1.205263
756543773,-9.152995,27.75,101435.0,1.2052156
756566962,-9.152995,27.75,101435.0,1.2052156
756579170,-9.152995,27.75,101435.0,1.2052156
756589769,-9.152995,27.75,101435.0,1.2052156
756611779,-9.570481,27.76,101440.0,1.205275
756622608,-9.3221035,27.76,101437.0,1.2052394
756633765,-9.3221035,27.76,101437.0,1.2052394
756655870,-9.485928,27.76,101438.99,1.205263
756667953,-9.401373,27.76,101438.0,1.2052512
756677823,-8.989171,27.76,101432.99,1.2051917
756700762,-9.237549,27.76,101436.0,1.2052275
756712324,-8.740793,27.76,101430.0,1.2051562
756722765,-9.485928,27.76,101438.99,1.205263
756744839,-9.06844,27.76,101434.0,1.2052038
756756829,-9.237549,27.76,101436.0,1.2052275
756767770,-9.152995,27.76,101435.0,1.2052156
756790808,-8.989171,27.76,101432.99,1.2051917
756801546,-8.820063,27.76,101431.0,1.2051681
756812835,-8.48713,27.76,101426.99,1.2051204
756834761,-8.904617,27.76,101432.0,1.2051799
756846328,-8.740793,27.76,101430.0,1.2051562
756856851,-8.571685,27.76,101428.0,1.2051325
756879780,-8.989171,27.769999,101432.99,1.2051917
756891944,-8.740793,27.769999,101430.0,1.2051562
756902804,-8.402576,27.769999,101425.99,1.2051085
756924378,-8.656239,27.769999,101429.0,1.2051443
756935402,-8.402576,27.769999,101425.99,1.2051085
756944868,-8.989171,27.769999,101432.99,1.2051917
756968203,-8.656239,27.769999,101429.0,1.2051443
756979324,-8.402576,27.769999,101425.99,1.2051085
756989800,-8.656239,27.769999,101429.0,1.2051443
757012951,-8.571685,27.769999,101428.0,1.2051325
757024316,-8.238752,27.769999,101424.0,1.2050849
757034760,-8.656239,27.769999,101429.0,1.2051443
757056767,-8.656239,27.779999,101429.0,1.2051443
757068715,-8.571685,27.779999,101428.0,1.2051325
757080276,-8.238752,27.779999,101424.0,1.2050849
757101866,-8.323306,27.779999,101425.0,1.2050968
757113370,-8.48713,27.779999,101426.99,1.2051204
757124958,-7.990374,27.779999,101421.0,1.2050493
757146805,-8.48713,27.779999,101426.99,1.2051204
757158344,-8.154198,27.779999,101423.0,1.205073
757168872,-8.074928,27.779999,101422.0,1.2050611
757189808,-8.48713,27.779999,101426.99,1.2051204
757201366,-8.402576,27.779999,101425.99,1.2051085
757212935,-8.402576,27.779999,101425.99,1.2051085
757233804,-8.323306,27.779999,101425.0,1.2050968
757245540,-8.323306,27.779999,101425.0,1.2050968
757256875,-8.402576,27.779999,101425.99,1.2051085
757278807,-8.154198,27.779999,101423.0,1.205073
757290340,-8.074928,27.779999,101422.0,1.2050611
757301749,-7.990374,27.779999,101421.0,1.2050493
757325787,-8.656239,27.789999,101429.0,1.2051443
757337665,-8.740793,27.789999,101430.0,1.2051562
757349681,-8.238752,27.789999,101424.0,1.2050849
757373577,-8.238752,27.789999,101424.0,1.2050849
757384319,-7.8212657,27.789999,101419.0,1.2050254
757394762,-7.990374,27.789999,101421.0,1.2050493
757417044,-7.90582,27.789999,101419.99,1.2050372
757428315,-8.238752,27.789999,101424.0,1.2050849
757438802,-8.074928,27.789999,101422.0,1.2050611
757459872,-8.154198,27.789999,101423.0,1.205073
757471328,-7.90582,27.789999,101419.99,1.2050372
757481843,-7.90582,27.789999,101419.99,1.2050372
757505093,-8.238752,27.789999,101424.0,1.2050849
757516357,-7.990374,27.789999,101421.0,1.2050493
757526805,-7.3245096,27.789999,101413.0,1.2049541
757548770,-8.074928,27.789999,101422.0,1.2050611
757560326,-7.7419963,27.789999,101418.0,1.2050136
757570831,-7.90582,27.789999,101419.99,1.2050372
757594834,-7.990374,27.8,101421.0,1.2050493
757606723,-7.4883337,27.8,101415.0,1.204978
757618756,-7.657442,27.8,101417.0,1.2050017
757642594,-7.4883337,27.8,101415.0,1.204978
757654623,-7.572888,27.8,101416.0,1.2049898
757666669,-7.2399554,27.8,101412.0,1.2049423
757690583,-7.155401,27.789999,101411.0,1.2049304
757702636,-7.155401,27.789999,101411.0,1.2049304
757712763,-7.4037795,27.789999,101413.99,1.204966
757734761,-7.990374,27.8,101421.0,1.2050493
757747365,-7.4037795,27.8,101413.99,1.204966
757758166,-7.3245096,27.8,101413.0,1.2049541
757778759,-7.155401,27.8,101411.0,1.2049304
757790625,-7.4883337,27.8,101415.0,1.204978
757802665,-7.2399554,27.8,101412.0,1.2049423
757825778,-7.2399554,27.8,101412.0,1.2049423
757837486,-7.4883337,27.8,101415.0,1.204978
757848844,-7.2399554,27.8,101412.0,1.2049423
757869806,-7.572888,27.81,101416.0,1.2049898
757881360,-7.076132,27.81,101410.0,1.2049185
757891590,-7.155401,27.81,101411.0,1.2049304
757915568,-7.4883337,27.81,101415.0,1.204978
757927518,-7.8212657,27.81,101419.0,1.2050254
757937803,-7.4883337,27.81,101415.0,1.204978
757960769,-6.822469,27.81,101407.0,1.2048829
757972409,-7.3245096,27.81,101413.0,1.2049541
757982876,-6.9915776,27.81,101409.0,1.2049067
758004853,-7.3245096,27.81,101413.0,1.2049541
758016324,-6.9915776,27.81,101409.0,1.2049067
758027552,-6.9915776,27.81,101409.0,1.2049067
758051553,-6.822469,27.82,101407.0,1.2048829
758063420,-6.9915776,27.82,101409.0,1.2049067
758073761,-7.3245096,27.82,101413.0,1.2049541
758095863,-6.7431993,27.82,101406.0,1.204871
758107954,-6.9915776,27.82,101409.0,1.2049067
758118964,-7.155401,27.82,101411.0,1.2049304
758141769,-7.076132,27.82,101410.0,1.2049185
758153354,-6.7431993,27.82,101406.0,1.204871
758163887,-6.822469,27.82,101407.0,1.2048829
758185776,-7.155401,27.82,101411.0,1.2049304
758197370,-6.822469,27.82,101407.0,1.2048829
758207773,-6.4948215,27.82,101403.0,1.2048354
758230761,-6.7431993,27.82,101406.0,1.204871
758242368,-6.7431993,27.82,101406.0,1.204871
758252765,-6.7431993,27.82,101406.0,1.204871
758274761,-6.325713,27.82,101400.99,1.2048116
758286330,-6.822469,27.82,101407.0,1.2048829
758296763,-6.4948215,27.82,101403.0,1.2048354
758318770,-6.574091,27.83,101404.0,1.2048472
758330320,-6.241159,27.83,101400.0,1.2047998
758340858,-6.7431993,27.83,101406.0,1.204871
758362803,-6.7431993,27.83,101406.0,1.204871
758374325,-6.574091,27.83,101404.0,1.2048472
758383870,-6.822469,27.83,101407.0,1.2048829
758406760,-6.4948215,27.83,101403.0,1.2048354
758418319,-6.574091,27.83,101404.0,1.2048472
758428764,-6.4948215,27.83,101403.0,1.2048354
758450763,-6.4102674,27.83,101401.99,1.2048234
758462334,-6.822469,27.83,101407.0,1.2048829
758471768,-6.574091,27.83,101404.0,1.2048472
758493004,-6.658645,27.84,101405.0,1.2048591
758504323,-6.574091,27.84,101404.0,1.2048472
758514760,-6.4948215,27.84,101403.0,1.2048354
758536853,-6.241159,27.84,101400.0,1.2047998
758548719,-6.574091,27.84,101404.0,1.2048472
758560194,-6.1566043,27.84,101399.0,1.2047879
758581775,-6.4102674,27.84,101401.99,1.2048234
758593486,-6.4102674,27.84,101401.99,1.2048234
758605089,-6.4102674,27.84,101401.99,1.2048234
758625774,-6.574091,27.84,101404.0,1.2048472
758637562,-5.9927807,27.84,101397.0,1.2047641
758648854,-6.077335,27.84,101398.0,1.2047759
758672214,-6.241159,27.849998,101400.0,1.2047998
758683326,-6.4948215,27.849998,101403.0,1.2048354
758693197,-5.9927807,27.849998,101397.0,1.2047641
758713810,-5.49074,27.849998,101391.0,1.2046928
758725507,-5.659848,27.849998,101393.0,1.2047166
758736762,-6.658645,27.849998,101405.0,1.2048591
758760189,-6.1566043,27.849998,101399.0,1.2047879
758771316,-5.9082265,27.849998,101396.0,1.2047522
758781776,-5.9927807,27.849998,101397.0,1.2047641
758803761,-5.744403,27.859999,101394.0,1.2047285
758815354,-6.1566043,27.859999,101399.0,1.2047879
758825778,-5.9082265,27.859999,101396.0,1.2047522
758846763,-6.325713,27.859999,101400.99,1.2048116
758858336,-5.9927807,27.859999,101397.0,1.2047641
758869667,-5.8236723,27.859999,101394.99,1.2047403
758893644,-5.575294,27.859999,101392.0,1.2047046
758904328,-5.9082265,27.859999,101396.0,1.2047522
758914769,-6.077335,27.859999,101398.0,1.2047759
758937030,-5.659848,27.859999,101393.0,1.2047166
758948316,-5.659848,27.859999,101393.0,1.2047166
758958802,-5.078538,27.859999,101386.0,1.2046334
758979878,-5.49074,27.859999,101391.0,1.2046928
758991326,-5.575294,27.859999,101392.0,1.2047046
759001778,-5.659848,27.859999,101393.0,1.2047166
759025080,-5.9927807,27.859999,101397.0,1.2047641
759036356,-5.575294,27.859999,101392.0,1.2047046
759046761,-5.744403,27.859999,101394.0,1.2047285
759068849,-5.4114704,27.859999,101390.0,1.2046809
759080316,-5.4114704,27.859999,101390.0,1.2046809
759090763,-5.4114704,27.859999,101390.0,1.2046809
759114860,-5.4114704,27.869999,101390.0,1.2046809
759126731,-5.575294,27.869999,101392.0,1.2047046
759139143,-5.744403,27.869999,101394.0,1.2047285
759162485,-5.4114704,27.869999,101390.0,1.2046809
759174670,-5.326916,27.869999,101388.99,1.204669
759186713,-5.49074,27.869999,101391.0,1.2046928
759210570,-5.078538,27.869999,101386.0,1.2046334
759222714,-5.242362,27.869999,101388.0,1.2046572
759234491,-5.242362,27.869999,101388.0,1.2046572
759258620,-4.9939837,27.859999,101385.0,1.2046216
759270678,-5.078538,27.859999,101386.0,1.2046334
759282595,-5.1630926,27.859999,101387.0,1.2046453
759306619,-5.1630926,27.859999,101387.0,1.2046453
759318641,-4.9939837,27.859999,101385.0,1.2046216
759330613,-4.9939837,27.859999,101385.0,1.2046216
759352853,-4.4972277,27.869999,101379.0,1.2045503
759364316,-4.8248754,27.869999,101382.99,1.2045977
759373816,-5.242362,27.869999,101388.0,1.2046572
759395537,-4.4126735,27.869999,101378.0,1.2045383
759407463,-4.6610518,27.869999,101381.0,1.204574
759417766,-4.9939837,27.869999,101385.0,1.2046216
759439770,-4.5764976,27.869999,101380.0,1.2045621
759451086,-4.4126735,27.869999,101378.0,1.2045383
759461762,-4.4126735,27.869999,101378.0,1.2045383
759483886,-4.745606,27.88,101382.0,1.2045859
759494661,-4.4972277,27.88,101379.0,1.2045503
759505768,-4.1642957,27.88,101375.0,1.2045027
759528762,-4.8248754,27.88,101382.99,1.2045977
759540407,-4.4972277,27.88,101379.0,1.2045503
759550956,-4.0797415,27.88,101374.0,1.2044908
759573761,-3.8313634,27.88,101371.0,1.2044551
759585353,-4.3281193,27.88,101376.99,1.2045264
759595875,-3.995187,27.88,101373.0,1.204479
759616765,-4.4972277,27.88,101379.0,1.2045503
759628316,-3.8313634,27.88,101371.0,1.2044551
759638868,-4.0797415,27.88,101374.0,1.2044908
759661762,-3.8313634,27.89,101371.0,1.2044551
759673353,-3.9106328,27.89,101372.0,1.204467
759683587,-4.0797415,27.89,101374.0,1.2044908
759705866,-3.995187,27.9,101373.0,1.204479
759717372,-3.8313634,27.9,101371.0,1.2044551
759727765,-3.9106328,27.9,101372.0,1.204467
759750764,-3.6622548,27.89,101369.0,1.2044314
759762379,-3.6622548,27.89,101369.0,1.2044314
759772762,-3.8313634,27.89,101371.0,1.2044551
759794761,-3.5777006,27.89,101368.0,1.2044195
759806339,-3.5777006,27.89,101368.0,1.2044195
759816763,-3.0809445,27.89,101362.0,1.2043482
759839766,-3.6622548,27.9,101369.0,1.2044314
759850405,-3.4138768,27.9,101366.0,1.2043958
759860762,-2.9118361,27.9,101360.0,1.2043245
759882761,-3.498431,27.9,101367.0,1.2044077
759894325,-3.2447684,27.9,101363.99,1.2043719
759904763,-2.9963903,27.9,101361.0,1.2043364
759926769,-3.4138768,27.9,101366.0,1.2043958
759938328,-3.498431,27.9,101367.0,1.2044077
759948762,-3.2447684,27.9,101363.99,1.2043719
759972429,-3.1654987,27.9,101363.0,1.2043601
759983504,-2.8325665,27.9,101359.0,1.2043126
759994803,-2.8325665,27.9,101359.0,1.2043126
760016766,-3.1654987,27.9,101363.0,1.2043601
760028777,-2.578904,27.9,101356.0,1.2042769
760038761,-2.7480123,27.9,101357.99,1.2043006
760061156,-3.1654987,27.91,101363.0,1.2043601
760072317,-2.9118361,27.91,101360.0,1.2043245
760082803,-2.9963903,27.91,101361.0,1.2043364
760104857,-2.41508,27.91,101354.0,1.2042532
760115352,-2.1614175,27.91,101350.99,1.2042174
760125803,-2.9118361,27.91,101360.0,1.2043245
760148864,-2.8325665,27.91,101359.0,1.2043126
760160317,-2.4996343,27.91,101355.0,1.2042651
760170762,-2.663458,27.91,101357.0,1.2042888
760192762,-2.41508,27.91,101354.0,1.2042532
760204696,-2.7480123,27.91,101357.99,1.2043006
760216216,-2.41508,27.91,101354.0,1.2042532
760237231,-2.1614175,27.91,101350.99,1.2042174
760248318,-2.578904,27.91,101356.0,1.2042769
760258768,-2.578904,27.91,101356.0,1.2042769
760280770,-2.0821478,27.92,101350.0,1.2042056
760292686,-2.1614175,27.92,101350.99,1.2042174
760304208,-2.3305259,27.92,101353.0,1.2042413
760326015,-2.0821478,27.92,101350.0,1.2042056
760336325,-2.0821478,27.92,101350.0,1.2042056
760346769,-2.663458,27.92,101357.0,1.2042888
760369094,-1.9975935,27.92,101349.0,1.2041938
760380316,-1.5801071,27.92,101344.0,1.2041343
760390761,-1.8337698,27.92,101347.0,1.20417
760413787,-1.6646613,27.92,101344.99,1.2041461
760425373,-1.9975935,27.92,101349.0,1.2041938
760435773,-1.331729,27.92,101341.0,1.2040987
760457845,-1.5801071,27.92,101344.0,1.2041343
760469544,-1.9975935,27.92,101349.0,1.2041938
760481032,-1.5801071,27.92,101344.0,1.2041343
760501962,-1.4162832,27.93,101342.0,1.2041106
760513373,-1.5801071,27.93,101344.0,1.2041343
760523761,-1.6646613,27.93,101344.99,1.2041461
760545857,-1.4162832,27.93,101342.0,1.2041106
760557562,-1.5801071,27.93,101344.0,1.2041343
760569004,-1.4162832,27.93,101342.0,1.2041106
760590769,-1.5801071,27.93,101344.0,1.2041343
760602620,-1.2471749,27.93,101340.0,1.2040869
760612762,-0.99879676,27.93,101337.0,1.2040511
760634763,-1.331729,27.939999,101341.0,1.2040987
760647198,-1.1626205,27.939999,101338.99,1.2040749
760658181,-1.4162832,27.939999,101342.0,1.2041106
760680763,-1.2471749,27.93,101340.0,1.2040869
760692317,-0.99879676,27.93,101337.0,1.2040511
760702802,-1.2471749,27.93,101340.0,1.2040869
760726799,-1.1626205,27.939999,101338.99,1.2040749
760737822,-1.083351,27.939999,101338.0,1.204063
760748861,-0.7504187,27.939999,101334.0,1.2040155
760770805,-0.834973,27.939999,101335.0,1.2040274
760783099,-0.834973,27.939999,101335.0,1.2040274
760794077,-1.083351,27.939999,101338.0,1.204063
760816764,-0.7504187,27.939999,101334.0,1.2040155
760828317,-0.49675608,27.939999,101331.0,1.2039798
760838769,-0.5813103,27.939999,101332.0,1.2039918
760862822,-0.24837804,27.939999,101328.0,1.2039442
760874680,-0.5813103,27.939999,101332.0,1.2039918
760886752,-0.5813103,27.939999,101332.0,1.2039918
760909788,-0.5813103,27.939999,101332.0,1.2039918
760921372,-0.4174865,27.939999,101330.0,1.203968
760931880,-0.4174865,27.939999,101330.0,1.203968
760953762,-0.49675608,27.939999,101331.0,1.2039798
760965357,-0.33293226,27.939999,101329.0,1.2039561
760975866,0.08191191,27.939999,101324.0,1.2038968
760998872,-0.084554225,27.949999,101325.99,1.2039204
761011212,-0.33293226,27.949999,101329.0,1.2039561
761021770,-0.4174865,27.949999,101330.0,1.203968
761043773,-0.33293226,27.949999,101329.0,1.2039561
761055468,-0.084554225,27.949999,101325.99,1.2039204
761067576,-0.0,27.949999,101325.0,1.2039086
761091557,0.24837804,27.949999,101322.0,1.2038729
761103453,0.33293226,27.949999,101321.0,1.2038611
761113762,0.16646613,27.949999,101323.0,1.2038848
761135864,0.24837804,27.949999,101322.0,1.2038729
761147096,0.49939838,27.949999,101319.0,1.2038373
761157762,0.6658645,27.949999,101317.0,1.2038136
761180866,0.6658645,27.949999,101317.0,1.2038136
761192317,0.24837804,27.949999,101322.0,1.2038729
761201802,0.49939838,27.949999,101319.0,1.2038373
761222968,0.24837804,27.96,101322.0,1.2038729
761235136,0.49939838,27.96,101319.0,1.2038373
761245761,0.33293226,27.96,101321.0,1.2038611
761268327,0.5813103,27.96,101318.0,1.2038255
761279409,0.6658645,27.96,101317.0,1.2038136
761289778,0.7504187,27.96,101316.0,1.2038016
761311766,0.7504187,27.96,101316.0,1.2038016
761323896,0.7504187,27.96,101316.0,1.2038016
761334769,0.7504187,27.96,101316.0,1.2038016
761356763,0.99879676,27.96,101313.0,1.203766
761368315,0.83233064,27.96,101315.0,1.2037898
761378768,1.331729,27.96,101309.0,1.2037185
761400764,0.9168849,27.97,101313.99,1.2037778
761412813,0.7504187,27.97,101316.0,1.2038016
761423767,1.1652629,27.97,101311.0,1.2037423
761444762,0.5813103,27.97,101318.0,1.2038255
761455388,0.83233064,27.97,101315.0,1.2037898
761465854,1.4162832,27.97,101307.99,1.2037065
761488859,1.083351,27.97,101312.0,1.2037542
761500758,1.331729,27.97,101309.0,1.2037185
761512282,1.2498171,27.97,101310.0,1.2037303
761533788,1.4162832,27.97,101307.99,1.2037065
761545367,1.4162832,27.97,101307.99,1.2037065
761556993,1.4162832,27.97,101307.99,1.2037065
761580887,1.4162832,27.97,101307.99,1.2037065
761592427,1.2498171,27.97,101310.0,1.2037303
761602769,1.5827494,27.97,101306.0,1.2036829
761624762,1.4981952,27.98,101307.0,1.2036947
761636801,1.4981952,27.98,101307.0,1.2036947
761648206,1.4981952,27.98,101307.0,1.2036947
761669795,1.4981952,27.97,101307.0,1.2036947
761681383,2.0821478,27.97,101300.0,1.2036116
761692937,2.2486138,27.97,101298.0,1.2035878
761713820,1.7492155,27.98,101304.0,1.203659
761725511,1.6646613,27.98,101305.0,1.203671
761736871,2.1640596,27.98,101299.0,1.2035997
761760198,1.8311274,27.99,101303.0,1.2036473
761771337,1.8311274,27.99,101303.0,1.2036473
761781770,1.8311274,27.99,101303.0,1.2036473
761805146,1.9975935,27.98,101300.99,1.2036234
761815353,2.2486138,27.98,101298.0,1.2035878
761825776,2.3305259,27.98,101297.0,1.203576
761848215,2.3305259,27.99,101297.0,1.203576
761859319,2.41508,27.99,101296.0,1.203564
761869979,2.1640596,27.99,101299.0,1.2035997
761893764,2.41508,27.99,101296.0,1.203564
761905374,2.4969919,27.99,101294.99,1.2035521
761915773,2.2486138,27.99,101298.0,1.2035878
761937009,2.9144785,27.99,101290.0,1.2034928
761948321,2.5815463,27.99,101294.0,1.2035403
761958802,2.5815463,27.99,101294.0,1.2035403
761981735,2.7480123,27.99,101292.0,1.2035165
761993391,2.7480123,27.99,101292.0,1.2035165
762003762,2.5815463,27.99,101294.0,1.2035403
762025778,2.829924,28.0,101291.0,1.2035047
762037615,2.9144785,28.0,101290.0,1.2034928
762049009,2.829924,28.0,101291.0,1.2035047
762070762,2.4969919,28.0,101294.99,1.2035521
762081660,2.5815463,28.0,101294.0,1.2035403
762093727,3.0809445,28.0,101288.0,1.203469
762115776,3.0809445,27.99,101288.0,1.203469
762127318,3.1654987,27.99,101287.0,1.2034571
762139139,3.1654987,27.99,101287.0,1.2034571
762160763,3.2474108,28.0,101286.0,1.2034452
762172316,3.4138768,28.0,101284.0,1.2034215
762182771,3.331965,28.0,101285.0,1.2034334
762204853,3.2474108,28.0,101286.0,1.2034452
762216323,3.6648972,28.0,101281.0,1.2033858
762226858,3.4138768,28.0,101284.0,1.2034215
762250625,3.2474108,28.0,101286.0,1.2034452
762262704,3.331965,28.0,101285.0,1.2034334
762272854,3.580343,28.0,101282.0,1.2033978
762294761,3.6648972,28.0,101281.0,1.2033858
762307301,3.580343,28.0,101282.0,1.2033978
762318162,3.9978294,28.0,101276.99,1.2033381
762338775,3.6648972,28.01,101281.0,1.2033858
762350633,3.9132752,28.01,101278.0,1.2033502
762362806,3.4138768,28.01,101284.0,1.2034215
762386859,3.746809,28.01,101280.0,1.2033739
762398642,3.9132752,28.01,101278.0,1.2033502
762408847,3.6648972,28.01,101281.0,1.2033858
762429802,4.330762,28.01,101273.0,1.2032908
762440333,3.8313634,28.01,101279.0,1.2033621
762451638,4.4972277,28.01,101271.0,1.203267
762473778,4.1642957,28.01,101275.0,1.2033145
762485497,4.330762,28.01,101273.0,1.2032908
762496765,4.0823836,28.01,101275.99,1.2033263
762519080,3.9978294,28.019999,101276.99,1.2033381
762531084,3.9978294,28.019999,101276.99,1.2033381
762540856,4.1642957,28.019999,101275.0,1.2033145
762563483,4.1642957,28.019999,101275.0,1.2033145
762575489,4.745606,28.019999,101268.0,1.2032313
762587496,4.0823836,28.019999,101275.99,1.2033263
762609761,4.4972277,28.019999,101271.0,1.203267
762621364,4.4126735,28.019999,101272.0,1.2032789
762631770,4.2462077,28.019999,101274.0,1.2033026
762653803,4.4972277,28.019999,101271.0,1.203267
762665480,4.663694,28.019999,101269.0,1.2032433
762676858,4.4972277,28.019999,101271.0,1.203267
762697836,4.663694,28.019999,101269.0,1.2032433
762709485,4.745606,28.019999,101268.0,1.2032313
762720762,4.9966264,28.019999,101265.0,1.2031957
762742946,4.2462077,28.029999,101274.0,1.2033026
762755232,5.0811806,28.029999,101263.99,1.2031838
762765808,4.581782,28.029999,101269.99,1.203255
762786764,5.0811806,28.029999,101263.99,1.2031838
762798333,4.581782,28.029999,101269.99,1.203255
762807766,5.0811806,28.029999,101263.99,1.2031838
762830761,4.745606,28.029999,101268.0,1.2032313
762842378,4.9966264,28.029999,101265.0,1.2031957
762852761,5.1630926,28.029999,101263.0,1.203172
762874763,5.1630926,28.029999,101263.0,1.203172
762886325,5.0811806,28.029999,101263.99,1.2031838
762896763,5.4141126,28.029999,101260.0,1.2031363
762919766,5.4141126,28.039999,101260.0,1.2031363
762930372,5.4141126,28.039999,101260.0,1.2031363
762940762,5.1630926,28.039999,101263.0,1.203172
762962761,4.9966264,28.039999,101265.0,1.2031957
762974325,5.1630926,28.039999,101263.0,1.203172
762984866,4.9966264,28.039999,101265.0,1.2031957
763007766,5.1630926,28.039999,101263.0,1.203172
763019883,5.3295584,28.039999,101261.0,1.2031482
763030769,5.4141126,28.039999,101260.0,1.2031363
763052761,5.3295584,28.039999,101261.0,1.2031482
763064324,5.580579,28.039999,101257.99,1.2031125
763074761,5.4960246,28.039999,101259.0,1.2031244
763097223,5.828957,28.039999,101255.0,1.203077
763107354,5.995423,28.039999,101253.0,1.2030531
763117771,5.662491,28.039999,101257.0,1.2031007
763140194,5.9135113,28.05,101254.0,1.203065
763151315,5.747045,28.05,101256.0,1.2030888
763161779,5.4960246,28.05,101259.0,1.2031244
763184965,5.580579,28.05,101257.99,1.2031125
763196323,5.9135113,28.05,101254.0,1.203065
763206767,6.1645317,28.05,101250.99,1.2030293
763228764,5.747045,28.05,101256.0,1.2030888
763239319,5.828957,28.05,101255.0,1.203077
763249778,6.2464433,28.05,101250.0,1.2030175
763270807,5.828957,28.05,101255.0,1.203077
763282331,6.3283553,28.05,101249.0,1.2030056
763292766,6.3283553,28.05,101249.0,1.2030056
763316238,5.9135113,28.05,101254.0,1.203065
763327321,5.995423,28.05,101253.0,1.2030531
763337768,6.4974637,28.05,101247.0,1.2029818
763360895,5.828957,28.06,101255.0,1.203077
763372323,6.4974637,28.06,101247.0,1.2029818
763382760,6.2464433,28.06,101250.0,1.2030175
763405006,6.1645317,28.06,101250.99,1.2030293
763416331,6.4974637,28.06,101247.0,1.2029818
763426764,6.830396,28.06,101243.0,1.2029343
763447885,6.5793757,28.06,101246.0,1.2029699
763459399,6.4129095,28.06,101248.0,1.2029938
763469790,6.745842,28.06,101244.0,1.2029462
763493032,6.4129095,28.06,101248.0,1.2029938
763504322,6.3283553,28.06,101249.0,1.2030056
763514770,6.66393,28.06,101244.99,1.202958
763537698,6.3283553,28.07,101249.0,1.2030056
763548328,6.5793757,28.07,101246.0,1.2029699
763558762,6.9123077,28.07,101242.0,1.2029225
763581016,6.830396,28.07,101243.0,1.2029343
763592316,6.4974637,28.07,101247.0,1.2029818
763602801,6.745842,28.07,101244.0,1.2029462
763625715,6.66393,28.07,101244.99,1.202958
763637373,6.4974637,28.07,101247.0,1.2029818
763647770,6.66393,28.07,101244.99,1.202958
763669785,6.745842,28.07,101244.0,1.2029462
763682379,6.996862,28.07,101241.0,1.2029105
763692761,6.9123077,28.07,101242.0,1.2029225
763714770,6.9123077,28.07,101242.0,1.2029225
763726737,7.163328,28.07,101238.99,1.2028867
763738779,7.4962606,28.07,101235.0,1.2028393
763760771,6.996862,28.07,101241.0,1.2029105
763772326,7.3297944,28.07,101237.0,1.202863
763782769,7.3297944,28.07,101237.0,1.202863
763806166,7.3297944,28.08,101237.0,1.202863
763816325,7.163328,28.08,101238.99,1.2028867
763826869,7.24524,28.08,101238.0,1.2028749
763850814,7.24524,28.08,101238.0,1.2028749
763862635,7.4962606,28.08,101235.0,1.2028393
763874769,7.4962606,28.08,101235.0,1.2028393
763898649,7.24524,28.08,101238.0,1.2028749
763910677,7.578172,28.08,101234.0,1.2028273
763922587,7.078774,28.08,101240.0,1.2028986
763946968,6.996862,28.08,101241.0,1.2029105
763958709,7.4962606,28.08,101235.0,1.2028393
763969769,7.7446384,28.08,101232.0,1.2028036
763991779,7.4117064,28.08,101236.0,1.2028512
764004061,7.662727,28.08,101232.99,1.2028154
764014965,7.4117064,28.08,101236.0,1.2028512
764037764,8.246679,28.08,101225.99,1.2027322
764049356,7.24524,28.08,101238.0,1.2028749
764059770,7.4962606,28.08,101235.0,1.2028393
764081761,7.578172,28.08,101234.0,1.2028273
764093355,7.7446384,28.08,101232.0,1.2028036
764102949,7.24524,28.08,101238.0,1.2028749
764125763,7.7446384,28.09,101232.0,1.2028036
764137474,7.9111047,28.09,101230.0,1.2027799
764148764,7.7446384,28.09,101232.0,1.2028036
764171625,7.8291926,28.09,101231.0,1.2027917
764183448,7.7446384,28.09,101232.0,1.2028036
764193761,7.7446384,28.09,101232.0,1.2028036
764215901,7.995659,28.09,101229.0,1.202768
764227902,8.162125,28.09,101226.99,1.2027441
764238967,7.662727,28.09,101232.99,1.2028154
764261768,8.080214,28.09,101228.0,1.202756
764273360,8.080214,28.09,101228.0,1.202756
764283778,8.328591,28.09,101225.0,1.2027204
764304851,8.328591,28.09,101225.0,1.2027204
764316323,7.7446384,28.09,101232.0,1.2028036
764326989,7.9111047,28.09,101230.0,1.2027799
764348763,8.246679,28.099998,101225.99,1.2027322
764360407,8.162125,28.099998,101226.99,1.2027441
764370760,7.9111047,28.099998,101230.0,1.2027799
764392761,8.080214,28.099998,101228.0,1.202756
764404778,8.162125,28.099998,101226.99,1.2027441
764415875,8.246679,28.099998,101225.99,1.2027322
764438761,8.080214,28.099998,101228.0,1.202756
764450327,8.661524,28.099998,101221.0,1.202673
764460307,8.495057,28.099998,101223.0,1.2026967
764481821,8.246679,28.109999,101225.99,1.2027322
764493374,8.413145,28.109999,101224.0,1.2027086
764503775,8.246679,28.109999,101225.99,1.2027322
764526772,8.912544,28.109999,101218.0,1.2026373
764538331,8.495057,28.109999,101223.0,1.2026967
764548765,8.413145,28.109999,101224.0,1.2027086
764570769,8.579612,28.109999,101222.0,1.2026848
764582338,8.661524,28.109999,101221.0,1.202673
764592766,8.413145,28.109999,101224.0,1.2027086
764615871,8.661524,28.109999,101221.0,1.202673
764626410,8.82799,28.109999,101219.0,1.2026491
764636768,8.495057,28.109999,101223.0,1.2026967
764658760,8.413145,28.109999,101224.0,1.2027086
764670335,8.82799,28.109999,101219.0,1.2026491
764680762,8.82799,28.109999,101219.0,1.2026491
764704191,8.579612,28.119999,101222.0,1.2026848
764714327,8.495057,28.119999,101223.0,1.2026967
764725177,8.579612,28.119999,101222.0,1.2026848
764746769,8.912544,28.119999,101218.0,1.2026373
764757549,8.912544,28.119999,101218.0,1.2026373
764768859,8.82799,28.119999,101219.0,1.2026491
764792203,8.328591,28.119999,101225.0,1.2027204
764803324,8.246679,28.119999,101225.99,1.2027322
764813792,8.579612,28.119999,101222.0,1.2026848
764836899,8.495057,28.119999,101223.0,1.2026967
764848315,8.82799,28.119999,101219.0,1.2026491
764858760,9.07901,28.119999,101216.0,1.2026135
764880766,8.912544,28.13,101218.0,1.2026373
764892801,8.912544,28.13,101218.0,1.2026373
764904214,9.245476,28.13,101213.99,1.2025896
764925785,8.579612,28.13,101222.0,1.2026848
764937371,9.07901,28.13,101216.0,1.2026135
764949180,9.245476,28.13,101213.99,1.2025896
764970762,8.912544,28.119999,101218.0,1.2026373
764981587,9.33003,28.119999,101213.0,1.2025778
764993018,9.245476,28.119999,101213.99,1.2025896
765014762,8.746078,28.13,101219.99,1.2026609
765026344,9.07901,28.13,101216.0,1.2026135
765037718,8.82799,28.13,101219.0,1.2026491
765058772,8.912544,28.13,101218.0,1.2026373
765070366,8.912544,28.13,101218.0,1.2026373
765081022,8.997098,28.13,101217.0,1.2026254
765101896,9.4119425,28.13,101212.0,1.202566
765113475,9.245476,28.13,101213.99,1.2025896
765123769,9.07901,28.13,101216.0,1.2026135
765145074,9.245476,28.14,101213.99,1.2025896
765156324,9.245476,28.14,101213.99,1.2025896
765166768,9.33003,28.14,101213.0,1.2025778
765189522,9.4119425,28.14,101212.0,1.202566
765201505,9.245476,28.14,101213.99,1.2025896
765213716,9.4119425,28.14,101212.0,1.202566
765235870,9.163564,28.14,101215.0,1.2026017
765247316,9.578408,28.14,101210.0,1.2025422
765258080,9.4119425,28.14,101212.0,1.202566
765280763,8.912544,28.14,101218.0,1.2026373
765292323,9.07901,28.14,101216.0,1.2026135
765302792,8.997098,28.14,101217.0,1.2026254
765326845,8.746078,28.14,101219.99,1.2026609
765338719,9.33003,28.14,101213.0,1.2025778
765350657,9.245476,28.14,101213.99,1.2025896
765374649,9.496496,28.14,101211.0,1.2025541
765386810,9.496496,28.14,101211.0,1.2025541
765398585,9.662963,28.14,101209.0,1.2025304
765422658,9.245476,28.14,101213.99,1.2025896
765434654,9.4119425,28.14,101212.0,1.202566
765446679,9.662963,28.14,101209.0,1.2025304
765470688,9.4119425,28.15,101212.0,1.202566
765482676,9.4119425,28.15,101212.0,1.202566
765492843,10.162361,28.15,101203.0,1.2024591
765513817,9.4119425,28.15,101212.0,1.202566
765525372,9.744874,28.15,101207.99,1.2025183
765535531,9.578408,28.15,101210.0,1.2025422
765557788,10.077806,28.15,101204.0,1.2024709
765569358,9.496496,28.15,101211.0,1.2025541
765579890,9.662963,28.15,101209.0,1.2025304
765602968,9.829429,28.15,101207.0,1.2025065
765615112,9.995894,28.15,101205.0,1.2024828
765625762,9.662963,28.15,101209.0,1.2025304
765648861,9.496496,28.15,101211.0,1.2025541
765660315,9.662963,28.15,101209.0,1.2025304
765671505,9.744874,28.15,101207.99,1.2025183
765695507,9.496496,28.15,101211.0,1.2025541
765706615,9.829429,28.15,101207.0,1.2025065
765717767,9.744874,28.15,101207.99,1.2025183
765739781,9.829429,28.15,101207.0,1.2025065
765751985,9.911341,28.15,101206.0,1.2024947
765761802,9.829429,28.15,101207.0,1.2025065
765783624,9.744874,28.16,101207.99,1.2025183
765795477,9.744874,28.16,101207.99,1.2025183
765807566,9.911341,28.16,101206.0,1.2024947
765829772,9.829429,28.16,101207.0,1.2025065
765841355,10.077806,28.16,101204.0,1.2024709
765851773,9.911341,28.16,101206.0,1.2024947
765874876,9.662963,28.17,101209.0,1.2025304
765885498,9.829429,28.17,101207.0,1.2025065
765896765,9.995894,28.17,101205.0,1.2024828
765918761,9.911341,28.17,101206.0,1.2024947
765930336,9.744874,28.17,101207.99,1.2025183
765940763,9.744874,28.17,101207.99,1.2025183
765963780,10.077806,28.17,101204.0,1.2024709
765976015,10.410739,28.17,101200.0,1.2024235
765986806,9.995894,28.17,101205.0,1.2024828
766008414,9.744874,28.17,101207.99,1.2025183
766019398,10.162361,28.17,101203.0,1.2024591
766028858,9.578408,28.17,101210.0,1.2025422
766051769,10.162361,28.17,101203.0,1.2024591
766063925,10.328827,28.17,101200.99,1.2024353
766074770,10.246915,28.17,101201.99,1.202447
766096441,10.162361,28.18,101203.0,1.2024591
766107446,9.995894,28.18,101205.0,1.2024828
766117779,10.410739,28.18,101200.0,1.2024235
766139768,10.077806,28.18,101204.0,1.2024709
766151986,10.246915,28.18,101201.99,1.202447
766162773,10.410739,28.18,101200.0,1.2024235
766184773,9.995894,28.18,101205.0,1.2024828
766196329,10.410739,28.18,101200.0,1.2024235
766206774,10.162361,28.18,101203.0,1.2024591
766228769,10.162361,28.18,101203.0,1.2024591
766239317,10.410739,28.18,101200.0,1.2024235
766249779,10.746313,28.18,101196.0,1.2023759
766270761,10.077806,28.18,101204.0,1.2024709
766282345,10.410739,28.18,101200.0,1.2024235
766292864,10.410739,28.18,101200.0,1.2024235
766316224,10.661759,28.189999,101197.0,1.2023878
766327316,10.328827,28.189999,101200.99,1.2024353
766337050,10.077806,28.189999,101204.0,1.2024709
766357808,10.246915,28.199999,101201.99,1.202447
766369567,10.246915,28.199999,101201.99,1.202447
766380763,10.077806,28.199999,101204.0,1.2024709
766404209,10.162361,28.199999,101203.0,1.2024591
766415324,10.246915,28.199999,101201.99,1.202447
766425779,10.162361,28.199999,101203.0,1.2024591
766448808,10.495294,28.199999,101199.0,1.2024115
766459363,10.162361,28.199999,101203.0,1.2024591
766469779,10.162361,28.199999,101203.0,1.2024591
766492230,10.162361,28.199999,101203.0,1.2024591
766503329,10.410739,28.199999,101200.0,1.2024235
766513936,10.077806,28.199999,101204.0,1.2024709
766534762,10.077806,28.199999,101204.0,1.2024709
766545913,10.828225,28.199999,101194.99,1.202364
766555776,10.328827,28.199999,101200.99,1.2024353
766577850,10.410739,28.199999,101200.0,1.2024235
766589630,10.246915,28.199999,101201.99,1.202447
766601786,10.579847,28.199999,101198.0,1.2023996
766622760,10.746313,28.199999,101196.0,1.2023759
766634337,10.579847,28.199999,101198.0,1.2023996
766645111,10.828225,28.199999,101194.99,1.202364
766665858,10.246915,28.199999,101201.99,1.202447
766677373,10.661759,28.199999,101197.0,1.2023878
766687759,10.495294,28.199999,101199.0,1.2024115
766709370,10.579847,28.21,101198.0,1.2023996
766721715,10.579847,28.21,101198.0,1.2023996
766733025,10.328827,28.21,101200.99,1.2024353
766753954,10.328827,28.21,101200.99,1.2024353
766766324,10.410739,28.21,101200.0,1.2024235
766776162,10.91278,28.21,101194.0,1.2023522
766798466,10.328827,28.21,101200.99,1.2024353
766811174,10.91278,28.21,101194.0,1.2023522
766821059,11.079246,28.21,101192.0,1.2023283
766843098,11.079246,28.21,101192.0,1.2023283
766855513,10.994692,28.21,101193.0,1.2023402
766867269,10.828225,28.21,101194.99,1.202364
766891141,10.246915,28.22,101201.99,1.202447
766903514,10.828225,28.22,101194.99,1.202364
766915137,11.245712,28.22,101190.0,1.2023046
766939141,11.1638,28.21,101191.0,1.2023165
766951513,10.579847,28.21,101198.0,1.2023996
766962946,11.079246,28.21,101192.0,1.2023283
766986760,10.410739,28.22,101200.0,1.2024235
766998696,10.410739,28.22,101200.0,1.2024235
767010607,10.746313,28.22,101196.0,1.2023759
767032762,10.994692,28.21,101193.0,1.2023402
767044313,10.994692,28.21,101193.0,1.2023402
767054761,10.994692,28.21,101193.0,1.2023402
767077759,10.91278,28.21,101194.0,1.2023522
767089368,11.079246,28.21,101192.0,1.2023283
767099761,11.079246,28.21,101192.0,1.2023283
767121808,10.746313,28.22,101196.0,1.2023759
767133473,11.1638,28.22,101191.0,1.2023165
767144769,10.91278,28.22,101194.0,1.2023522
767167447,10.746313,28.22,101196.0,1.2023759
767178634,11.079246,28.22,101192.0,1.2023283
767189760,10.994692,28.22,101193.0,1.2023402
767211762,10.661759,28.22,101197.0,1.2023878
767224039,10.994692,28.22,101193.0,1.2023402
767233759,11.1638,28.22,101191.0,1.2023165
767255872,10.746313,28.23,101196.0,1.2023759
767268296,10.661759,28.23,101197.0,1.2023878
767278050,11.079246,28.23,101192.0,1.2023283
767301774,11.496733,28.22,101187.0,1.202269
767312796,10.828225,28.22,101194.99,1.202364
767323266,11.245712,28.22,101190.0,1.2023046
767346598,10.91278,28.23,101194.0,1.2023522
767359165,10.994692,28.23,101193.0,1.2023402
767369053,10.746313,28.23,101196.0,1.2023759
767391887,11.079246,28.23,101192.0,1.2023283
767404315,11.1638,28.23,101191.0,1.2023165
767414053,11.079246,28.23,101192.0,1.2023283
767437789,10.746313,28.24,101196.0,1.2023759
767449535,11.079246,28.24,101192.0,1.2023283
767460763,11.330266,28.24,101188.99,1.2022926
767482813,11.079246,28.23,101192.0,1.2023283
767494331,11.079246,28.23,101192.0,1.2023283
767504761,11.412178,28.23,101188.0,1.2022809
767526811,11.1638,28.24,101191.0,1.2023165
767538369,11.079246,28.24,101192.0,1.2023283
767548763,11.412178,28.24,101188.0,1.2022809
767570761,10.828225,28.24,101194.99,1.202364
767581391,11.412178,28.24,101188.0,1.2022809
767592356,11.245712,28.24,101190.0,1.2023046
767613805,11.079246,28.24,101192.0,1.2023283
767625374,10.746313,28.24,101196.0,1.2023759
767636474,11.578644,28.24,101186.0,1.202257
767658466,11.245712,28.24,101190.0,1.2023046
767669478,12.078043,28.24,101180.0,1.2021858
767680465,11.245712,28.24,101190.0,1.2023046
767701473,11.496733,28.25,101187.0,1.202269
767711973,11.496733,28.25,101187.0,1.202269
767722776,11.245712,28.25,101190.0,1.2023046
767744195,11.245712,28.25,101190.0,1.2023046
767755315,11.578644,28.25,101186.0,1.202257
767764768,11.412178,28.25,101188.0,1.2022809
767785762,11.7451105,28.26,101184.0,1.2022333
767796320,11.496733,28.26,101187.0,1.202269
767806760,11.829664,28.26,101182.99,1.2022213
767828760,11.412178,28.26,101188.0,1.2022809
767840795,11.578644,28.26,101186.0,1.202257
767850760,11.911576,28.26,101182.0,1.2022096
767872979,11.663198,28.26,101185.0,1.2022452
767885503,11.829664,28.26,101182.99,1.2022213
767897010,11.496733,28.26,101187.0,1.202269
767919064,11.7451105,28.26,101184.0,1.2022333
767931179,11.496733,28.26,101187.0,1.202269
767941065,11.7451105,28.26,101184.0,1.2022333
767964479,11.245712,28.26,101190.0,1.2023046
767976877,11.663198,28.26,101185.0,1.2022452
767988189,11.245712,28.26,101190.0,1.2023046
768009125,11.663198,28.26,101185.0,1.2022452
768021206,11.496733,28.26,101187.0,1.202269
768031073,11.412178,28.26,101188.0,1.2022809
768053063,11.578644,28.269999,101186.0,1.202257
768065704,11.496733,28.269999,101187.0,1.202269
768077092,11.911576,28.269999,101182.0,1.2022096
768097962,11.496733,28.269999,101187.0,1.202269
768110298,11.829664,28.269999,101182.99,1.2022213
768120168,11.7451105,28.269999,101184.0,1.2022333
768142075,11.496733,28.269999,101187.0,1.202269
768154499,11.330266,28.269999,101188.99,1.2022926
768165385,11.496733,28.269999,101187.0,1.202269
768189043,11.663198,28.269999,101185.0,1.2022452
768200322,11.829664,28.269999,101182.99,1.2022213
768210036,11.7451105,28.269999,101184.0,1.2022333
768232149,11.663198,28.269999,101185.0,1.2022452
768243170,11.996131,28.269999,101181.0,1.2021977
768253403,11.829664,28.269999,101182.99,1.2022213
768277110,11.7451105,28.269999,101184.0,1.2022333
768288322,11.7451105,28.269999,101184.0,1.2022333
768298051,11.829664,28.269999,101182.99,1.2022213
768322026,11.578644,28.279999,101186.0,1.202257
768334305,11.412178,28.279999,101188.0,1.2022809
768344155,11.7451105,28.279999,101184.0,1.2022333
768366579,11.245712,28.279999,101190.0,1.2023046
768379190,11.829664,28.279999,101182.99,1.2022213
768389055,11.578644,28.279999,101186.0,1.202257
768411141,11.829664,28.279999,101182.99,1.2022213
768423494,11.7451105,28.279999,101184.0,1.2022333
768435140,11.496733,28.279999,101187.0,1.202269
768459095,11.412178,28.279999,101188.0,1.2022809
768471490,11.245712,28.279999,101190.0,1.2023046
768483139,11.829664,28.279999,101182.99,1.2022213
768507139,11.663198,28.279999,101185.0,1.2022452
768519502,11.496733,28.279999,101187.0,1.202269
768530845,11.663198,28.279999,101185.0,1.2022452
768554762,11.663198,28.279999,101185.0,1.2022452
768566821,11.496733,28.279999,101187.0,1.202269
768578606,11.496733,28.279999,101187.0,1.202269
768600763,11.578644,28.279999,101186.0,1.202257
768612316,11.496733,28.279999,101187.0,1.202269
768622764,11.578644,28.279999,101186.0,1.202257
768645770,11.496733,28.279999,101187.0,1.202269
768657369,11.412178,28.279999,101188.0,1.2022809
768667877,11.911576,28.279999,101182.0,1.2022096
768689805,11.663198,28.279999,101185.0,1.2022452
768701472,12.078043,28.279999,101180.0,1.2021858
768712761,11.996131,28.279999,101181.0,1.2021977
768735498,11.911576,28.289999,101182.0,1.2022096
768746621,11.578644,28.289999,101186.0,1.202257
768757771,11.578644,28.289999,101186.0,1.202257
768779779,11.829664,28.289999,101182.99,1.2022213
768791989,11.911576,28.289999,101182.0,1.2022096
768801768,11.996131,28.289999,101181.0,1.2021977
768824769,11.829664,28.289999,101182.99,1.2022213
768836323,11.911576,28.289999,101182.0,1.2022096
768847650,11.829664,28.289999,101182.99,1.2022213
768869764,11.7451105,28.289999,101184.0,1.2022333
768881513,11.578644,28.289999,101186.0,1.202257
768892986,11.7451105,28.289999,101184.0,1.2022333
768913799,11.829664,28.3,101182.99,1.2022213
768925533,11.496733,28.3,101187.0,1.202269
768936870,11.496733,28.3,101187.0,1.202269
768959635,11.496733,28.3,101187.0,1.202269
768970634,11.996131,28.3,101181.0,1.2021977
768981768,11.496733,28.3,101187.0,1.202269
769004461,11.663198,28.3,101185.0,1.2022452
769015396,11.7451105,28.3,101184.0,1.2022333
769025778,11.911576,28.3,101182.0,1.2022096
769047404,11.245712,28.31,101190.0,1.2023046
769059981,11.7451105,28.31,101184.0,1.2022333
769070758,11.7451105,28.31,101184.0,1.2022333
769092856,11.1638,28.31,101191.0,1.2023165
769104316,11.7451105,28.31,101184.0,1.2022333
769114759,11.496733,28.31,101187.0,1.202269
769136164,11.7451105,28.31,101184.0,1.2022333
769148315,11.578644,28.31,101186.0,1.202257
769158759,11.911576,28.31,101182.0,1.2022096
769180872,11.911576,28.31,101182.0,1.2022096
769192315,11.496733,28.31,101187.0,1.202269
769201809,11.496733,28.31,101187.0,1.202269
769223417,11.7451105,28.32,101184.0,1.2022333
769236026,11.663198,28.32,101185.0,1.2022452
769246770,11.330266,28.32,101188.99,1.2022926
769268761,11.663198,28.32,101185.0,1.2022452
769280317,11.663198,28.32,101185.0,1.2022452
769290762,11.996131,28.32,101181.0,1.2021977
769312761,11.7451105,28.32,101184.0,1.2022333
769324761,11.7451105,28.32,101184.0,1.2022333
769336220,11.412178,28.32,101188.0,1.2022809
769357816,11.578644,28.32,101186.0,1.202257
769369372,11.330266,28.32,101188.99,1.2022926
769380775,11.911576,28.32,101182.0,1.2022096
769402808,11.7451105,28.32,101184.0,1.2022333
769414333,11.578644,28.32,101186.0,1.202257
769424763,11.7451105,28.32,101184.0,1.2022333
769445790,11.663198,28.32,101185.0,1.2022452
769456356,11.496733,28.32,101187.0,1.202269
769466761,12.078043,28.32,101180.0,1.2021858
769488762,11.496733,28.32,101187.0,1.202269
769500736,11.663198,28.32,101185.0,1.2022452
769510763,12.078043,28.32,101180.0,1.2021858
769533183,11.578644,28.33,101186.0,1.202257
769544432,11.412178,28.33,101188.0,1.2022809
769554767,11.911576,28.33,101182.0,1.2022096
769576573,11.7451105,28.33,101184.0,1.2022333
769588691,12.078043,28.33,101180.0,1.2021858
769600200,11.911576,28.33,101182.0,1.2022096
769621181,11.829664,28.33,101182.99,1.2022213
769633373,12.162597,28.33,101179.0,1.202174
769643078,11.829664,28.33,101182.99,1.2022213
769666080,11.7451105,28.34,101184.0,1.2022333
769678489,11.663198,28.34,101185.0,1.2022452
769689364,11.412178,28.34,101188.0,1.2022809
769713007,11.663198,28.34,101185.0,1.2022452
769724314,11.412178,28.34,101188.0,1.2022809
769733979,11.245712,28.34,101190.0,1.2023046
769756070,11.829664,28.34,101182.99,1.2022213
769767278,11.829664,28.34,101182.99,1.2022213
769777362,11.578644,28.34,101186.0,1.202257
769798296,12.078043,28.34,101180.0,1.2021858
769809227,11.7451105,28.34,101184.0,1.2022333
769819091,11.829664,28.34,101182.99,1.2022213
769841362,11.911576,28.34,101182.0,1.2022096
769853559,11.829664,28.34,101182.99,1.2022213
769865088,11.996131,28.34,101181.0,1.2021977
769885860,11.578644,28.34,101186.0,1.202257
769899208,11.7451105,28.34,101184.0,1.2022333
769909051,12.329063,28.34,101176.99,1.20215
769931081,11.7451105,28.34,101184.0,1.2022333
769943483,12.078043,28.34,101180.0,1.2021858
769954762,12.078043,28.34,101180.0,1.2021858
769978625,12.078043,28.34,101180.0,1.2021858
769989877,12.413617,28.34,101175.99,1.2021382
770000854,11.663198,28.34,101185.0,1.2022452
770022760,11.996131,28.349998,101181.0,1.2021977
770035206,12.078043,28.349998,101180.0,1.2021858
770046165,12.247151,28.349998,101178.0,1.202162
770068975,11.829664,28.349998,101182.99,1.2022213
770079604,11.911576,28.349998,101182.0,1.2022096
770091141,11.911576,28.349998,101182.0,1.2022096
770115094,11.996131,28.349998,101181.0,1.2021977
770127770,12.078043,28.349998,101180.0,1.2021858
770138970,11.7451105,28.349998,101184.0,1.2022333
770162761,11.7451105,28.349998,101184.0,1.2022333
770174705,11.829664,28.349998,101182.99,1.2022213
770186700,11.911576,28.349998,101182.0,1.2022096
770208760,11.996131,28.349998,101181.0,1.2021977
770220324,11.829664,28.349998,101182.99,1.2022213
770230957,11.911576,28.349998,101182.0,1.2022096
770253761,11.578644,28.359999,101186.0,1.202257
770265355,12.329063,28.359999,101176.99,1.20215
770275912,11.911576,28.359999,101182.0,1.2022096
770297805,12.078043,28.349998,101180.0,1.2021858
770309354,12.413617,28.349998,101175.99,1.2021382
770318968,11.829664,28.349998,101182.99,1.2022213
770339889,11.412178,28.359999,101188.0,1.2022809
770351440,12.413617,28.359999,101175.99,1.2021382
770363311,12.329063,28.359999,101176.99,1.20215
770384467,11.829664,28.359999,101182.99,1.2022213
770395091,12.413617,28.359999,101175.99,1.2021382
770405477,12.580083,28.359999,101174.0,1.2021145
770426052,11.996131,28.369999,101181.0,1.2021977
770438637,12.329063,28.369999,101176.99,1.20215
770449057,12.329063,28.369999,101176.99,1.20215
770471281,11.996131,28.369999,101181.0,1.2021977
770483988,12.078043,28.369999,101180.0,1.2021858
770494058,12.162597,28.369999,101179.0,1.202174
770517769,11.7451105,28.369999,101184.0,1.2022333
770529354,12.162597,28.369999,101179.0,1.202174
770539769,12.413617,28.369999,101175.99,1.2021382
770561766,11.996131,28.369999,101181.0,1.2021977
770573371,12.413617,28.369999,101175.99,1.2021382
770583769,11.996131,28.369999,101181.0,1.2021977
770606762,11.996131,28.369999,101181.0,1.2021977
770618316,12.247151,28.369999,101178.0,1.202162
770628771,12.329063,28.369999,101176.99,1.20215
770649775,12.329063,28.369999,101176.99,1.20215
770661491,12.413617,28.369999,101175.99,1.2021382
770672870,12.078043,28.369999,101180.0,1.2021858
770694759,12.162597,28.38,101179.0,1.202174
770705369,12.329063,28.38,101176.99,1.20215
770717050,12.078043,28.38,101180.0,1.2021858
770737790,12.247151,28.38,101178.0,1.202162
770749370,11.996131,28.38,101181.0,1.2021977
770759766,12.247151,28.38,101178.0,1.202162
