timestamp,baro_alt_meter,baro_temp_celcius,baro_pressure_pa,rho
253786184,-73.34022,32.329998,102209.0,1.214412
253797445,-73.34022,32.329998,102209.0,1.214412
253807787,-73.1764,32.329998,102207.0,1.2143883
253829789,-73.09184,32.329998,102206.0,1.2143763
253841895,-73.50404,32.329998,102211.0,1.2144358
253853381,-72.75891,32.329998,102201.99,1.2143288
253874200,-73.424774,32.329998,102210.0,1.2144239
253884362,-73.66787,32.329998,102213.0,1.2144595
253894245,-73.25567,32.329998,102207.99,1.2144
253915004,-73.50404,32.34,102211.0,1.2144358
253926415,-73.5886,32.34,102212.0,1.2144476
253935829,-73.5886,32.34,102212.0,1.2144476
253956828,-73.752426,32.329998,102213.99,1.2144713
253968350,-73.09184,32.329998,102206.0,1.2143763
253978706,-73.34022,32.329998,102209.0,1.214412
253998897,-73.1764,32.34,102207.0,1.2143883
254011667,-73.424774,32.34,102210.0,1.2144239
254021787,-73.424774,32.34,102210.0,1.2144239
254043770,-73.50404,32.329998,102211.0,1.2144358
254055851,-73.007286,32.329998,102205.0,1.2143645
254067795,-73.25567,32.329998,102207.99,1.2144
254088809,-72.84347,32.329998,102203.0,1.2143407
254100350,-73.1764,32.329998,102207.0,1.2143883
254111353,-72.67964,32.329998,102200.99,1.2143168
254131760,-73.25567,32.329998,102207.99,1.2144
254143006,-73.25567,32.329998,102207.99,1.2144
254152811,-73.09184,32.329998,102206.0,1.2143763
254174840,-73.1764,32.34,102207.0,1.2143883
254185396,-73.752426,32.34,102213.99,1.2144713
254196566,-73.1764,32.34,102207.0,1.2143883
254218831,-73.50404,32.34,102211.0,1.2144358
254229349,-73.34022,32.34,102209.0,1.214412
254240181,-73.50404,32.34,102211.0,1.2144358
254260609,-73.5886,32.329998,102212.0,1.2144476
254272658,-73.25567,32.329998,102207.99,1.2144
254282835,-73.424774,32.329998,102210.0,1.2144239
254303787,-73.09184,32.329998,102206.0,1.2143763
254314406,-73.09184,32.329998,102206.0,1.2143763
254325349,-73.50404,32.329998,102211.0,1.2144358
254347785,-73.50404,32.329998,102211.0,1.2144358
254359398,-73.424774,32.329998,102210.0,1.2144239
254369789,-73.25567,32.329998,102207.99,1.2144
254390846,-73.424774,32.329998,102210.0,1.2144239
254401462,-73.916245,32.329998,102216.0,1.2144952
254411788,-73.50404,32.329998,102211.0,1.2144358
254433390,-73.1764,32.329998,102207.0,1.2143883
254443386,-73.836975,32.329998,102215.0,1.2144833
254453919,-73.1764,32.329998,102207.0,1.2143883
254473796,-73.25567,32.329998,102207.99,1.2144
254485894,-73.50404,32.329998,102211.0,1.2144358
254495796,-73.25567,32.329998,102207.99,1.2144
254518281,-73.66787,32.329998,102213.0,1.2144595
254529403,-73.34022,32.329998,102209.0,1.214412
254538883,-73.34022,32.329998,102209.0,1.214412
254562789,-73.1764,32.329998,102207.0,1.2143883
254574418,-73.34022,32.329998,102209.0,1.214412
254583785,-73.5886,32.329998,102212.0,1.2144476
254604792,-73.5886,32.329998,102212.0,1.2144476
254615407,-73.1764,32.329998,102207.0,1.2143883
254626840,-73.66787,32.329998,102213.0,1.2144595
254646843,-73.50404,32.329998,102211.0,1.2144358
254658728,-73.50404,32.329998,102211.0,1.2144358
254670248,-73.5886,32.329998,102212.0,1.2144476
254691886,-73.752426,32.329998,102213.99,1.2144713
254703856,-73.5886,32.329998,102212.0,1.2144476
254715907,-73.424774,32.329998,102210.0,1.2144239
254737797,-73.66787,32.329998,102213.0,1.2144595
254748408,-73.916245,32.329998,102216.0,1.2144952
254759355,-73.1764,32.329998,102207.0,1.2143883
254779749,-73.50404,32.329998,102211.0,1.2144358
254791851,-73.5886,32.329998,102212.0,1.2144476
254803866,-73.34022,32.329998,102209.0,1.214412
254825787,-73.1764,32.329998,102207.0,1.2143883
254837345,-73.25567,32.329998,102207.99,1.2144
254846836,-73.50404,32.329998,102211.0,1.2144358
254868601,-73.66787,32.329998,102213.0,1.2144595
254879859,-73.25567,32.329998,102207.99,1.2144
254889955,-73.50404,32.329998,102211.0,1.2144358
254910869,-73.50404,32.329998,102211.0,1.2144358
254922396,-73.424774,32.329998,102210.0,1.2144239
254932599,-73.424774,32.329998,102210.0,1.2144239
254954846,-73.424774,32.329998,102210.0,1.2144239
254966407,-73.836975,32.329998,102215.0,1.2144833
254975785,-73.34022,32.329998,102209.0,1.214412
254997790,-73.25567,32.329998,102207.99,1.2144
255009460,-73.424774,32.329998,102210.0,1.2144239
255019787,-73.25567,32.329998,102207.99,1.2144
255041788,-73.25567,32.329998,102207.99,1.2144
255053925,-73.09184,32.329998,102206.0,1.2143763
255064959,-73.66787,32.329998,102213.0,1.2144595
255086844,-73.752426,32.329998,102213.99,1.2144713
255097436,-73.66787,32.329998,102213.0,1.2144595
255107786,-73.34022,32.329998,102209.0,1.214412
255129789,-73.836975,32.329998,102215.0,1.2144833
255141881,-73.424774,32.329998,102210.0,1.2144239
255153414,-73.09184,32.329998,102206.0,1.2143763
255173999,-73.836975,32.32,102215.0,1.2144833
255185460,-73.424774,32.32,102210.0,1.2144239
255195787,-73.752426,32.32,102213.99,1.2144713
255218781,-73.66787,32.329998,102213.0,1.2144595
255230441,-73.5886,32.329998,102212.0,1.2144476
255241914,-72.92802,32.329998,102204.0,1.2143526
255262599,-73.66787,32.329998,102213.0,1.2144595
255273490,-73.50404,32.329998,102211.0,1.2144358
255284498,-73.34022,32.329998,102209.0,1.214412
255306912,-73.25567,32.329998,102207.99,1.2144
255316490,-73.5886,32.329998,102212.0,1.2144476
255327497,-73.1764,32.329998,102207.0,1.2143883
255349489,-73.34022,32.329998,102209.0,1.214412
255360491,-73.836975,32.329998,102215.0,1.2144833
255371644,-73.836975,32.329998,102215.0,1.2144833
255392491,-74.08536,32.32,102218.0,1.2145189
255403556,-73.1764,32.32,102207.0,1.2143883
255413490,-73.1764,32.32,102207.0,1.2143883
255435492,-73.34022,32.329998,102209.0,1.214412
255447070,-73.424774,32.329998,102210.0,1.2144239
255457496,-73.752426,32.329998,102213.99,1.2144713
255477492,-73.916245,32.329998,102216.0,1.2144952
255487825,-72.92802,32.329998,102204.0,1.2143526
255498836,-73.5886,32.329998,102212.0,1.2144476
255521786,-74.0008,32.329998,102217.0,1.2145071
255533345,-73.66787,32.329998,102213.0,1.2144595
255544138,-73.752426,32.329998,102213.99,1.2144713
255564569,-73.5886,32.32,102212.0,1.2144476
255575789,-73.34022,32.32,102209.0,1.214412
255585788,-73.424774,32.32,102210.0,1.2144239
255606899,-73.424774,32.329998,102210.0,1.2144239
255617462,-73.836975,32.329998,102215.0,1.2144833
255627794,-73.424774,32.329998,102210.0,1.2144239
255648960,-73.66787,32.32,102213.0,1.2144595
255661087,-73.424774,32.32,102210.0,1.2144239
255671788,-73.424774,32.32,102210.0,1.2144239
255691787,-73.424774,32.329998,102210.0,1.2144239
255702421,-73.424774,32.329998,102210.0,1.2144239
255712950,-73.836975,32.329998,102215.0,1.2144833
255735788,-73.752426,32.329998,102213.99,1.2144713
255747392,-73.34022,32.329998,102209.0,1.214412
255758149,-73.752426,32.329998,102213.99,1.2144713
255777797,-73.5886,32.32,102212.0,1.2144476
255789961,-73.34022,32.32,102209.0,1.214412
255799787,-73.1764,32.32,102207.0,1.2143883
255821925,-73.66787,32.329998,102213.0,1.2144595
255832343,-73.25567,32.329998,102207.99,1.2144
255841932,-73.50404,32.329998,102211.0,1.2144358
255865421,-73.5886,32.329998,102212.0,1.2144476
255876349,-73.66787,32.329998,102213.0,1.2144595
255886838,-73.34022,32.329998,102209.0,1.214412
255908801,-73.50404,32.32,102211.0,1.2144358
255920350,-73.50404,32.32,102211.0,1.2144358
255931207,-73.34022,32.32,102209.0,1.214412
255952794,-73.66787,32.32,102213.0,1.2144595
255964356,-73.34022,32.32,102209.0,1.214412
255974196,-73.25567,32.32,102207.99,1.2144
255995789,-73.752426,32.32,102213.99,1.2144713
256007394,-73.916245,32.32,102216.0,1.2144952
256016808,-73.50404,32.32,102211.0,1.2144358
256037788,-73.50404,32.32,102211.0,1.2144358
256048353,-74.08536,32.32,102218.0,1.2145189
256059744,-73.424774,32.32,102210.0,1.2144239
256083719,-74.16463,32.32,102219.0,1.2145308
256095849,-73.25567,32.32,102207.99,1.2144
256108006,-73.66787,32.32,102213.0,1.2144595
256131987,-73.424774,32.32,102210.0,1.2144239
256143032,-73.34022,32.32,102209.0,1.214412
256153922,-73.66787,32.32,102213.0,1.2144595
256174880,-73.66787,32.32,102213.0,1.2144595
256185358,-73.50404,32.32,102211.0,1.2144358
256196808,-73.66787,32.32,102213.0,1.2144595
256218835,-73.50404,32.309998,102211.0,1.2144358
256229351,-73.1764,32.309998,102207.0,1.2143883
256240178,-73.424774,32.309998,102210.0,1.2144239
256261791,-73.916245,32.32,102216.0,1.2144952
256272658,-74.0008,32.32,102217.0,1.2145071
256282836,-73.752426,32.32,102213.99,1.2144713
256303787,-73.752426,32.32,102213.99,1.2144713
256314412,-73.34022,32.32,102209.0,1.214412
256324948,-73.50404,32.32,102211.0,1.2144358
256346831,-73.5886,32.32,102212.0,1.2144476
256358414,-74.49756,32.32,102223.0,1.2145784
256369378,-73.424774,32.32,102210.0,1.2144239
256390853,-73.836975,32.32,102215.0,1.2144833
256401882,-73.25567,32.32,102207.99,1.2144
256411786,-73.5886,32.32,102212.0,1.2144476
256433979,-73.916245,32.32,102216.0,1.2144952
256445463,-73.916245,32.32,102216.0,1.2144952
256455788,-73.66787,32.32,102213.0,1.2144595
256477422,-73.752426,32.32,102213.99,1.2144713
256487444,-73.34022,32.32,102209.0,1.214412
256498145,-73.424774,32.32,102210.0,1.2144239
256518840,-73.66787,32.32,102213.0,1.2144595
256530045,-74.413,32.32,102222.0,1.2145665
256539788,-74.0008,32.32,102217.0,1.2145071
256560801,-73.66787,32.32,102213.0,1.2144595
256571761,-72.92802,32.32,102204.0,1.2143526
256582187,-73.34022,32.32,102209.0,1.214412
256603049,-73.5886,32.32,102212.0,1.2144476
256613390,-73.25567,32.32,102207.99,1.2144
256623786,-73.09184,32.32,102206.0,1.2143763
256644806,-73.66787,32.32,102213.0,1.2144595
256655450,-73.66787,32.32,102213.0,1.2144595
256666804,-73.50404,32.32,102211.0,1.2144358
256689798,-73.50404,32.32,102211.0,1.2144358
256701353,-73.836975,32.32,102215.0,1.2144833
256711364,-73.66787,32.32,102213.0,1.2144595
256731748,-73.752426,32.32,102213.99,1.2144713
256743025,-73.5886,32.32,102212.0,1.2144476
256752816,-73.836975,32.32,102215.0,1.2144833
256773787,-73.424774,32.32,102210.0,1.2144239
256785344,-73.424774,32.32,102210.0,1.2144239
256795820,-73.34022,32.32,102209.0,1.214412
256817790,-73.916245,32.32,102216.0,1.2144952
256829345,-73.916245,32.32,102216.0,1.2144952
256838838,-73.50404,32.32,102211.0,1.2144358
256860586,-74.16463,32.32,102219.0,1.2145308
256872656,-73.916245,32.32,102216.0,1.2144952
256884616,-74.08536,32.32,102218.0,1.2145189
256908538,-74.8252,32.32,102226.99,1.2146257
256920821,-74.90976,32.32,102228.0,1.2146378
256932644,-75.32196,32.32,102232.99,1.2146971
256954835,-75.903275,32.309998,102240.0,1.2147803
256965903,-75.24269,32.309998,102232.0,1.2146853
256975783,-74.8252,32.309998,102226.99,1.2146257
256995786,-74.8252,32.309998,102226.99,1.2146257
257006407,-74.16463,32.309998,102219.0,1.2145308
257015786,-74.8252,32.309998,102226.99,1.2146257
257037788,-74.33373,32.32,102221.0,1.2145545
257049462,-74.33373,32.32,102221.0,1.2145545
257061195,-74.33373,32.32,102221.0,1.2145545
257082541,-73.66787,32.32,102213.0,1.2144595
257092489,-73.1764,32.32,102207.0,1.2143883
257103497,-73.50404,32.32,102211.0,1.2144358
257125836,-74.49756,32.32,102223.0,1.2145784
257136489,-72.75891,32.32,102201.99,1.2143288
257146540,-72.84347,32.32,102203.0,1.2143407
257168491,-72.43127,32.32,102198.0,1.2142813
257179494,-72.92802,32.32,102204.0,1.2143526
257189992,-73.1764,32.32,102207.0,1.2143883
257211490,-73.5886,32.309998,102212.0,1.2144476
257222550,-72.92802,32.309998,102204.0,1.2143526
257232498,-72.51054,32.309998,102199.0,1.2142932
257252792,-72.75891,32.32,102201.99,1.2143288
257264349,-72.595085,32.32,102200.0,1.214305
257274954,-72.84347,32.32,102203.0,1.2143407
257295786,-72.75891,32.32,102201.99,1.2143288
257307493,-73.34022,32.32,102209.0,1.214412
257318885,-72.92802,32.32,102204.0,1.2143526
257341787,-72.84347,32.309998,102203.0,1.2143407
257352345,-72.43127,32.309998,102198.0,1.2142813
257363821,-72.43127,32.309998,102198.0,1.2142813
257384809,-72.182884,32.309998,102194.99,1.2142456
257396391,-72.67964,32.309998,102200.99,1.2143168
257405796,-73.25567,32.309998,102207.99,1.2144
257427804,-72.67964,32.32,102200.99,1.2143168
257439007,-72.595085,32.32,102200.0,1.214305
257448816,-72.26744,32.32,102196.0,1.2142575
257469788,-72.595085,32.309998,102200.0,1.214305
257481345,-72.34671,32.309998,102197.0,1.2142694
257490836,-72.26744,32.309998,102196.0,1.2142575
257510826,-72.51054,32.309998,102199.0,1.2142932
257521758,-72.09833,32.309998,102194.0,1.2142338
257532836,-71.18937,32.309998,102182.99,1.214103
257556848,-71.18937,32.309998,102182.99,1.214103
257569770,-71.84995,32.309998,102191.0,1.2141981
257580815,-71.18937,32.309998,102182.99,1.214103
257604568,-72.67964,32.309998,102200.99,1.2143168
257616604,-71.93451,32.309998,102192.0,1.21421
257627788,-71.353195,32.309998,102185.0,1.2141268
257649791,-71.60158,32.309998,102188.0,1.2141625
257661162,-71.84995,32.309998,102191.0,1.2141981
257670839,-72.26744,32.309998,102196.0,1.2142575
257693431,-71.43775,32.309998,102186.0,1.2141387
257704610,-71.77068,32.309998,102190.0,1.2141862
257715785,-72.34671,32.309998,102197.0,1.2142694
257736955,-71.52231,32.309998,102187.0,1.2141505
257747408,-71.60158,32.309998,102188.0,1.2141625
257758010,-71.84995,32.309998,102191.0,1.2141981
257777795,-71.43775,32.309998,102186.0,1.2141387
257789919,-71.52231,32.309998,102187.0,1.2141505
257799795,-71.273926,32.309998,102184.0,1.2141149
257821926,-71.43775,32.309998,102186.0,1.2141387
257833399,-70.940994,32.309998,102180.0,1.2140675
257842887,-71.10482,32.309998,102182.0,1.2140912
257865791,-71.02555,32.309998,102181.0,1.2140793
257877343,-70.77717,32.309998,102178.0,1.2140436
257887020,-71.273926,32.309998,102184.0,1.2141149
257907788,-71.353195,32.309998,102185.0,1.2141268
257919850,-70.52879,32.309998,102175.0,1.214008
257930250,-70.940994,32.309998,102180.0,1.2140675
257951014,-70.60806,32.309998,102175.99,1.2140198
257962415,-71.02555,32.309998,102181.0,1.2140793
257971786,-70.940994,32.309998,102180.0,1.2140675
257994185,-71.52231,32.309998,102187.0,1.2141505
258005343,-70.52879,32.309998,102175.0,1.214008
258015355,-70.861725,32.309998,102179.0,1.2140555
258037794,-70.52879,32.309998,102175.0,1.214008
258049352,-70.77717,32.309998,102178.0,1.2140436
258059805,-71.18937,32.309998,102182.99,1.214103
258080811,-71.52231,32.309998,102187.0,1.2141505
258092352,-71.02555,32.309998,102181.0,1.2140793
258103351,-70.861725,32.309998,102179.0,1.2140555
258124499,-70.69262,32.309998,102176.99,1.2140317
258136346,-71.273926,32.309998,102184.0,1.2141149
258146836,-70.36497,32.309998,102173.0,1.2139843
258168810,-71.02555,32.309998,102181.0,1.2140793
258180362,-71.10482,32.309998,102182.0,1.2140912
258189797,-70.60806,32.309998,102175.99,1.2140198
258210832,-70.11659,32.309998,102169.99,1.2139485
258221883,-70.69262,32.309998,102176.99,1.2140317
258232150,-70.60806,32.309998,102175.99,1.2140198
258252596,-70.52879,32.309998,102175.0,1.214008
258264666,-70.52879,32.309998,102175.0,1.214008
258274842,-70.60806,32.309998,102175.99,1.2140198
258296936,-70.69262,32.309998,102176.99,1.2140317
258309908,-69.619835,32.309998,102163.99,1.2138772
258319797,-70.28042,32.309998,102172.0,1.2139723
258341336,-69.699104,32.309998,102165.0,1.2138892
258352590,-70.36497,32.309998,102173.0,1.2139843
258363832,-70.032036,32.309998,102169.0,1.2139367
258384955,-70.11659,32.309998,102169.99,1.2139485
258395397,-70.19586,32.309998,102171.0,1.2139605
258405956,-69.94748,32.309998,102168.0,1.2139249
258427787,-69.86821,32.309998,102167.0,1.213913
258439391,-70.11659,32.309998,102169.99,1.2139485
258449391,-69.699104,32.309998,102165.0,1.2138892
258470258,-70.11659,32.309998,102169.99,1.2139485
258480344,-69.78366,32.309998,102166.0,1.213901
258490866,-70.032036,32.309998,102169.0,1.2139367
258513800,-70.19586,32.309998,102171.0,1.2139605
258524354,-69.619835,32.309998,102163.99,1.2138772
258534155,-69.78366,32.309998,102166.0,1.213901
258554579,-70.032036,32.309998,102169.0,1.2139367
258567493,-70.44424,32.309998,102174.0,1.2139962
258578225,-69.619835,32.309998,102163.99,1.2138772
258598944,-69.86821,32.309998,102167.0,1.213913
258610435,-69.94748,32.309998,102168.0,1.2139249
258620794,-69.78366,32.309998,102166.0,1.213901
258642183,-69.45073,32.309998,102162.0,1.2138536
258652396,-69.86821,32.309998,102167.0,1.213913
258663341,-69.699104,32.309998,102165.0,1.2138892
258685793,-69.53528,32.309998,102163.0,1.2138654
258696813,-69.45073,32.309998,102162.0,1.2138536
258708021,-69.699104,32.309998,102165.0,1.2138892
258732178,-69.20235,32.309998,102159.0,1.213818
258743846,-69.53528,32.309998,102163.0,1.2138654
258756562,-70.11659,32.309998,102169.99,1.2139485
258779814,-69.12308,32.309998,102157.99,1.2138059
258791022,-69.45073,32.309998,102162.0,1.2138536
258800809,-69.20235,32.309998,102159.0,1.213818
258822835,-69.94748,32.3,102168.0,1.2139249
258834393,-69.37146,32.3,102161.0,1.2138417
258844815,-68.71088,32.3,102153.0,1.2137467
258866844,-69.2869,32.309998,102160.0,1.2138298
258877343,-69.12308,32.309998,102157.99,1.2138059
258886836,-69.20235,32.309998,102159.0,1.213818
258909622,-69.45073,32.309998,102162.0,1.2138536
258920966,-68.4625,32.309998,102150.0,1.213711
258931113,-69.12308,32.309998,102157.99,1.2138059
258954080,-68.95926,32.309998,102156.0,1.2137823
258966844,-69.45073,32.309998,102162.0,1.2138536
258977251,-68.790146,32.309998,102154.0,1.2137585
259000608,-69.03853,32.3,102157.0,1.2137941
259013162,-68.95926,32.3,102156.0,1.2137823
259023827,-69.03853,32.3,102157.0,1.2137941
259046103,-68.377945,32.3,102149.0,1.2136991
259056644,-68.8747,32.3,102155.0,1.2137704
259066887,-68.71088,32.3,102153.0,1.2137467
259087832,-69.03853,32.3,102157.0,1.2137941
259099403,-68.71088,32.3,102153.0,1.2137467
259109421,-68.95926,32.3,102156.0,1.2137823
259131043,-68.4625,32.309998,102150.0,1.213711
259141430,-68.4625,32.309998,102150.0,1.213711
259151832,-68.62632,32.309998,102151.99,1.2137346
259173405,-67.88119,32.309998,102143.0,1.2136278
259184354,-68.21412,32.309998,102147.0,1.2136754
259194214,-68.12957,32.309998,102146.0,1.2136635
259215200,-68.12957,32.309998,102146.0,1.2136635
259227534,-68.62632,32.309998,102151.99,1.2137346
259238554,-68.54177,32.309998,102150.99,1.2137228
259262184,-68.790146,32.309998,102154.0,1.2137585
259272342,-68.21412,32.309998,102147.0,1.2136754
259283006,-68.4625,32.309998,102150.0,1.213711
259304795,-68.4625,32.309998,102150.0,1.213711
259316350,-68.54177,32.309998,102150.99,1.2137228
259325799,-68.4625,32.309998,102150.0,1.213711
259347797,-67.46899,32.3,102138.0,1.2135684
259359900,-68.21412,32.3,102147.0,1.2136754
259371749,-68.29339,32.3,102148.0,1.2136872
259395738,-68.12957,32.309998,102146.0,1.2136635
259406998,-68.4625,32.309998,102150.0,1.213711
259416814,-67.965744,32.309998,102144.0,1.2136397
259439356,-68.4625,32.3,102150.0,1.213711
259451542,-67.80192,32.3,102142.0,1.2136159
259463359,-67.63281,32.3,102140.0,1.2135922
259482885,-68.377945,32.3,102149.0,1.2136991
259493353,-67.63281,32.3,102140.0,1.2135922
259502874,-67.88119,32.3,102143.0,1.2136278
259525622,-67.80192,32.309998,102142.0,1.2136159
259536661,-68.21412,32.309998,102147.0,1.2136754
259548652,-67.965744,32.309998,102144.0,1.2136397
259573293,-67.88119,32.3,102143.0,1.2136278
259583813,-67.0515,32.3,102132.99,1.2135088
259593786,-68.12957,32.3,102146.0,1.2136635
259616990,-67.548256,32.3,102138.99,1.2135801
259627393,-68.377945,32.3,102149.0,1.2136991
259637788,-67.548256,32.3,102138.99,1.2135801
259659788,-67.88119,32.3,102143.0,1.2136278
259670795,-67.46899,32.3,102138.0,1.2135684
259681787,-67.965744,32.3,102144.0,1.2136397
259703786,-67.46899,32.3,102138.0,1.2135684
259714414,-67.46899,32.3,102138.0,1.2135684
259725443,-67.965744,32.3,102144.0,1.2136397
259746913,-67.80192,32.3,102142.0,1.2136159
259758260,-67.71736,32.3,102141.0,1.2136041
259770656,-67.30516,32.3,102136.0,1.2135446
259791789,-67.80192,32.3,102142.0,1.2136159
259803396,-67.22061,32.3,102135.0,1.2135328
259813801,-67.38443,32.3,102137.0,1.2135565
259837402,-67.548256,32.309998,102138.99,1.2135801
259848368,-68.12957,32.309998,102146.0,1.2136635
259859071,-68.21412,32.309998,102147.0,1.2136754
259878893,-67.88119,32.3,102143.0,1.2136278
259889344,-67.136055,32.3,102134.0,1.2135209
259899012,-67.80192,32.3,102142.0,1.2136159
259921490,-67.136055,32.3,102134.0,1.2135209
259931674,-67.46899,32.3,102138.0,1.2135684
259942827,-66.723854,32.3,102129.0,1.2134615
259966200,-67.88119,32.3,102143.0,1.2136278
259977348,-67.548256,32.3,102138.99,1.2135801
259987829,-67.22061,32.3,102135.0,1.2135328
260011795,-67.38443,32.309998,102137.0,1.2135565
260023007,-68.12957,32.309998,102146.0,1.2136635
260032811,-67.548256,32.309998,102138.99,1.2135801
260053789,-67.136055,32.3,102134.0,1.2135209
260065390,-66.97223,32.3,102132.0,1.2134972
260075798,-67.136055,32.3,102134.0,1.2135209
260097788,-66.97223,32.3,102132.0,1.2134972
260109343,-67.30516,32.3,102136.0,1.2135446
260119335,-67.0515,32.3,102132.99,1.2135088
260142531,-66.80841,32.3,102130.0,1.2134733
260153497,-66.80841,32.3,102130.0,1.2134733
260165058,-67.548256,32.3,102138.99,1.2135801
260186544,-66.723854,32.309998,102129.0,1.2134615
260196493,-66.723854,32.309998,102129.0,1.2134615
260207867,-66.723854,32.309998,102129.0,1.2134615
260228659,-67.0515,32.3,102132.99,1.2135088
260239867,-67.0515,32.3,102132.99,1.2135088
260250885,-66.97223,32.3,102132.0,1.2134972
260271832,-67.46899,32.3,102138.0,1.2135684
260282406,-67.136055,32.3,102134.0,1.2135209
260293483,-66.80841,32.3,102130.0,1.2134733
260315788,-67.46899,32.3,102138.0,1.2135684
260326411,-67.46899,32.3,102138.0,1.2135684
260335783,-66.723854,32.3,102129.0,1.2134615
260357399,-66.97223,32.3,102132.0,1.2134972
260367589,-65.97872,32.3,102119.99,1.2133545
260378079,-66.47547,32.3,102125.99,1.2134258
260402705,-67.22061,32.3,102135.0,1.2135328
260413450,-67.71736,32.3,102141.0,1.2136041
260423785,-66.80841,32.3,102130.0,1.2134733
260445754,-66.39092,32.3,102125.0,1.213414
260458719,-67.22061,32.3,102135.0,1.2135328
260469403,-67.0515,32.3,102132.99,1.2135088
260490991,-66.39092,32.3,102125.0,1.213414
260501433,-66.88768,32.3,102131.0,1.2134852
260511788,-66.31165,32.3,102124.0,1.213402
260534229,-66.97223,32.3,102132.0,1.2134972
260544343,-66.2271,32.3,102123.0,1.2133902
260554705,-66.39092,32.3,102125.0,1.213414
260575786,-66.31165,32.3,102124.0,1.213402
260587542,-66.47547,32.3,102125.99,1.2134258
260598838,-66.80841,32.3,102130.0,1.2134733
260622186,-66.97223,32.3,102132.0,1.2134972
260633343,-66.31165,32.3,102124.0,1.213402
260643787,-66.47547,32.3,102125.99,1.2134258
260664817,-66.31165,32.3,102124.0,1.213402
260676316,-66.47547,32.3,102125.99,1.2134258
260687359,-67.136055,32.3,102134.0,1.2135209
260711360,-66.6393,32.3,102128.0,1.2134496
260721343,-66.31165,32.3,102124.0,1.213402
260732526,-65.73034,32.3,102117.0,1.213319
260756491,-66.55474,32.3,102126.99,1.2134376
260767910,-66.723854,32.3,102129.0,1.2134615
260780525,-66.2271,32.3,102123.0,1.2133902
260802836,-65.814896,32.3,102118.0,1.2133307
260813387,-66.06327,32.3,102121.0,1.2133664
260824153,-66.55474,32.3,102126.99,1.2134376
260845372,-65.73034,32.3,102117.0,1.213319
260855802,-66.31165,32.3,102124.0,1.213402
260866823,-65.481964,32.3,102113.99,1.2132832
260888074,-65.814896,32.3,102118.0,1.2133307
260900362,-65.97872,32.3,102119.99,1.2133545
260910830,-65.402695,32.3,102113.0,1.2132714
260934156,-66.14254,32.3,102122.0,1.2133783
260944618,-65.481964,32.3,102113.99,1.2132832
260954836,-65.97872,32.3,102119.99,1.2133545
260976941,-65.56652,32.3,102115.0,1.2132951
260987399,-65.97872,32.3,102119.99,1.2133545
260997356,-65.481964,32.3,102113.99,1.2132832
261019864,-65.56652,32.3,102115.0,1.2132951
261030425,-65.97872,32.3,102119.99,1.2133545
261040958,-65.56652,32.3,102115.0,1.2132951
261061441,-65.894165,32.3,102119.0,1.2133427
261071401,-64.90594,32.3,102107.0,1.2132001
261082249,-65.481964,32.3,102113.99,1.2132832
261104490,-65.56652,32.3,102115.0,1.2132951
261114784,-65.64579,32.3,102116.0,1.213307
261125788,-66.55474,32.3,102126.99,1.2134376
261149441,-65.23358,32.3,102111.0,1.2132475
261159393,-65.481964,32.3,102113.99,1.2132832
261170996,-65.894165,32.3,102119.0,1.2133427
261191793,-64.98521,32.3,102107.99,1.2132119
261203554,-65.73034,32.3,102117.0,1.213319
261214206,-66.31165,32.3,102124.0,1.213402
261235008,-64.90594,32.309998,102107.0,1.2132001
261247401,-65.64579,32.309998,102116.0,1.213307
261257135,-65.56652,32.309998,102115.0,1.2132951
261279193,-65.814896,32.3,102118.0,1.2133307
261291628,-65.814896,32.3,102118.0,1.2133307
261302558,-65.31814,32.3,102112.0,1.2132595
261324825,-65.06976,32.3,102109.0,1.2132238
261336344,-65.31814,32.3,102112.0,1.2132595
261348698,-64.98521,32.3,102107.99,1.2132119
261372548,-65.56652,32.3,102115.0,1.2132951
261383849,-64.82138,32.3,102106.0,1.2131882
261393786,-65.73034,32.3,102117.0,1.213319
261415379,-65.97872,32.3,102119.99,1.2133545
261425343,-64.90594,32.3,102107.0,1.2132001
261436557,-65.56652,32.3,102115.0,1.2132951
261457802,-65.64579,32.3,102116.0,1.213307
261469352,-65.481964,32.3,102113.99,1.2132832
261480180,-65.15431,32.3,102110.0,1.2132357
261500668,-65.15431,32.3,102110.0,1.2132357
261512821,-65.31814,32.3,102112.0,1.2132595
261524958,-65.56652,32.3,102115.0,1.2132951
261546849,-64.82138,32.3,102106.0,1.2131882
261558400,-64.65756,32.3,102104.0,1.2131644
261568154,-65.23358,32.3,102111.0,1.2132475
261590830,-64.32462,32.3,102100.0,1.2131169
261602406,-65.31814,32.3,102112.0,1.2132595
261614186,-65.73034,32.3,102117.0,1.213319
261635792,-65.481964,32.3,102113.99,1.2132832
261647407,-65.56652,32.3,102115.0,1.2132951
261657800,-65.06976,32.3,102109.0,1.2132238
261680949,-64.98521,32.3,102107.99,1.2132119
261693114,-65.06976,32.3,102109.0,1.2132238
261702851,-65.402695,32.3,102113.0,1.2132714
261723794,-65.73034,32.3,102117.0,1.213319
261735411,-64.07625,32.3,102097.0,1.2130812
261746718,-64.73683,32.3,102105.0,1.2131763
261766839,-64.90594,32.3,102107.0,1.2132001
261778814,-64.82138,32.3,102106.0,1.2131882
261789801,-64.65756,32.3,102104.0,1.2131644
261813466,-64.98521,32.3,102107.99,1.2132119
261824354,-64.98521,32.3,102107.99,1.2132119
261834947,-65.15431,32.3,102110.0,1.2132357
261855791,-64.73683,32.3,102105.0,1.2131763
261867560,-64.73683,32.3,102105.0,1.2131763
261878180,-64.82138,32.3,102106.0,1.2131882
261899789,-65.31814,32.3,102112.0,1.2132595
261911412,-64.32462,32.3,102100.0,1.2131169
261920799,-64.73683,32.3,102105.0,1.2131763
261942892,-64.65756,32.3,102104.0,1.2131644
261953342,-65.06976,32.3,102109.0,1.2132238
261963023,-64.573006,32.3,102103.0,1.2131525
261982880,-64.90594,32.3,102107.0,1.2132001
261993342,-65.73034,32.3,102117.0,1.213319
262003830,-65.31814,32.3,102112.0,1.2132595
262027782,-64.573006,32.3,102103.0,1.2131525
262039789,-65.23358,32.3,102111.0,1.2132475
262051826,-65.06976,32.3,102109.0,1.2132238
262073798,-64.82138,32.3,102106.0,1.2131882
262085109,-65.15431,32.3,102110.0,1.2132357
262095348,-64.98521,32.3,102107.99,1.2132119
262115791,-65.06976,32.3,102109.0,1.2132238
262126398,-64.32462,32.3,102100.0,1.2131169
262136165,-65.15431,32.3,102110.0,1.2132357
262156817,-65.06976,32.3,102109.0,1.2132238
262167813,-63.579494,32.3,102091.0,1.21301
262178848,-64.40918,32.3,102100.99,1.2131287
262198840,-64.160805,32.3,102098.0,1.2130932
262209610,-65.481964,32.3,102113.99,1.2132832
262220997,-63.991695,32.3,102096.0,1.2130693
262244843,-64.48845,32.3,102101.99,1.2131406
262257606,-64.98521,32.3,102107.99,1.2132119
262269183,-65.15431,32.3,102110.0,1.2132357
262291786,-64.573006,32.3,102103.0,1.2131525
262302409,-64.573006,32.3,102103.0,1.2131525
262311795,-63.41567,32.3,102088.99,1.2129861
262334200,-64.90594,32.3,102107.0,1.2132001
262345615,-64.73683,32.3,102105.0,1.2131763
262358240,-65.15431,32.3,102110.0,1.2132357
262378878,-64.07625,32.3,102097.0,1.2130812
262390786,-64.07625,32.3,102097.0,1.2130812
262402263,-63.912426,32.3,102094.99,1.2130574
262422843,-64.573006,32.3,102103.0,1.2131525
262434738,-64.07625,32.3,102097.0,1.2130812
262445788,-64.160805,32.3,102098.0,1.2130932
262467787,-63.24656,32.3,102087.0,1.2129624
262478421,-64.573006,32.3,102103.0,1.2131525
262487784,-64.40918,32.3,102100.99,1.2131287
262509393,-64.48845,32.3,102101.99,1.2131406
262520356,-64.40918,32.3,102100.99,1.2131287
262531730,-63.991695,32.3,102096.0,1.2130693
262555458,-64.07625,32.3,102097.0,1.2130812
262566419,-64.32462,32.3,102100.0,1.2131169
262575787,-64.32462,32.3,102100.0,1.2131169
262598844,-64.07625,32.3,102097.0,1.2130812
262609352,-64.160805,32.3,102098.0,1.2130932
262618979,-63.664047,32.3,102092.0,1.2130219
262640793,-64.240074,32.3,102099.0,1.213105
262652343,-63.912426,32.3,102094.99,1.2130574
262661795,-64.07625,32.3,102097.0,1.2130812
262683778,-63.24656,32.3,102087.0,1.2129624
262695872,-63.991695,32.3,102096.0,1.2130693
262707819,-63.991695,32.3,102096.0,1.2130693
262732527,-63.991695,32.3,102096.0,1.2130693
262744359,-64.07625,32.3,102097.0,1.2130812
262756511,-63.16729,32.3,102086.0,1.2129506
262780618,-63.743317,32.3,102093.0,1.2130337
262792817,-63.743317,32.3,102093.0,1.2130337
262804685,-63.912426,32.3,102094.99,1.2130574
262825799,-64.32462,32.3,102100.0,1.2131169
262837151,-63.331116,32.3,102088.0,1.2129743
262848077,-63.24656,32.3,102087.0,1.2129624
262869344,-63.494938,32.3,102090.0,1.212998
262880816,-64.32462,32.3,102100.0,1.2131169
262893313,-63.664047,32.3,102092.0,1.2130219
262915828,-64.240074,32.3,102099.0,1.213105
262927398,-62.91891,32.3,102082.99,1.2129148
262936992,-63.494938,32.3,102090.0,1.212998
262957406,-63.664047,32.3,102092.0,1.2130219
262967383,-63.494938,32.3,102090.0,1.212998
262976955,-63.912426,32.3,102094.99,1.2130574
262997444,-63.494938,32.3,102090.0,1.212998
263007581,-63.494938,32.3,102090.0,1.212998
263018846,-63.16729,32.3,102086.0,1.2129506
263041788,-64.40918,32.3,102100.99,1.2131287
263053207,-63.664047,32.3,102092.0,1.2130219
263063785,-63.331116,32.3,102088.0,1.2129743
263085788,-63.912426,32.3,102094.99,1.2130574
263097926,-63.494938,32.3,102090.0,1.212998
263107787,-63.082737,32.3,102085.0,1.2129387
263127785,-62.91891,32.3,102082.99,1.2129148
263138797,-63.664047,32.3,102092.0,1.2130219
263149396,-63.082737,32.3,102085.0,1.2129387
263170242,-63.664047,32.3,102092.0,1.2130219
263182536,-63.082737,32.3,102085.0,1.2129387
263193490,-62.91891,32.3,102082.99,1.2129148
263214566,-62.998184,32.3,102084.0,1.2129267
263226725,-63.664047,32.3,102092.0,1.2130219
263238220,-63.494938,32.3,102090.0,1.212998
263259794,-63.494938,32.3,102090.0,1.212998
263270427,-62.670536,32.3,102080.0,1.2128793
263280793,-63.16729,32.3,102086.0,1.2129506
263302838,-63.664047,32.3,102092.0,1.2130219
263315803,-62.91891,32.3,102082.99,1.2129148
263325796,-62.58598,32.3,102079.0,1.2128674
263348579,-63.082737,32.3,102085.0,1.2129387
263359857,-63.331116,32.3,102088.0,1.2129743
263372536,-62.83436,32.3,102082.0,1.212903
263396600,-63.082737,32.3,102085.0,1.2129387
263407849,-63.082737,32.3,102085.0,1.2129387
263417786,-62.3376,32.3,102075.99,1.2128316
263439340,-63.494938,32.3,102090.0,1.212998
263449344,-62.501427,32.3,102078.0,1.2128555
263458834,-62.670536,32.3,102080.0,1.2128793
263478840,-61.9254,32.3,102071.0,1.2127724
263490420,-62.670536,32.3,102080.0,1.2128793
263500816,-63.16729,32.3,102086.0,1.2129506
263524943,-62.501427,32.3,102078.0,1.2128555
263536648,-62.501427,32.3,102078.0,1.2128555
263548619,-62.998184,32.3,102084.0,1.2129267
263569788,-62.58598,32.3,102079.0,1.2128674
263581346,-61.9254,32.3,102071.0,1.2127724
263591791,-62.009956,32.3,102072.0,1.2127842
263613394,-62.749805,32.3,102081.0,1.2128911
263624605,-62.009956,32.3,102072.0,1.2127842
263635833,-62.009956,32.3,102072.0,1.2127842
263655833,-63.082737,32.3,102085.0,1.2129387
263667395,-62.17378,32.3,102074.0,1.212808
263678195,-62.422157,32.3,102076.99,1.2128435
263699798,-61.67702,32.3,102068.0,1.2127367
263711392,-62.009956,32.3,102072.0,1.2127842
263723233,-62.501427,32.3,102078.0,1.2128555
263743786,-62.58598,32.3,102079.0,1.2128674
263754723,-61.9254,32.3,102071.0,1.2127724
263765788,-61.75629,32.3,102069.0,1.2127485
263787789,-61.9254,32.3,102071.0,1.2127724
263798413,-61.9254,32.3,102071.0,1.2127724
263807788,-61.9254,32.3,102071.0,1.2127724
263829792,-62.17378,32.3,102074.0,1.212808
263840351,-61.9254,32.3,102071.0,1.2127724
263851067,-62.009956,32.3,102072.0,1.2127842
263871789,-61.75629,32.3,102069.0,1.2127485
263883599,-61.9254,32.3,102071.0,1.2127724
263894838,-61.428646,32.3,102065.0,1.2127011
263918212,-62.25833,32.3,102075.0,1.2128198
263928346,-62.17378,32.3,102074.0,1.212808
263939015,-62.009956,32.3,102072.0,1.2127842
263960797,-61.75629,32.3,102069.0,1.2127485
263972343,-62.009956,32.3,102072.0,1.2127842
263981795,-61.75629,32.3,102069.0,1.2127485
264003800,-61.9254,32.3,102071.0,1.2127724
264015871,-61.59247,32.3,102067.0,1.2127248
264028661,-61.67702,32.3,102068.0,1.2127367
264052540,-61.75629,32.3,102069.0,1.2127485
264063846,-61.5132,32.3,102066.0,1.2127129
264073796,-61.59247,32.3,102067.0,1.2127248
264095352,-61.840847,32.3,102069.99,1.2127603
264105343,-61.259537,32.3,102063.0,1.2126772
264116566,-61.75629,32.3,102069.0,1.2127485
264138847,-61.428646,32.3,102065.0,1.2127011
264149348,-60.768066,32.3,102057.0,1.212606
264158829,-62.089226,32.3,102073.0,1.2127961
264180653,-61.01644,32.3,102060.0,1.2126416
264192698,-61.59247,32.3,102067.0,1.2127248
264204592,-61.59247,32.3,102067.0,1.2127248
264229411,-62.17378,32.3,102074.0,1.212808
264239888,-61.34409,32.3,102063.99,1.212689
264250841,-61.67702,32.3,102068.0,1.2127367
264271786,-61.01644,32.3,102060.0,1.2126416
264283392,-61.09571,32.3,102061.0,1.2126535
264294188,-61.259537,32.3,102063.0,1.2126772
264314898,-61.180267,32.3,102062.0,1.2126654
264326417,-61.01644,32.3,102060.0,1.2126416
264335828,-61.01644,32.3,102060.0,1.2126416
264358134,-61.01644,32.3,102060.0,1.2126416
264368608,-61.180267,32.3,102062.0,1.2126654
264379786,-60.598957,32.3,102055.0,1.2125822
264402914,-60.768066,32.3,102057.0,1.212606
264413414,-60.847336,32.3,102057.99,1.2126178
264422823,-61.428646,32.3,102065.0,1.2127011
264445426,-61.09571,32.3,102061.0,1.2126535
264456344,-61.09571,32.3,102061.0,1.2126535
264467033,-61.180267,32.3,102062.0,1.2126654
264486840,-60.847336,32.3,102057.99,1.2126178
264498729,-60.768066,32.3,102057.0,1.212606
264510236,-60.598957,32.3,102055.0,1.2125822
264531058,-60.847336,32.3,102057.99,1.2126178
264542420,-61.34409,32.3,102063.99,1.212689
264552794,-60.35058,32.3,102051.99,1.2125465
264574185,-60.93189,32.3,102059.0,1.2126298
264584385,-61.34409,32.3,102063.99,1.212689
264594752,-59.85382,32.3,102046.0,1.2124753
264615785,-60.93189,32.309998,102059.0,1.2126298
264626841,-59.938377,32.309998,102047.0,1.2124872
264636795,-60.186756,32.309998,102050.0,1.2125229
264659816,-60.186756,32.3,102050.0,1.2125229
264671001,-59.77455,32.3,102044.99,1.2124633
264680808,-60.768066,32.3,102057.0,1.212606
264703787,-60.43513,32.309998,102053.0,1.2125585
264715515,-60.35058,32.309998,102051.99,1.2125465
264725793,-60.186756,32.309998,102050.0,1.2125229
264747807,-59.85382,32.3,102046.0,1.2124753
264759034,-59.77455,32.3,102044.99,1.2124633
264768826,-59.69,32.3,102044.0,1.2124516
264790833,-60.598957,32.3,102055.0,1.2125822
264801761,-59.69,32.3,102044.0,1.2124516
264812959,-59.69,32.3,102044.0,1.2124516
264837329,-60.186756,32.3,102050.0,1.2125229
264847801,-60.1022,32.3,102049.0,1.212511
264858843,-60.35058,32.3,102051.99,1.2125465
264878841,-60.35058,32.3,102051.99,1.2125465
264889610,-60.519688,32.3,102054.0,1.2125703
264900954,-59.19324,32.3,102038.0,1.2123803
264926080,-60.35058,32.3,102051.99,1.2125465
264937455,-60.519688,32.3,102054.0,1.2125703
264947784,-60.186756,32.3,102050.0,1.2125229
264969296,-59.69,32.3,102044.0,1.2124516
264981172,-60.266026,32.3,102050.99,1.2125345
264991787,-60.266026,32.3,102050.99,1.2125345
265014113,-59.69,32.3,102044.0,1.2124516
265024628,-59.85382,32.3,102046.0,1.2124753
265035795,-59.605446,32.3,102043.0,1.2124397
265055791,-59.44162,32.3,102041.0,1.2124159
265067509,-59.526176,32.3,102042.0,1.2124277
265078079,-60.017647,32.3,102048.0,1.212499
265101797,-60.186756,32.3,102050.0,1.2125229
265113947,-59.77455,32.3,102044.99,1.2124633
265125440,-59.44162,32.3,102041.0,1.2124159
265146982,-59.938377,32.3,102047.0,1.2124872
265157440,-59.526176,32.3,102042.0,1.2124277
265167786,-59.44162,32.3,102041.0,1.2124159
265190230,-59.605446,32.3,102043.0,1.2124397
265201347,-58.86031,32.3,102034.0,1.2123327
265211806,-59.605446,32.3,102043.0,1.2124397
265232794,-58.61193,32.3,102031.0,1.2122971
265243577,-59.44162,32.3,102041.0,1.2124159
265254844,-59.605446,32.3,102043.0,1.2124397
265276793,-59.69,32.3,102044.0,1.2124516
265288349,-59.85382,32.3,102046.0,1.2124753
265298989,-59.44162,32.3,102041.0,1.2124159
265321788,-60.186756,32.3,102050.0,1.2125229
265332364,-59.02942,32.3,102036.0,1.2123564
265343342,-58.696487,32.3,102032.0,1.212309
265363798,-59.44162,32.3,102041.0,1.2124159
265375865,-58.86031,32.3,102034.0,1.2123327
265388557,-58.944862,32.3,102035.0,1.2123446
265412627,-59.02942,32.3,102036.0,1.2123564
265423866,-58.944862,32.3,102035.0,1.2123446
265433924,-58.284283,32.3,102026.99,1.2122494
265454883,-58.44811,32.3,102029.0,1.2122734
265466395,-58.696487,32.3,102032.0,1.212309
265477381,-58.696487,32.3,102032.0,1.212309
265501430,-58.86031,32.3,102034.0,1.2123327
265511816,-58.61193,32.3,102031.0,1.2122971
265522845,-59.10869,32.3,102037.0,1.2123684
265544154,-58.284283,32.3,102026.99,1.2122494
265554393,-57.95135,32.3,102023.0,1.212202
265564550,-58.284283,32.3,102026.99,1.2122494
265587786,-58.61193,32.3,102031.0,1.2122971
265598760,-58.696487,32.3,102032.0,1.212309
265608950,-58.53266,32.3,102030.0,1.2122852
265631799,-59.02942,32.309998,102036.0,1.2123564
265643400,-58.53266,32.309998,102030.0,1.2122852
265654153,-58.696487,32.309998,102032.0,1.212309
265675786,-58.44811,32.3,102029.0,1.2122734
265686406,-58.775757,32.3,102032.99,1.2123207
265696937,-58.19973,32.3,102025.99,1.2122376
265717881,-57.61842,32.3,102019.0,1.2121545
265729469,-58.53266,32.3,102030.0,1.2122852
265739788,-58.363552,32.3,102028.0,1.2122614
265761427,-56.95784,32.3,102011.0,1.2120594
265771409,-58.363552,32.3,102028.0,1.2122614
265782173,-58.19973,32.3,102025.99,1.2122376
265803830,-57.95135,32.3,102023.0,1.212202
265815556,-57.8668,32.3,102022.0,1.2121902
265826832,-57.95135,32.3,102023.0,1.212202
265851544,-58.363552,32.3,102028.0,1.2122614
265862414,-58.363552,32.3,102028.0,1.2122614
265872797,-58.44811,32.3,102029.0,1.2122734
265894845,-57.37004,32.3,102016.0,1.2121189
265905347,-57.702972,32.3,102019.99,1.2121663
265916017,-58.44811,32.3,102029.0,1.2122734
265935786,-57.29077,32.3,102015.0,1.212107
265947572,-58.44811,32.3,102029.0,1.2122734
265958838,-57.8668,32.3,102022.0,1.2121902
265980610,-57.29077,32.3,102015.0,1.212107
265992343,-57.29077,32.3,102015.0,1.212107
266004574,-58.115177,32.3,102025.0,1.2122258
266025787,-57.29077,32.3,102015.0,1.212107
266036345,-57.95135,32.3,102023.0,1.212202
266047339,-57.29077,32.3,102015.0,1.212107
266067776,-57.95135,32.3,102023.0,1.212202
266079845,-57.53915,32.3,102018.0,1.2121426
266092527,-57.53915,32.3,102018.0,1.2121426
266114824,-56.794018,32.3,102009.0,1.2120357
266126148,-56.873287,32.3,102010.0,1.2120476
266136814,-57.454597,32.3,102017.0,1.2121307
266157787,-56.461082,32.3,102005.0,1.2119881
266168648,-57.121662,32.3,102013.0,1.2120832
266178838,-57.53915,32.3,102018.0,1.2121426
266200179,-57.454597,32.3,102017.0,1.2121307
266213042,-57.042393,32.3,102012.0,1.2120713
266222838,-57.042393,32.3,102012.0,1.2120713
266245361,-57.121662,32.3,102013.0,1.2120832
266256617,-56.794018,32.3,102009.0,1.2120357
266266845,-56.461082,32.3,102005.0,1.2119881
266288952,-57.20622,32.3,102013.99,1.212095
266299434,-56.12815,32.3,102000.99,1.2119405
266309389,-56.62491,32.3,102007.0,1.2120119
266328960,-56.37653,32.3,102004.0,1.2119763
266339423,-56.95784,32.3,102011.0,1.2120594
266349428,-56.62491,32.3,102007.0,1.2120119
266370082,-56.212708,32.309998,102001.99,1.2119524
266382620,-57.20622,32.309998,102013.99,1.212095
266393392,-57.042393,32.309998,102012.0,1.2120713
266414164,-56.37653,32.3,102004.0,1.2119763
266424412,-56.95784,32.3,102011.0,1.2120594
266435192,-56.212708,32.3,102001.99,1.2119524
266459193,-57.042393,32.309998,102012.0,1.2120713
266472458,-57.042393,32.309998,102012.0,1.2120713
266483198,-56.70946,32.309998,102007.99,1.2120237
266506224,-55.71595,32.3,101996.0,1.2118812
266517192,-56.37653,32.3,102004.0,1.2119763
266527795,-56.29726,32.3,102003.0,1.2119644
266550242,-56.29726,32.3,102003.0,1.2119644
266561343,-56.29726,32.3,102003.0,1.2119644
266571788,-55.71595,32.3,101996.0,1.2118812
266591785,-56.29726,32.3,102003.0,1.2119644
266603524,-56.461082,32.3,102005.0,1.2119881
266614840,-56.12815,32.3,102000.99,1.2119405
266636811,-56.54564,32.3,102006.0,1.212
266648358,-55.46757,32.3,101993.0,1.2118455
266657799,-55.879772,32.3,101998.0,1.211905
266678078,-56.29726,32.309998,102003.0,1.2119644
266690229,-55.879772,32.309998,101998.0,1.211905
266700150,-56.29726,32.309998,102003.0,1.2119644
266722078,-56.04888,32.3,102000.0,1.2119287
266733998,-55.800503,32.3,101997.0,1.2118931
266744138,-55.71595,32.3,101996.0,1.2118812
266767787,-55.96433,32.3,101999.0,1.2119168
266780412,-55.552128,32.3,101994.0,1.2118574
266790842,-55.879772,32.3,101998.0,1.211905
266812815,-55.800503,32.3,101997.0,1.2118931
266824659,-55.879772,32.3,101998.0,1.211905
266836676,-55.879772,32.3,101998.0,1.211905
266860716,-55.30375,32.3,101991.0,1.2118218
266871855,-55.552128,32.3,101994.0,1.2118574
266882833,-55.71595,32.3,101996.0,1.2118812
266904157,-55.631397,32.3,101994.99,1.2118692
266915402,-55.631397,32.3,101994.99,1.2118692
266925788,-55.38302,32.3,101992.0,1.2118337
266947787,-55.96433,32.309998,101999.0,1.2119168
266958569,-55.219193,32.309998,101990.0,1.2118099
266970396,-55.46757,32.309998,101993.0,1.2118455
266993146,-55.219193,32.3,101990.0,1.2118099
267003490,-55.13464,32.3,101988.99,1.211798
267014548,-55.05537,32.3,101988.0,1.2117862
267035499,-54.80699,32.3,101985.0,1.2117505
267046541,-55.219193,32.3,101990.0,1.2118099
267056496,-54.88626,32.3,101986.0,1.2117624
267078531,-55.631397,32.3,101994.99,1.2118692
267090004,-54.637882,32.3,101982.99,1.2117267
267100495,-55.13464,32.3,101988.99,1.211798
267121868,-54.88626,32.3,101986.0,1.2117624
267132489,-54.970818,32.3,101987.0,1.2117742
267143497,-54.72244,32.3,101984.0,1.2117386
267163804,-54.970818,32.3,101987.0,1.2117742
267175397,-54.22568,32.3,101978.0,1.2116673
267186759,-55.05537,32.3,101988.0,1.2117862
267207828,-55.13464,32.309998,101988.99,1.211798
267219578,-54.72244,32.309998,101984.0,1.2117386
267230839,-55.38302,32.309998,101992.0,1.2118337
267254206,-55.38302,32.3,101992.0,1.2118337
267265351,-55.38302,32.3,101992.0,1.2118337
267275786,-54.88626,32.3,101986.0,1.2117624
267295786,-54.389503,32.3,101980.0,1.2116911
267307480,-54.80699,32.3,101985.0,1.2117505
267319041,-54.970818,32.3,101987.0,1.2117742
267339871,-55.38302,32.309998,101992.0,1.2118337
267350999,-53.977303,32.309998,101975.0,1.2116317
267360811,-54.637882,32.309998,101982.99,1.2117267
267381791,-54.72244,32.3,101984.0,1.2117386
267392344,-54.056572,32.3,101975.99,1.2116435
267403768,-54.30495,32.3,101979.0,1.2116792
267427822,-55.05537,32.3,101988.0,1.2117862
267439860,-54.72244,32.3,101984.0,1.2117386
267450851,-53.89275,32.3,101974.0,1.2116199
267472143,-54.056572,32.309998,101975.99,1.2116435
267485023,-54.72244,32.309998,101984.0,1.2117386
267494842,-54.389503,32.309998,101980.0,1.2116911
267517938,-53.64437,32.3,101971.0,1.2115842
267529616,-54.72244,32.3,101984.0,1.2117386
267541779,-54.14113,32.3,101976.99,1.2116554
267564611,-54.970818,32.3,101987.0,1.2117742
267576634,-54.637882,32.3,101982.99,1.2117267
267587785,-54.056572,32.3,101975.99,1.2116435
267609792,-54.47406,32.3,101981.0,1.211703
267621931,-54.55333,32.3,101982.0,1.2117149
267632944,-54.14113,32.3,101976.99,1.2116554
267654160,-54.30495,32.309998,101979.0,1.2116792
267666403,-54.55333,32.309998,101982.0,1.2117149
267678064,-54.30495,32.309998,101979.0,1.2116792
267698838,-53.728924,32.3,101972.0,1.211596
267710082,-53.728924,32.3,101972.0,1.211596
267721400,-53.64437,32.3,101971.0,1.2115842
267742922,-53.977303,32.3,101975.0,1.2116317
267753478,-54.30495,32.3,101979.0,1.2116792
267763787,-53.55982,32.3,101969.99,1.2115722
267785788,-54.55333,32.3,101982.0,1.2117149
267796350,-53.31144,32.3,101967.0,1.2115366
267806157,-53.728924,32.3,101972.0,1.211596
267827194,-54.056572,32.3,101975.99,1.2116435
267839357,-53.977303,32.3,101975.0,1.2116317
267849130,-53.81348,32.3,101973.0,1.2116079
267871836,-54.056572,32.3,101975.99,1.2116435
267884249,-53.55982,32.3,101969.99,1.2115722
267894838,-53.31144,32.3,101967.0,1.2115366
267918191,-53.31144,32.3,101967.0,1.2115366
267929345,-53.977303,32.3,101975.0,1.2116317
267939790,-53.31144,32.3,101967.0,1.2115366
267960795,-53.728924,32.3,101972.0,1.211596
267972354,-52.65086,32.3,101959.0,1.2114416
267981788,-53.23217,32.3,101966.0,1.2115247
268003724,-52.566303,32.3,101957.99,1.2114296
268015901,-53.31144,32.3,101967.0,1.2115366
268028473,-53.395992,32.3,101968.0,1.2115486
268052494,-53.06306,32.3,101963.99,1.2115009
268064361,-52.65086,32.3,101959.0,1.2114416
268076570,-52.814682,32.3,101961.0,1.2114654
268100593,-53.64437,32.3,101971.0,1.2115842
268112646,-53.31144,32.3,101967.0,1.2115366
268124953,-53.147614,32.3,101965.0,1.2115129
268145787,-52.566303,32.3,101957.99,1.2114296
268157348,-53.55982,32.3,101969.99,1.2115722
268168140,-53.06306,32.3,101963.99,1.2115009
268189791,-53.23217,32.3,101966.0,1.2115247
268201343,-52.735413,32.3,101960.0,1.2114534
268210836,-52.735413,32.3,101960.0,1.2114534
268230844,-52.65086,32.3,101959.0,1.2114416
268242461,-52.735413,32.3,101960.0,1.2114534
268253491,-53.23217,32.3,101966.0,1.2115247
268275491,-52.23866,32.3,101954.0,1.2113822
268286528,-52.487034,32.3,101957.0,1.2114178
268297846,-52.23866,32.3,101954.0,1.2113822
268319498,-51.984993,32.3,101950.99,1.2113464
268329504,-52.23866,32.3,101954.0,1.2113822
268340567,-52.23866,32.3,101954.0,1.2113822
268361843,-52.566303,32.309998,101957.99,1.2114296
268371642,-52.40248,32.309998,101956.0,1.211406
268382844,-52.566303,32.309998,101957.99,1.2114296
268405934,-52.23866,32.309998,101954.0,1.2113822
268417940,-51.905724,32.309998,101950.0,1.2113347
268429412,-51.7419,32.309998,101948.0,1.2113109
268451047,-51.65735,32.3,101947.0,1.2112991
268461420,-51.905724,32.3,101950.0,1.2113347
268470857,-51.905724,32.3,101950.0,1.2113347
268493404,-51.65735,32.3,101947.0,1.2112991
268504343,-51.82117,32.3,101949.0,1.2113228
268515730,-51.245144,32.3,101942.0,1.2112396
268536793,-51.493523,32.3,101944.99,1.2112751
268547518,-52.23866,32.3,101954.0,1.2113822
268558182,-51.984993,32.3,101950.99,1.2113464
268578922,-51.493523,32.3,101944.99,1.2112751
268589343,-51.65735,32.3,101947.0,1.2112991
268598853,-51.65735,32.3,101947.0,1.2112991
268622206,-51.40897,32.309998,101944.0,1.2112634
268633384,-51.493523,32.309998,101944.99,1.2112751
268643741,-51.493523,32.309998,101944.99,1.2112751
268667769,-51.572792,32.309998,101946.0,1.2112871
268679849,-51.65735,32.309998,101947.0,1.2112991
268692498,-51.245144,32.309998,101942.0,1.2112396
268716529,-51.16059,32.3,101941.0,1.2112278
268728345,-50.99148,32.3,101938.99,1.2112038
268740551,-50.743103,32.3,101936.0,1.2111683
268761787,-50.663834,32.3,101935.0,1.2111564
268773841,-51.245144,32.3,101942.0,1.2112396
268784070,-50.57928,32.3,101934.0,1.2111446
268805403,-51.40897,32.3,101944.0,1.2112634
268816945,-50.912212,32.3,101938.0,1.211192
268826834,-50.16708,32.3,101929.0,1.2110851
268850056,-51.65735,32.3,101947.0,1.2112991
268861348,-51.16059,32.3,101941.0,1.2112278
268872146,-50.330902,32.3,101931.0,1.2111089
268894837,-51.07604,32.3,101940.0,1.2112159
268906405,-50.57928,32.3,101934.0,1.2111446
268915787,-50.494728,32.3,101932.99,1.2111325
268936959,-50.663834,32.3,101935.0,1.2111564
268947396,-50.57928,32.3,101934.0,1.2111446
268957818,-51.324413,32.3,101943.0,1.2112515
268979786,-50.82766,32.309998,101937.0,1.2111802
268990443,-50.99148,32.309998,101938.99,1.2112038
269001597,-50.330902,32.309998,101931.0,1.2111089
269023502,-51.324413,32.3,101943.0,1.2112515
269034541,-50.663834,32.3,101935.0,1.2111564
269045894,-49.74959,32.3,101924.0,1.2110257
269066844,-50.41546,32.309998,101932.0,1.2111207
269079524,-49.33739,32.309998,101919.0,1.2109663
269089790,-49.913418,32.309998,101925.99,1.2110494
269110855,-50.41546,32.309998,101932.0,1.2111207
269121464,-50.16708,32.309998,101929.0,1.2110851
269131798,-50.330902,32.309998,101931.0,1.2111089
269153417,-49.913418,32.3,101925.99,1.2110494
269164348,-50.41546,32.3,101932.0,1.2111207
269174208,-50.41546,32.3,101932.0,1.2111207
269195692,-50.251633,32.309998,101930.0,1.211097
269216795,-49.834145,32.309998,101925.0,1.2110376
269238541,-49.99797,32.309998,101926.99,1.2110612
269250816,-49.00446,32.309998,101915.0,1.2109188
269260798,-49.834145,32.309998,101925.0,1.2110376
269283692,-50.082523,32.309998,101928.0,1.2110733
269295408,-49.421944,32.309998,101919.99,1.2109782
269305787,-49.501213,32.309998,101921.0,1.2109901
269325793,-49.834145,32.3,101925.0,1.2110376
269336947,-49.913418,32.3,101925.99,1.2110494
269348178,-50.330902,32.3,101931.0,1.2111089
269371804,-49.089012,32.3,101916.0,1.2109307
269383865,-49.00446,32.3,101915.0,1.2109188
269396598,-49.252834,32.3,101918.0,1.2109544
269420628,-49.58577,32.3,101922.0,1.211002
269431850,-49.834145,32.3,101925.0,1.2110376
269441791,-49.913418,32.3,101925.99,1.2110494
269464155,-49.421944,32.3,101919.99,1.2109782
269476276,-49.089012,32.3,101916.0,1.2109307
269486824,-49.421944,32.3,101919.99,1.2109782
269509284,-48.75608,32.3,101912.0,1.2108831
269519875,-49.33739,32.3,101919.0,1.2109663
269530839,-49.58577,32.3,101922.0,1.211002
269552159,-49.33739,32.3,101919.0,1.2109663
269564301,-48.840633,32.3,101913.0,1.2108951
269574834,-49.173565,32.3,101917.0,1.2109425
269595786,-48.671524,32.3,101911.0,1.2108712
269606409,-49.252834,32.3,101918.0,1.2109544
269615789,-48.42315,32.3,101907.99,1.2108356
269637348,-49.00446,32.309998,101915.0,1.2109188
269648650,-48.840633,32.309998,101913.0,1.2108951
269659786,-48.671524,32.309998,101911.0,1.2108712
269681244,-48.0955,32.3,101904.0,1.2107881
269693085,-49.173565,32.3,101917.0,1.2109425
269703784,-48.592255,32.3,101910.0,1.2108594
269726142,-48.34388,32.3,101907.0,1.2108238
269737425,-48.919903,32.3,101913.99,1.2109069
269747828,-48.592255,32.3,101910.0,1.2108594
269770848,-48.34388,32.3,101907.0,1.2108238
269783510,-48.840633,32.3,101913.0,1.2108951
269793792,-48.840633,32.3,101913.0,1.2108951
269817401,-48.17477,32.309998,101905.0,1.2107999
269828343,-48.42315,32.309998,101907.99,1.2108356
269838838,-48.840633,32.309998,101913.0,1.2108951
269862219,-48.0955,32.3,101904.0,1.2107881
269872385,-48.34388,32.3,101907.0,1.2108238
269883733,-48.17477,32.3,101905.0,1.2107999
269906684,-48.17477,32.3,101905.0,1.2107999
269918415,-48.0955,32.3,101904.0,1.2107881
269928800,-47.92639,32.3,101901.99,1.2107643
269950392,-48.0955,32.3,101904.0,1.2107881
269960345,-47.34508,32.3,101894.99,1.2106811
269972537,-47.92639,32.3,101901.99,1.2107643
269993787,-48.259323,32.3,101906.0,1.2108119
270004346,-47.429634,32.3,101896.0,1.210693
270015354,-48.0955,32.3,101904.0,1.2107881
270035775,-47.017433,32.3,101891.0,1.2106336
270047851,-48.34388,32.3,101907.0,1.2108238
270060710,-47.92639,32.3,101901.99,1.2107643
270084506,-48.5077,32.3,101909.0,1.2108475
270095848,-47.92639,32.3,101901.99,1.2107643
270105786,-47.18126,32.3,101893.0,1.2106574
270128153,-48.010944,32.309998,101903.0,1.2107762
270141092,-48.010944,32.309998,101903.0,1.2107762
270150843,-48.34388,32.309998,101907.0,1.2108238
270173788,-47.51419,32.3,101897.0,1.2107049
270185370,-48.17477,32.3,101905.0,1.2107999
270197347,-47.598743,32.3,101898.0,1.2107168
270220704,-46.93288,32.3,101890.0,1.2106217
270233085,-47.598743,32.3,101898.0,1.2107168
270243836,-47.429634,32.3,101896.0,1.210693
270265488,-47.265812,32.3,101894.0,1.2106693
270276621,-46.59995,32.3,101886.0,1.2105743
270287490,-46.848324,32.3,101888.99,1.2106098
270309491,-47.265812,32.3,101894.0,1.2106693
270321342,-46.436123,32.3,101884.0,1.2105504
270331490,-47.10199,32.3,101892.0,1.2106456
270353774,-47.51419,32.3,101897.0,1.2107049
270364490,-46.52068,32.3,101885.0,1.2105623
270375498,-47.017433,32.3,101891.0,1.2106336
270396490,-47.10199,32.3,101892.0,1.2106456
270407497,-46.769054,32.3,101888.0,1.210598
270418538,-46.93288,32.3,101890.0,1.2106217
270440490,-46.436123,32.3,101884.0,1.2105504
270450724,-47.429634,32.3,101896.0,1.210693
270460489,-46.2723,32.3,101882.0,1.2105267
270481872,-47.598743,32.309998,101898.0,1.2107168
270493434,-46.436123,32.309998,101884.0,1.2105504
270502838,-45.854813,32.309998,101876.99,1.2104672
270524794,-46.93288,32.309998,101890.0,1.2106217
270535439,-46.023922,32.309998,101879.0,1.2104911
270546672,-46.59995,32.309998,101886.0,1.2105743
270567787,-46.6845,32.309998,101887.0,1.2105861
270579684,-46.59995,32.309998,101886.0,1.2105743
270590315,-46.52068,32.309998,101885.0,1.2105623
270611048,-45.52188,32.309998,101873.0,1.2104198
270622413,-46.023922,32.309998,101879.0,1.2104911
270631786,-46.35157,32.309998,101882.99,1.2105385
270655343,-45.854813,32.309998,101876.99,1.2104672
270667449,-45.854813,32.309998,101876.99,1.2104672
270677796,-45.93937,32.309998,101878.0,1.2104791
270699873,-46.848324,32.3,101888.99,1.2106098
270711853,-45.44261,32.3,101872.0,1.2104079
270724331,-45.52188,32.3,101873.0,1.2104198
270745785,-46.10319,32.309998,101880.0,1.210503
270757354,-46.2723,32.309998,101882.0,1.2105267
270766841,-45.69099,32.309998,101875.0,1.2104435
270788669,-45.93937,32.309998,101878.0,1.2104791
270800822,-45.69099,32.309998,101875.0,1.2104435
270810840,-45.69099,32.309998,101875.0,1.2104435
270830837,-45.10968,32.3,101868.0,1.2103604
270842394,-46.10319,32.3,101880.0,1.210503
270852539,-45.854813,32.3,101876.99,1.2104672
270876523,-45.44261,32.309998,101872.0,1.2104079
270888645,-45.606434,32.309998,101874.0,1.2104317
270899789,-45.44261,32.309998,101872.0,1.2104079
270919786,-45.77026,32.3,101875.99,1.2104553
270930442,-45.10968,32.3,101868.0,1.2103604
270940962,-45.606434,32.3,101874.0,1.2104317
270963785,-45.606434,32.309998,101874.0,1.2104317
270974406,-45.606434,32.309998,101874.0,1.2104317
270983791,-45.194233,32.309998,101869.0,1.2103722
271003797,-45.606434,32.309998,101874.0,1.2104317
271014406,-45.44261,32.309998,101872.0,1.2104079
271023796,-46.023922,32.309998,101879.0,1.2104911
271045788,-45.10968,32.309998,101868.0,1.2103604
271056359,-45.606434,32.309998,101874.0,1.2104317
271066838,-45.273502,32.309998,101869.99,1.210384
271087784,-44.8613,32.309998,101865.0,1.2103248
271099395,-45.606434,32.309998,101874.0,1.2104317
271109421,-45.606434,32.309998,101874.0,1.2104317
271130844,-45.273502,32.309998,101869.99,1.210384
271141421,-44.8613,32.309998,101865.0,1.2103248
271151790,-45.273502,32.309998,101869.99,1.210384
271174867,-45.35806,32.309998,101871.0,1.210396
271186728,-44.945854,32.309998,101866.0,1.2103366
271198174,-44.364544,32.309998,101859.0,1.2102535
271219787,-45.44261,32.3,101872.0,1.2104079
271230423,-45.194233,32.3,101869.0,1.2103722
271239787,-43.94706,32.3,101854.0,1.210194
271260794,-44.364544,32.309998,101859.0,1.2102535
271272345,-44.77675,32.309998,101863.99,1.2103127
271282673,-45.10968,32.309998,101868.0,1.2103604
271305797,-44.8613,32.309998,101865.0,1.2103248
271316650,-44.77675,32.309998,101863.99,1.2103127
271327353,-44.364544,32.309998,101859.0,1.2102535
271349789,-44.52837,32.3,101861.0,1.2102772
271360821,-45.194233,32.3,101869.0,1.2103722
271372163,-44.52837,32.3,101861.0,1.2102772
271396815,-43.86779,32.309998,101853.0,1.2101821
271407848,-43.94706,32.309998,101854.0,1.210194
271419749,-44.612923,32.309998,101862.0,1.2102891
271442879,-44.364544,32.3,101859.0,1.2102535
271453358,-44.77675,32.3,101863.99,1.2103127
271462880,-44.116165,32.3,101856.0,1.2102178
271485650,-44.364544,32.309998,101859.0,1.2102535
271496821,-44.031612,32.309998,101855.0,1.2102059
271509298,-44.52837,32.309998,101861.0,1.2102772
271533370,-44.20072,32.3,101857.0,1.2102296
271544654,-43.86779,32.3,101853.0,1.2101821
271557362,-44.031612,32.3,101855.0,1.2102059
271578842,-43.61941,32.3,101850.0,1.2101464
271589972,-44.031612,32.3,101855.0,1.2102059
271599788,-44.8613,32.3,101865.0,1.2103248
271622137,-44.20072,32.309998,101857.0,1.2102296
271633459,-44.612923,32.309998,101862.0,1.2102891
271643785,-44.612923,32.309998,101862.0,1.2102891
271664956,-43.28648,32.309998,101846.0,1.210099
271677189,-44.612923,32.309998,101862.0,1.2102891
271687786,-43.94706,32.309998,101854.0,1.210194
271709788,-43.201923,32.3,101844.99,1.210087
271721937,-43.783234,32.3,101851.99,1.2101701
271733437,-43.86779,32.3,101853.0,1.2101821
271755010,-44.612923,32.309998,101862.0,1.2102891
271766401,-43.371033,32.309998,101847.0,1.2101108
271775832,-44.031612,32.309998,101855.0,1.2102059
271798547,-44.20072,32.309998,101857.0,1.2102296
271809950,-44.4491,32.309998,101860.0,1.2102653
271820490,-43.0381,32.309998,101843.0,1.2100633
271843376,-43.69868,32.3,101850.99,1.2101582
271852498,-43.69868,32.3,101850.99,1.2101582
271863508,-43.450302,32.3,101848.0,1.2101227
271885497,-44.031612,32.3,101855.0,1.2102059
271896496,-43.201923,32.3,101844.99,1.210087
271906732,-43.371033,32.3,101847.0,1.2101108
271928496,-42.86899,32.309998,101841.0,1.2100395
271939491,-43.371033,32.309998,101847.0,1.2101108
271950542,-43.201923,32.309998,101844.99,1.210087
271971493,-42.86899,32.309998,101841.0,1.2100395
271983018,-42.86899,32.309998,101841.0,1.2100395
271993490,-43.783234,32.309998,101851.99,1.2101701
272013786,-43.11737,32.309998,101844.0,1.2100751
272024818,-43.11737,32.309998,101844.0,1.2100751
272036138,-42.70517,32.309998,101838.99,1.2100157
272058078,-43.450302,32.309998,101848.0,1.2101227
272069280,-42.953545,32.309998,101842.0,1.2100514
272079795,-42.45679,32.309998,101836.0,1.2099801
272102835,-42.953545,32.309998,101842.0,1.2100514
272113344,-43.371033,32.309998,101847.0,1.2101108
272125610,-42.86899,32.309998,101841.0,1.2100395
272149354,-43.28648,32.309998,101846.0,1.210099
272160824,-42.70517,32.309998,101838.99,1.2100157
272173317,-43.28648,32.309998,101846.0,1.210099
272194846,-42.953545,32.3,101842.0,1.2100514
272205344,-42.620613,32.3,101838.0,1.2100039
272215789,-42.620613,32.3,101838.0,1.2100039
272238094,-42.70517,32.309998,101838.99,1.2100157
272248599,-42.45679,32.309998,101836.0,1.2099801
272259786,-41.960033,32.309998,101830.0,1.2099088
272280954,-42.541344,32.3,101837.0,1.209992
272291407,-42.292965,32.3,101834.0,1.2099564
272302062,-42.292965,32.3,101834.0,1.2099564
272323785,-41.87548,32.309998,101829.0,1.2098969
272334419,-42.208412,32.309998,101832.99,1.2099444
272343784,-42.620613,32.309998,101838.0,1.2100039
272365788,-42.541344,32.309998,101837.0,1.209992
272377931,-42.953545,32.309998,101842.0,1.2100514
272389423,-42.620613,32.309998,101838.0,1.2100039
272411034,-41.79621,32.309998,101828.0,1.2098851
272421420,-42.372234,32.309998,101835.0,1.2099682
272431797,-41.87548,32.309998,101829.0,1.2098969
272453757,-42.12386,32.309998,101832.0,1.2099326
272466635,-42.04459,32.309998,101831.0,1.2099208
272477383,-42.04459,32.309998,101831.0,1.2099208
272499802,-42.208412,32.309998,101832.99,1.2099444
272510547,-42.541344,32.309998,101837.0,1.209992
272523491,-41.46328,32.309998,101824.0,1.2098376
272544796,-42.372234,32.309998,101835.0,1.2099682
272556347,-41.87548,32.309998,101829.0,1.2098969
272566838,-41.378723,32.309998,101823.0,1.2098256
272587661,-41.547832,32.309998,101825.0,1.2098495
272598414,-41.29417,32.309998,101822.0,1.2098138
272607790,-42.04459,32.309998,101831.0,1.2099208
272631380,-41.29417,32.309998,101822.0,1.2098138
272641343,-41.130344,32.309998,101819.99,1.20979
272651806,-42.04459,32.309998,101831.0,1.2099208
272672811,-41.6271,32.309998,101825.99,1.2098613
272684368,-41.6271,32.309998,101825.99,1.2098613
272693793,-41.87548,32.309998,101829.0,1.2098969
272715755,-41.29417,32.309998,101822.0,1.2098138
272727900,-41.130344,32.309998,101819.99,1.20979
272739804,-40.797413,32.309998,101816.0,1.2097425
