timestamp,time_utc_usec,lat,lon,alt,alt_ellipsoid,s_variance_m_s,c_variance_rad,eph,epv,hdop,vdop,noise_per_ms,jamming_indicator,vel_m_s,vel_n_m_s,vel_e_m_s,vel_d_m_s,cog_rad,timestamp_time_relative,heading,heading_offset,fix_type,vel_ned_valid,satellites_used
751494504,1542385776200480,323874180,-1170763169,18929,-15515,0.22600001,0.6390699,0.61700004,1.261,0.72999996,1.17,84,1,0.071,-0.068,0.019000001,-0.0050000004,5.950841,0,nan,0.0,4,1,17
751690667,1542385776400480,323874179,-1170763169,18907,-15537,0.24800001,0.6390805,0.61800003,1.264,0.72999996,1.17,84,1,0.030000001,0.021000002,-0.022000002,-0.008,5.950841,0,nan,0.0,4,1,17
751891566,1542385776600480,323874179,-1170763171,18905,-15539,0.24800001,0.6390912,0.61800003,1.2670001,0.72999996,1.17,84,1,0.115,-0.049000002,-0.104,-0.097,5.950841,0,nan,0.0,4,1,17
752087950,1542385776800480,323874179,-1170763171,18868,-15576,0.296,0.63910395,0.61800003,1.2670001,0.72999996,1.17,84,1,0.056,0.056,0.006,-0.080000006,5.950841,0,nan,0.0,4,1,17
752290523,1542385777000480,323874179,-1170763173,18968,-15476,0.31,0.639136,0.61700004,1.268,0.72999996,1.17,84,1,0.120000005,-0.025,-0.11800001,-0.74200004,5.950841,0,nan,0.0,4,1,17
752489514,1542385777200480,323874178,-1170763175,19173,-15271,0.33600003,0.63919765,0.619,1.271,0.72999996,1.17,84,1,0.13700001,-0.07300001,-0.116000004,-1.427,5.950841,0,nan,0.0,4,1,17
752693694,1542385777400480,323874175,-1170763176,19504,-14940,0.33,0.639276,0.62100005,1.2780001,0.72999996,1.17,84,1,0.18100001,-0.18,0.018000001,-1.82,5.950841,0,nan,0.0,4,1,17
752886522,1542385777600480,323874172,-1170763177,19847,-14598,0.347,0.6393542,0.623,1.2870001,0.72999996,1.17,84,1,0.133,-0.098000005,-0.09,-1.817,5.950841,0,nan,0.0,4,1,17
753088655,1542385777800480,323874170,-1170763179,20196,-14248,0.344,0.63943607,0.62600005,1.2900001,0.72999996,1.17,84,1,0.126,-0.063,-0.109000005,-1.9060001,5.950841,0,nan,0.0,4,1,17
753291503,1542385778000480,323874169,-1170763178,20497,-13947,0.333,0.6395207,0.62700003,1.2930001,0.72999996,1.17,84,2,0.15200001,-0.13800001,0.065000005,-1.9670001,5.950841,0,nan,0.0,4,1,17
753488713,1542385778200480,323874167,-1170763179,20775,-13669,0.34800002,0.6396017,0.629,1.3000001,0.72999996,1.17,84,2,0.194,0.059000004,-0.185,-1.8770001,5.950841,0,nan,0.0,4,1,17
753688567,1542385778400480,323874167,-1170763179,21144,-13300,0.34800002,0.63969386,0.63100004,1.3080001,0.72999996,1.17,84,2,0.046000004,-0.042000003,0.019000001,-2.1490002,5.950841,0,nan,0.0,4,1,17
753888766,1542385778600480,323874166,-1170763177,21608,-12836,0.34,0.6397879,0.633,1.3110001,0.72999996,1.17,84,2,0.11100001,-0.081,0.076000005,-2.1920002,5.950841,0,nan,0.0,4,1,17
754090526,1542385778800480,323874164,-1170763175,22081,-12363,0.34,0.63988304,0.63500005,1.317,0.72999996,1.17,84,2,0.136,-0.126,0.052,-2.2150002,5.950841,0,nan,0.0,4,1,17
754290499,1542385779000480,323874161,-1170763173,22469,-11975,0.34500003,0.63997835,0.637,1.325,0.72999996,1.17,84,3,0.091000006,-0.034,0.08400001,-2.2220001,5.950841,0,nan,0.0,4,1,17
754489504,1542385779200480,323874161,-1170763171,22870,-11574,0.34800002,0.64006925,0.64000005,1.332,0.72999996,1.17,84,3,0.041,-0.026,0.032,-2.124,5.950841,0,nan,0.0,4,1,17
754686600,1542385779400480,323874158,-1170763169,23355,-11089,0.342,0.64016074,0.64100003,1.3340001,0.72999996,1.17,84,3,0.098000005,-0.08400001,0.051000003,-2.1320002,5.950841,0,nan,0.0,4,1,17
754888554,1542385779600480,323874157,-1170763167,23736,-10708,0.36900002,0.640249,0.64500004,1.3440001,0.72999996,1.17,84,3,0.113000005,0.086,0.07300001,-2.0600002,5.950841,0,nan,0.0,4,1,17
755088555,1542385779800480,323874158,-1170763165,24138,-10306,0.35900003,0.64033717,0.648,1.3520001,0.72999996,1.17,84,3,0.12200001,0.098000005,0.072000004,-2.0500002,5.950841,0,nan,0.0,4,1,17
755292560,1542385780000480,323874159,-1170763162,24542,-9903,0.356,0.64042133,0.65000004,1.3560001,0.72999996,1.17,90,4,0.134,0.060000002,0.120000005,-1.9620001,5.950841,0,nan,0.0,4,1,17
755488688,1542385780200480,323874159,-1170763160,24963,-9481,0.35500002,0.64050597,0.652,1.3610001,0.72999996,1.17,90,4,0.052,0.052,0.001,-1.978,5.950841,0,nan,0.0,4,1,17
755690501,1542385780400480,323874159,-1170763160,25482,-8962,0.347,0.64058954,0.65400004,1.365,0.72999996,1.17,90,4,0.081,-0.038000003,0.071,-1.9510001,5.950841,0,nan,0.0,4,1,17
755890619,1542385780600480,323874158,-1170763158,25841,-8603,0.35300002,0.640673,0.65500003,1.3720001,0.72999996,1.17,90,4,0.041,0.035,0.021000002,-1.9480001,5.950841,0,nan,0.0,4,1,17
756088548,1542385780800480,323874159,-1170763158,26221,-8223,0.363,0.64075917,0.657,1.3800001,0.72999996,1.17,90,4,0.11400001,0.078,-0.083000004,-2.0110002,5.950841,0,nan,0.0,4,1,17
756286503,1542385781000479,323874159,-1170763160,26623,-7822,0.36900002,0.64083654,0.65900004,1.3850001,0.72999996,1.17,90,2,0.142,0.08400001,-0.115,-1.8000001,5.950841,0,nan,0.0,4,1,17
756484558,1542385781200479,323874159,-1170763160,27050,-7394,0.36600003,0.6409171,0.661,1.391,0.72999996,1.17,90,2,0.028,0.026,0.008,-1.8880001,5.950841,0,nan,0.0,4,1,17
756685503,1542385781400479,323874160,-1170763161,27328,-7116,0.37300003,0.64099884,0.66300005,1.3980001,0.72999996,1.17,90,2,0.23700002,0.16900001,-0.16600001,-1.8930001,5.950841,0,nan,0.0,4,1,17
756884806,1542385781600479,323874162,-1170763163,27693,-6751,0.377,0.64107597,0.666,1.406,0.72999996,1.17,90,2,0.083000004,-0.006,-0.083000004,-1.8010001,5.950841,0,nan,0.0,4,1,17
757085039,1542385781800479,323874163,-1170763164,28022,-6422,0.38700002,0.64115,0.669,1.4130001,0.72999996,1.17,90,2,0.18,0.155,-0.09,-1.723,5.950841,0,nan,0.0,4,1,17
757285611,1542385782000479,323874165,-1170763166,28325,-6119,0.388,0.64122623,0.671,1.4210001,0.72999996,1.17,90,2,0.21000001,0.13900001,-0.157,-1.7680001,5.950841,0,nan,0.0,4,1,17
757489523,1542385782200479,323874166,-1170763169,28710,-5734,0.38500002,0.64129955,0.67300004,1.427,0.72999996,1.17,90,2,0.128,0.064,-0.11100001,-1.7110001,5.950841,0,nan,0.0,4,1,17
757682656,1542385782400479,323874168,-1170763171,29044,-5400,0.38300002,0.6413685,0.674,1.4350001,0.72999996,1.17,90,2,0.117000006,0.080000006,-0.086,-1.6090001,5.950841,0,nan,0.0,4,1,17
757883190,1542385782600479,323874169,-1170763174,29333,-5111,0.38000003,0.6414364,0.67600006,1.439,0.72999996,1.17,90,2,0.19600001,0.064,-0.185,-1.5760001,5.950841,0,nan,0.0,4,1,17
758083509,1542385782800479,323874169,-1170763176,29734,-4710,0.367,0.6415064,0.67700005,1.442,0.72999996,1.17,90,2,0.048,-0.048,-0.004,-1.6340001,5.950841,0,nan,0.0,4,1,17
758285531,1542385783000479,323874169,-1170763176,30006,-4438,0.374,0.6415722,0.67800003,1.4490001,0.72999996,1.17,90,3,0.11100001,0.101,-0.047000002,-1.5380001,5.950841,0,nan,0.0,4,1,17
758482530,1542385783200479,323874170,-1170763177,30362,-4082,0.37,0.6416348,0.68,1.4530001,0.72999996,1.17,90,3,0.029000001,-0.019000001,-0.021000002,-1.463,5.950841,0,nan,0.0,4,1,17
758684825,1542385783400479,323874171,-1170763178,30664,-3780,0.365,0.64169836,0.68100005,1.4560001,0.72999996,1.17,90,3,0.143,0.136,-0.042000003,-1.48,5.950841,0,nan,0.0,4,1,17
758885592,1542385783600479,323874173,-1170763179,31014,-3430,0.36,0.641779,0.68100005,1.4560001,0.72999996,1.17,90,3,0.096,0.068,-0.068,-1.8880001,5.950841,0,nan,0.0,4,1,17
759082725,1542385783800479,323874174,-1170763181,31522,-2922,0.34800002,0.6418813,0.68200004,1.457,0.72999996,1.17,90,3,0.054,0.030000001,-0.045,-2.3930001,5.950841,0,nan,0.0,4,1,17
759286497,1542385784000479,323874175,-1170763181,32050,-2394,0.35700002,0.6420024,0.683,1.46,0.72999996,1.17,90,2,0.016,-0.012,0.011000001,-2.834,5.950841,0,nan,0.0,4,1,17
759483301,1542385784200479,323874175,-1170763181,32775,-1669,0.356,0.6421322,0.684,1.4640001,0.72999996,1.17,90,2,0.135,-0.065000005,0.119,-3.038,5.950841,0,nan,0.0,4,1,17
759683361,1542385784400479,323874174,-1170763179,33420,-1024,0.35000002,0.64226544,0.684,1.4660001,0.72999996,1.17,90,2,0.043,-0.037,0.023000002,-3.121,5.950841,0,nan,0.0,4,1,17
759884568,1542385784600479,323874174,-1170763179,34099,-345,0.36100003,0.6424033,0.68500006,1.4690001,0.72999996,1.17,90,2,0.053000003,-0.010000001,0.052,-3.226,5.950841,0,nan,0.0,4,1,17
760081508,1542385784800479,323874176,-1170763178,34652,208,0.36200002,0.64253086,0.68600005,1.4720001,0.72999996,1.17,90,2,0.23,0.22900002,-0.026,-2.9810002,5.950841,0,nan,0.0,4,1,17
760280690,1542385785000479,323874178,-1170763178,35218,774,0.367,0.64265776,0.68700004,1.4760001,0.72999996,1.17,90,4,0.063,0.040000003,0.049000002,-2.9740002,5.950841,0,nan,0.0,4,1,17
760485898,1542385785200479,323874179,-1170763177,35717,1273,0.374,0.64277714,0.688,1.48,0.72999996,1.17,90,4,0.11000001,0.106000006,-0.031000001,-2.795,5.950841,0,nan,0.0,4,1,17
760686619,1542385785400479,323874180,-1170763176,36444,1999,0.36800003,0.6429072,0.689,1.4840001,0.72999996,1.17,90,4,0.26700002,-0.158,0.215,-3.038,5.950841,0,nan,0.0,4,1,17
760886513,1542385785600479,323874178,-1170763174,37006,2562,0.388,0.6430372,0.69000006,1.4890001,0.72999996,1.17,90,4,0.026,0.009000001,-0.024,-3.048,5.950841,0,nan,0.0,4,1,17
761083127,1542385785800479,323874178,-1170763174,37571,3127,0.395,0.6431634,0.69100004,1.4920001,0.72999996,1.17,90,4,0.034,0.019000001,-0.028,-2.959,5.950841,0,nan,0.0,4,1,17
761285524,1542385786000479,323874178,-1170763174,38099,3654,0.397,0.6432866,0.693,1.496,0.72999996,1.17,90,3,0.080000006,0.069000006,-0.041,-2.891,5.950841,0,nan,0.0,4,1,17
761485526,1542385786200479,323874180,-1170763175,38648,4204,0.39400002,0.6434112,0.694,1.4990001,0.72999996,1.17,90,3,0.09,0.089,0.011000001,-2.923,5.950841,0,nan,0.0,4,1,17
761685594,1542385786400479,323874181,-1170763175,39238,4793,0.384,0.64353377,0.694,1.501,0.72999996,1.17,90,3,0.043,-0.031000001,0.030000001,-2.8730001,5.950841,0,nan,0.0,4,1,17
761886500,1542385786600479,323874182,-1170763175,39810,5366,0.381,0.64365834,0.69500005,1.5020001,0.72999996,1.17,90,3,0.080000006,0.072000004,0.035,-2.9250002,5.950841,0,nan,0.0,4,1,17
762086537,1542385786800479,323874183,-1170763174,40371,5927,0.377,0.6437818,0.69600004,1.5050001,0.72999996,1.17,90,3,0.102000006,0.098000005,0.030000001,-2.894,5.950841,0,nan,0.0,4,1,17
762286554,1542385787000479,323874186,-1170763174,40920,6476,0.381,0.6439029,0.69600004,1.508,0.74,1.24,90,2,0.113000005,0.112,0.017,-2.8400002,5.950841,0,nan,0.0,4,1,16
762488629,1542385787200479,323874188,-1170763175,41481,7037,0.37300003,0.6440219,0.697,1.5070001,0.72999996,1.17,90,2,0.047000002,0.047000002,-0.002,-2.7970002,5.950841,0,nan,0.0,4,1,17
762687677,1542385787400479,323874189,-1170763175,42052,7608,0.384,0.6441357,0.698,1.5120001,0.72999996,1.17,90,2,0.024,0.014,0.019000001,-2.6710002,5.950841,0,nan,0.0,4,1,17
762885532,1542385787600479,323874190,-1170763177,42576,8132,0.37500003,0.64424324,0.70100003,1.5180001,0.72999996,1.17,90,2,0.14500001,0.133,-0.058000002,-2.522,5.950841,0,nan,0.0,4,1,17
763080580,1542385787800479,323874192,-1170763178,43033,8589,0.38000003,0.64434165,0.70500004,1.5230001,0.72999996,1.17,90,2,0.097,0.072000004,-0.065000005,-2.309,5.950841,0,nan,0.0,4,1,17
763286522,1542385788000479,323874193,-1170763179,43511,9067,0.36,0.6444333,0.708,1.5250001,0.72999996,1.17,90,2,0.059000004,0.019000001,0.056,-2.1550002,5.950841,0,nan,0.0,4,1,17
763485662,1542385788200479,323874194,-1170763179,44018,9574,0.356,0.6445202,0.70900005,1.5280001,0.74,1.24,90,2,0.120000005,-0.047000002,0.11000001,-2.039,5.950841,0,nan,0.0,4,1,16
763683501,1542385788400479,323874194,-1170763178,44521,10077,0.35200003,0.64460623,0.71000004,1.5270001,0.72999996,1.17,90,2,0.120000005,-0.094000004,0.075,-2.0210001,5.950841,0,nan,0.0,4,1,17
763886508,1542385788600479,323874193,-1170763177,44921,10477,0.35200003,0.6446881,0.71000004,1.5280001,0.72999996,1.17,90,2,0.07,-0.051000003,0.048,-1.922,5.950841,0,nan,0.0,4,1,17
764083498,1542385788800479,323874193,-1170763177,45250,10806,0.36400002,0.64476454,0.711,1.5320001,0.72999996,1.17,90,2,0.072000004,0.07,-0.014,-1.794,5.950841,0,nan,0.0,4,1,17
764281504,1542385789000479,323874193,-1170763178,45553,11108,0.365,0.6448314,0.711,1.5350001,0.72999996,1.17,90,1,0.044000003,0.042000003,0.014,-1.5690001,5.950841,0,nan,0.0,4,1,17
764485511,1542385789200479,323874193,-1170763177,45837,11393,0.36100003,0.6448948,0.712,1.5380001,0.72999996,1.17,90,1,0.087000005,-0.033,0.081,-1.4890001,5.950841,0,nan,0.0,4,1,17
764685520,1542385789400479,323874193,-1170763177,46103,11659,0.36,0.64494956,0.712,1.542,0.72999996,1.17,90,1,0.054,-0.048,0.024,-1.2900001,5.950841,0,nan,0.0,4,1,17
764886506,1542385789600478,323874192,-1170763177,46354,11910,0.358,0.64500034,0.71300006,1.5450001,0.72999996,1.17,90,1,0.031000001,-0.018000001,0.025,-1.194,5.950841,0,nan,0.0,4,1,17
765086506,1542385789800478,323874191,-1170763177,46664,12220,0.34800002,0.64504975,0.71300006,1.544,0.77,1.18,90,1,0.091000006,-0.082,0.041,-1.1580001,5.950841,0,nan,0.0,4,1,16
765286517,1542385790000478,323874190,-1170763177,46842,12398,0.35300002,0.6450902,0.71300006,1.549,0.72999996,1.17,90,3,0.036000002,-0.028,0.022000002,-0.95000005,5.950841,0,nan,0.0,4,1,17
765487615,1542385790200478,323874191,-1170763177,47140,12696,0.344,0.6451288,0.71400005,1.549,0.72999996,1.17,90,3,0.123,-0.007,0.123,-0.901,5.950841,0,nan,0.0,4,1,17
765679247,1542385790400478,323874189,-1170763175,47349,12905,0.33900002,0.6451672,0.71300006,1.5430001,0.72999996,1.17,90,3,0.086,-0.051000003,0.069000006,-0.89900005,5.950841,0,nan,0.0,4,1,17
765883517,1542385790600478,323874189,-1170763174,47540,13096,0.35500002,0.64520353,0.71300006,1.547,0.72999996,1.17,90,3,0.064,0.061000004,0.021000002,-0.85300004,5.950841,0,nan,0.0,4,1,17
766088676,1542385790800478,323874191,-1170763175,47740,13296,0.35500002,0.64524,0.71300006,1.5460001,0.72999996,1.17,90,3,0.07700001,0.072000004,-0.027,-0.85600007,5.950841,0,nan,0.0,4,1,17
766289520,1542385791000478,323874194,-1170763177,47984,13540,0.35700002,0.64526945,0.712,1.5410001,0.72999996,1.17,84,3,0.16700001,0.134,-0.1,-0.674,5.950841,0,nan,0.0,4,1,17
766486542,1542385791200478,323874196,-1170763178,48202,13758,0.34800002,0.64530367,0.712,1.542,0.72999996,1.17,84,3,0.120000005,0.076000005,0.093,-0.795,5.950841,0,nan,0.0,4,1,17
766689703,1542385791400478,323874197,-1170763179,48399,13955,0.35500002,0.6453412,0.711,1.5350001,0.72999996,1.17,84,3,0.049000002,0.024,-0.043,-0.88100004,5.950841,0,nan,0.0,4,1,17
766890549,1542385791600478,323874198,-1170763180,48579,14135,0.36,0.6453723,0.711,1.534,0.72999996,1.17,84,3,0.075,0.009000001,-0.074,-0.72700006,5.950841,0,nan,0.0,4,1,17
767088570,1542385791800478,323874198,-1170763183,48745,14301,0.35500002,0.6454007,0.711,1.5330001,0.72999996,1.17,84,3,0.11800001,-0.007,-0.11800001,-0.65900004,5.950841,0,nan,0.0,4,1,17
767288585,1542385792000478,323874199,-1170763184,48885,14441,0.36600003,0.6454269,0.71000004,1.536,0.72999996,1.17,89,5,0.126,0.07300001,-0.102000006,-0.60200006,5.950841,0,nan,0.0,4,1,17
767489618,1542385792200478,323874202,-1170763186,49071,14627,0.365,0.6454564,0.70900005,1.536,0.74,1.22,89,5,0.186,0.128,-0.135,-0.67200005,5.950841,0,nan,0.0,4,1,16
767696193,1542385792400478,323874204,-1170763192,49205,14761,0.37300003,0.64548624,0.70900005,1.542,0.74,1.22,89,5,0.26900002,0.179,-0.201,-0.648,5.950841,0,nan,0.0,4,1,16
767885568,1542385792600478,323874204,-1170763196,49416,14972,0.303,0.64551556,0.703,1.519,0.72999996,1.17,89,5,0.101,-0.101,0.003,-0.68,5.950841,0,nan,0.0,4,1,17
768089545,1542385792800478,323874201,-1170763196,49541,15097,0.317,0.6455428,0.703,1.519,0.72999996,1.17,89,5,0.24200001,-0.22700001,0.083000004,-0.597,5.950841,0,nan,0.0,4,1,17
768289532,1542385793000478,323874198,-1170763196,49678,15234,0.35000002,0.64555764,0.703,1.521,0.74,1.22,89,3,0.082,0.047000002,0.068,-0.324,5.950841,0,nan,0.0,4,1,16
768488681,1542385793200478,323874197,-1170763194,49744,15300,0.333,0.6455763,0.708,1.5300001,0.74,1.22,89,3,0.215,-0.15,0.15400001,-0.38300002,5.950841,0,nan,0.0,4,1,16
768689563,1542385793400478,323874191,-1170763189,50048,15604,0.30400002,0.6455927,0.712,1.5280001,0.72999996,1.17,89,3,0.192,-0.12100001,0.149,-0.33400002,5.950841,0,nan,0.0,4,1,17
768891497,1542385793600478,323874183,-1170763183,50263,15819,0.208,0.6585902,0.70400006,1.4810001,0.72999996,1.17,89,3,0.23900001,-0.19700001,0.136,-0.319,1.0727774,0,nan,0.0,4,1,17
769090533,1542385793800478,323874177,-1170763179,50480,16036,0.202,0.6586024,0.693,1.437,0.72999996,1.17,89,3,0.17500001,-0.115,0.132,-0.23500001,1.0727774,0,nan,0.0,4,1,17
769293510,1542385794000478,323874176,-1170763177,50584,16140,0.21400002,0.658613,0.68500006,1.406,0.72999996,1.17,96,6,0.158,-0.123,0.09900001,-0.201,1.0727774,0,nan,0.0,4,1,17
769493519,1542385794200478,323874174,-1170763174,50621,16177,0.238,0.6586254,0.68200004,1.4000001,0.72999996,1.17,96,6,0.19600001,-0.14400001,0.134,-0.22100002,1.0727774,0,nan,0.0,4,1,17
769693650,1542385794400478,323874173,-1170763171,50662,16218,0.259,0.6586361,0.68200004,1.4000001,0.72999996,1.17,96,6,0.18400002,-0.09900001,0.155,-0.163,1.0727774,0,nan,0.0,4,1,17
769889502,1542385794600478,323874171,-1170763170,50805,16361,0.305,0.65865403,0.68100005,1.396,0.72999996,1.17,96,6,0.032,-0.007,0.031000001,-0.42800003,1.0727774,0,nan,0.0,4,1,17
770092543,1542385794800478,323874168,-1170763168,51009,16565,0.24400002,0.6586658,0.68100005,1.3870001,0.72999996,1.17,96,6,0.148,-0.071,0.12900001,-0.238,1.0727774,0,nan,0.0,4,1,17
770291145,1542385795000478,323874164,-1170763166,51294,16850,0.3,0.6586829,0.67700005,1.376,0.72999996,1.17,95,9,0.009000001,-0.006,0.007,-0.41500002,1.0727774,0,nan,0.0,4,1,17
770524556,1542385795200478,323874165,-1170763162,51505,17061,0.32200003,0.65870553,0.83000004,1.389,0.72999996,1.17,95,9,0.064,0.046000004,0.044000003,-0.537,1.0727774,0,nan,0.0,4,1,17
770701019,1542385795400478,323874168,-1170763160,51625,17181,0.317,0.6587237,0.81700003,1.3870001,0.72999996,1.17,95,9,0.120000005,0.109000005,0.049000002,-0.42100003,1.0727774,0,nan,0.0,4,1,17
770897547,1542385795600478,323874170,-1170763161,51735,17291,0.305,0.65874374,0.80600005,1.386,0.72999996,1.17,95,9,0.104,-0.056,-0.087000005,-0.47400004,1.0727774,0,nan,0.0,4,1,17
771097521,1542385795800478,323874173,-1170763162,51803,17359,0.31800002,0.65875703,0.79,1.3790001,0.72999996,1.17,95,9,0.082,0.081,-0.006,-0.13000001,1.0727774,0,nan,0.0,4,1,17
771298504,1542385796000478,323874178,-1170763164,52044,17600,0.257,0.4527595,0.76900005,1.348,0.72999996,1.17,89,8,0.393,0.35900003,-0.162,-0.314,0.056028556,0,nan,0.0,4,1,17
771499535,1542385796200478,323874192,-1170763164,52232,17788,0.20400001,0.17873009,0.75200003,1.327,0.72999996,1.17,89,8,0.9760001,0.93000007,-0.294,-0.24700001,6.0260615,0,nan,0.0,4,1,17
771703143,1542385796400478,323874215,-1170763169,52330,17886,0.26200002,0.140392,0.74500006,1.312,0.72999996,1.17,89,8,1.559,1.493,-0.45000002,-0.209,6.004056,0,nan,0.0,4,1,17
771900571,1542385796600478,323874253,-1170763181,52428,17984,0.23900001,0.08266734,0.73800004,1.3060001,0.72999996,1.17,89,8,2.4480002,2.354,-0.675,-0.136,6.003914,0,nan,0.0,4,1,17
772100637,1542385796800478,323874304,-1170763194,52511,18067,0.268,0.06407871,0.735,1.3050001,0.72999996,1.17,89,8,3.101,2.9810002,-0.85300004,-0.22100002,6.004375,0,nan,0.0,4,1,17
772300756,1542385797000478,323874364,-1170763212,52544,18100,0.303,0.0563949,0.734,1.299,0.72999996,1.17,83,7,3.6590002,3.538,-0.934,-0.143,6.0163255,0,nan,0.0,4,1,17
772492765,1542385797200478,323874443,-1170763238,52590,18146,0.16900001,0.03859551,0.71500003,1.2600001,0.72999996,1.17,83,7,4.348,4.211,-1.0810001,-0.076000005,6.0271277,0,nan,0.0,4,1,17
772697617,1542385797400478,323874526,-1170763266,52721,18277,0.16600001,0.0369748,0.698,1.228,0.72999996,1.17,83,7,4.5940003,4.4100003,-1.284,-0.22200002,6.0118365,0,nan,0.0,4,1,17
772899547,1542385797600478,323874606,-1170763299,52890,18446,0.16100001,0.034002326,0.68,1.1930001,0.72999996,1.17,83,7,4.828,4.61,-1.4350001,-0.126,5.994075,0,nan,0.0,4,1,17
773099509,1542385797800478,323874689,-1170763333,53016,18572,0.16100001,0.032933664,0.665,1.1650001,0.72999996,1.17,83,7,4.874,4.6480002,-1.4670001,-0.021000002,5.984666,0,nan,0.0,4,1,17
773299339,1542385798000478,323874770,-1170763362,53329,18885,0.15900001,0.031116078,0.64900005,1.131,0.72999996,1.17,83,4,4.9440002,4.6990004,-1.5350001,-0.037,5.9746547,0,nan,0.0,4,1,17
773499255,1542385798200477,323874853,-1170763394,53482,19038,0.156,0.031333372,0.634,1.1010001,0.72999996,1.17,83,4,4.8950005,4.637,-1.5680001,0.09,5.964858,0,nan,0.0,4,1,17
773701509,1542385798400477,323874937,-1170763425,53528,19084,0.15100001,0.03153164,0.62,1.069,0.72999996,1.17,83,4,4.852,4.5930004,-1.565,0.25800002,5.9592366,0,nan,0.0,4,1,17
773901644,1542385798600477,323875022,-1170763455,53468,19024,0.172,0.03112044,0.60700005,1.046,0.72999996,1.17,83,4,4.854,4.604,-1.536,0.514,5.9603157,0,nan,0.0,4,1,17
774100762,1542385798800477,323875104,-1170763486,53353,18909,0.15,0.038470544,0.597,1.031,0.72999996,1.17,83,4,4.52,4.281,-1.4490001,0.69100004,5.958708,0,nan,0.0,4,1,17
774302500,1542385799000477,323875181,-1170763515,53201,18757,0.15900001,0.040681005,0.588,1.018,0.72999996,1.17,83,14,4.36,4.1330004,-1.3900001,0.822,5.9587483,0,nan,0.0,4,1,17
774501624,1542385799200477,323875253,-1170763542,53053,18609,0.19700001,0.044288598,0.58100003,1.014,0.72999996,1.17,83,14,4.02,3.8070002,-1.292,0.93200004,5.957409,0,nan,0.0,4,1,17
774700700,1542385799400477,323875320,-1170763568,52901,18457,0.19700001,0.04848245,0.57500005,1.013,0.72999996,1.17,83,14,3.7900002,3.591,-1.2110001,0.90300006,5.957685,0,nan,0.0,4,1,17
774899510,1542385799600477,323875382,-1170763591,52688,18244,0.19900002,0.052269466,0.569,1.01,0.72999996,1.17,83,14,3.5200002,3.3620002,-1.042,1.0430001,5.9696875,0,nan,0.0,4,1,17
775093506,1542385799800477,323875440,-1170763612,52503,18059,0.18900001,0.05540617,0.564,1.0090001,0.72999996,1.17,83,14,3.1980002,3.0370002,-1.0020001,0.92,5.967189,0,nan,0.0,4,1,17
775301683,1542385800000477,323875491,-1170763633,52361,17917,0.202,0.06353277,0.559,1.011,0.72999996,1.17,83,8,2.874,2.696,-0.99500006,0.75500005,5.9504924,0,nan,0.0,4,1,17
775496568,1542385800200477,323875538,-1170763653,52186,17742,0.18900001,0.065069884,0.555,1.01,0.72999996,1.17,83,8,2.7280002,2.5440001,-0.984,0.78400004,5.932328,0,nan,0.0,4,1,17
775697503,1542385800400477,323875582,-1170763672,52015,17571,0.16000001,0.07156006,0.55,1.0070001,0.72999996,1.17,83,8,2.5560002,2.4290001,-0.79600006,0.716,5.9480467,0,nan,0.0,4,1,17
775898496,1542385800600477,323875623,-1170763690,51885,17441,0.16100001,0.07865902,0.546,1.003,0.72999996,1.17,83,8,2.3600001,2.1550002,-0.961,0.523,5.9092536,0,nan,0.0,4,1,17
776095497,1542385800800477,323875659,-1170763710,51815,17372,0.179,0.07889464,0.541,1.001,0.72999996,1.17,83,8,2.1820002,1.9790001,-0.919,0.256,5.8786483,0,nan,0.0,4,1,17
776298508,1542385801000477,323875692,-1170763728,51811,17367,0.18100001,0.08583965,0.537,0.998,0.72999996,1.17,83,7,2.0040002,1.8610001,-0.74200004,0.096,5.890179,0,nan,0.0,4,1,17
776498608,1542385801200477,323875724,-1170763745,51839,17395,0.187,0.08732946,0.53300005,0.99600005,0.72999996,1.17,83,7,1.968,1.8000001,-0.794,-0.15100001,5.879161,0,nan,0.0,4,1,17
776700637,1542385801400477,323875754,-1170763760,51868,17424,0.178,0.10275102,0.52900004,0.99000007,0.72999996,1.17,83,7,1.7780001,1.659,-0.63900006,-0.257,5.894571,0,nan,0.0,4,1,17
776900640,1542385801600477,323875783,-1170763775,51950,17507,0.19000001,0.10208727,0.526,0.984,0.72999996,1.17,83,7,1.72,1.5550001,-0.73300004,-0.47100002,5.8682566,0,nan,0.0,4,1,17
777104555,1542385801800477,323875810,-1170763790,52070,17626,0.202,0.10492674,0.522,0.97800004,0.72999996,1.17,83,7,1.595,1.4870001,-0.57600003,-0.50600004,5.890487,0,nan,0.0,4,1,17
777298542,1542385802000477,323875836,-1170763802,52145,17701,0.21800001,0.12084328,0.51900005,0.98,0.72999996,1.17,83,8,1.5270001,1.4030001,-0.601,-0.514,5.8854146,0,nan,0.0,4,1,17
777498503,1542385802200477,323875860,-1170763814,52277,17833,0.224,0.12132656,0.51600003,0.97700006,0.72999996,1.17,83,8,1.399,1.319,-0.469,-0.652,5.913432,0,nan,0.0,4,1,17
777695605,1542385802400477,323875884,-1170763825,52373,17929,0.23500001,0.12491862,0.51500005,0.97700006,0.72999996,1.17,83,8,1.483,1.4050001,-0.476,-0.689,5.934464,0,nan,0.0,4,1,17
777904553,1542385802600477,323875908,-1170763836,52459,18015,0.216,0.12997815,0.512,0.97300005,0.72999996,1.17,83,8,1.3540001,1.258,-0.499,-0.569,5.920463,0,nan,0.0,4,1,17
778098508,1542385802800477,323875930,-1170763846,52500,18056,0.216,0.13481253,0.509,0.966,0.72999996,1.17,83,8,1.2550001,1.1960001,-0.38000003,-0.549,5.9471846,0,nan,0.0,4,1,17
778296582,1542385803000477,323875951,-1170763854,52574,18130,0.202,0.12942645,0.505,0.95500004,0.72999996,1.17,83,7,1.223,1.1910001,-0.277,-0.483,6.003295,0,nan,0.0,4,1,17
778497501,1542385803200477,323875973,-1170763862,52677,18233,0.20700002,0.14090618,0.50100005,0.94200003,0.72999996,1.17,83,7,1.164,1.1420001,-0.22900002,-0.549,6.0409613,0,nan,0.0,4,1,17
778698508,1542385803400477,323875994,-1170763869,52794,18350,0.209,0.13129413,0.49600002,0.92600006,0.72999996,1.17,83,7,1.1730001,1.151,-0.22600001,-0.59300005,6.0668263,0,nan,0.0,4,1,17
778893036,1542385803600477,323876014,-1170763876,52858,18415,0.216,0.1533001,0.492,0.91800004,0.72999996,1.17,83,7,1.069,1.049,-0.20400001,-0.61800003,6.077011,0,nan,0.0,4,1,17
779088819,1542385803800477,323876031,-1170763880,52966,18522,0.358,0.2829257,0.49600002,0.9250001,0.72999996,1.17,83,7,0.81900007,0.79600006,-0.192,-0.61800003,6.0702004,0,nan,0.0,4,1,17
779291617,1542385804000477,323876045,-1170763886,53086,18642,0.316,0.27911216,0.503,0.93500006,0.72999996,1.17,75,4,0.89500004,0.84900004,-0.284,-0.514,6.0145564,0,nan,0.0,4,1,17
779492670,1542385804200477,323876060,-1170763891,53135,18691,0.29900002,0.3094479,0.51000005,0.94500005,0.72999996,1.17,75,4,0.795,0.77000004,-0.19900002,-0.323,6.0214276,0,nan,0.0,4,1,17
779691503,1542385804400477,323876073,-1170763896,53190,18746,0.279,0.2973526,0.514,0.95300007,0.72999996,1.17,75,4,0.693,0.67700005,-0.14600001,-0.246,6.047373,0,nan,0.0,4,1,17
779891550,1542385804600477,323876086,-1170763900,53255,18811,0.291,0.34354028,0.518,0.96300006,0.72999996,1.17,75,4,0.64400005,0.633,-0.116000004,-0.177,6.0709043,0,nan,0.0,4,1,17
780090541,1542385804800477,323876097,-1170763903,53264,18820,0.25,0.33906335,0.521,0.9710001,0.72999996,1.17,75,4,0.596,0.591,-0.07700001,-0.108,6.1127725,0,nan,0.0,4,1,17
780292912,1542385805000477,323876108,-1170763906,53302,18858,0.289,0.3364464,0.52400005,0.98200005,0.72999996,1.17,70,3,0.592,0.58400005,-0.093,-0.17400001,6.1190457,0,nan,0.0,4,1,17
780500775,1542385805200477,323876119,-1170763906,53316,18873,0.21400002,0.3254538,0.526,0.9850001,0.72999996,1.17,70,3,0.595,0.572,0.162,-0.035,0.063344106,0,nan,0.0,4,1,17
780689574,1542385805400477,323876130,-1170763900,53341,18897,0.177,0.2943262,0.52500004,0.97900003,0.72999996,1.17,70,3,0.689,0.508,0.46500003,-0.031000001,0.43600973,0,nan,0.0,4,1,17
780891497,1542385805600477,323876142,-1170763887,53381,18937,0.19100001,0.23456055,0.52400005,0.97800004,0.72999996,1.17,70,3,1.008,0.60200006,0.809,-0.18,0.73911077,0,nan,0.0,4,1,17
781091497,1542385805800477,323876153,-1170763863,53422,18978,0.22500001,0.17183289,0.526,0.98600006,0.72999996,1.17,70,3,1.5330001,0.54200006,1.434,-0.266,1.0453882,0,nan,0.0,4,1,17
781291504,1542385806000477,323876162,-1170763825,53463,19019,0.246,0.1373944,0.531,0.9990001,0.72999996,1.17,70,3,2.1820002,0.448,2.1360002,-0.20300001,1.2401079,0,nan,0.0,4,1,17
781491504,1542385806200477,323876169,-1170763774,53475,19031,0.257,0.10589453,0.537,1.013,0.72999996,1.17,70,3,2.7540002,0.37600002,2.7280002,-0.076000005,1.361949,0,nan,0.0,4,1,17
781692747,1542385806400477,323876176,-1170763710,53517,19074,0.23900001,0.08092201,0.54200006,1.0250001,0.72999996,1.17,70,3,3.3470001,0.31800002,3.3320003,-0.10700001,1.4342422,0,nan,0.0,4,1,17
781892577,1542385806600476,323876182,-1170763634,53551,19107,0.23500001,0.06396579,0.545,1.033,0.72999996,1.17,70,3,3.8260002,0.29500002,3.8150003,-0.026,1.4711643,0,nan,0.0,4,1,17
782093543,1542385806800476,323876187,-1170763550,53614,19170,0.231,0.054843828,0.54800004,1.041,0.72999996,1.17,70,3,4.2450004,0.256,4.2380004,0.033,1.494354,0,nan,0.0,4,1,17
782294602,1542385807000476,323876190,-1170763456,53651,19207,0.23600002,0.054943834,0.55,1.051,0.72999996,1.17,70,1,4.571,0.16900001,4.5680003,-0.003,1.5147909,0,nan,0.0,4,1,17
782491502,1542385807200476,323876192,-1170763360,53673,19229,0.22600001,0.053628903,0.55200005,1.0600001,0.72999996,1.17,70,1,4.622,0.11400001,4.6200004,0.086,1.531492,0,nan,0.0,4,1,17
782691543,1542385807400476,323876195,-1170763261,53651,19207,0.24200001,0.053424,0.554,1.072,0.72999996,1.17,70,1,4.796,0.15200001,4.793,0.134,1.5354239,0,nan,0.0,4,1,17
782887521,1542385807600476,323876202,-1170763169,53802,19358,0.18200001,0.04087212,0.55,1.062,0.78999996,1.28,70,1,4.5940003,0.098000005,4.5930004,0.32500002,1.5445814,0,nan,0.0,4,1,16
783089499,1542385807800476,323876202,-1170763071,53759,19316,0.19500001,0.040752213,0.54700005,1.0580001,0.72999996,1.17,70,1,4.775,0.208,4.7710004,0.48900002,1.5352392,0,nan,0.0,4,1,17
783292627,1542385808000476,323876206,-1170762969,53658,19214,0.24200001,0.05389018,0.54800004,1.0680001,0.72999996,1.17,70,2,4.7990003,0.23300001,4.793,0.42800003,1.5300604,0,nan,0.0,4,1,17
783489555,1542385808200476,323876208,-1170762867,53466,19023,0.193,0.047146402,0.54800004,1.07,0.72999996,1.17,70,2,4.734,0.21800001,4.729,0.82100004,1.5269552,0,nan,0.0,4,1,17
783688914,1542385808400476,323876210,-1170762766,53245,18801,0.20600002,0.047972467,0.54800004,1.0760001,0.72999996,1.17,70,2,4.662,0.075,4.6610003,0.97900003,1.5413454,0,nan,0.0,4,1,17
783889520,1542385808600476,323876213,-1170762665,53124,18680,0.20700002,0.043535315,0.54800004,1.0780001,0.72999996,1.17,70,2,4.906,0.19900002,4.9020004,1.023,1.5349327,0,nan,0.0,4,1,17
784091505,1542385808800476,323876218,-1170762565,53019,18575,0.17300001,0.03951373,0.54300004,1.0680001,0.72999996,1.17,70,2,4.827,0.113000005,4.826,0.91700006,1.5421219,0,nan,0.0,4,1,17
784291503,1542385809000476,323876220,-1170762461,52889,18445,0.19600001,0.036598157,0.53900003,1.0580001,0.72999996,1.17,70,2,4.872,0.162,4.8700004,0.97800004,1.5395318,0,nan,0.0,4,1,17
784492762,1542385809200476,323876221,-1170762355,52690,18247,0.192,0.03859708,0.536,1.054,0.72999996,1.17,70,2,4.92,0.15200001,4.918,0.96000004,1.5397189,0,nan,0.0,4,1,17
784692555,1542385809400476,323876227,-1170762250,52566,18122,0.18,0.039983746,0.532,1.049,0.72999996,1.17,70,2,4.939,0.19700001,4.9350004,0.92700005,1.5351388,0,nan,0.0,4,1,17
784893517,1542385809600476,323876234,-1170762145,52445,18001,0.201,0.038970582,0.52900004,1.044,0.72999996,1.17,70,2,4.9480004,0.155,4.945,1.021,1.5374919,0,nan,0.0,4,1,17
785093091,1542385809800476,323876241,-1170762040,52350,17906,0.20600002,0.041726284,0.528,1.046,0.78999996,1.28,70,2,5.0350003,0.24900001,5.0280004,0.86700004,1.5292307,0,nan,0.0,4,1,16
785293826,1542385810000476,323876246,-1170761934,52208,17764,0.19700001,0.04598471,0.527,1.0530001,0.72999996,1.17,75,3,4.984,0.187,4.98,0.80100006,1.5312419,0,nan,0.0,4,1,17
785493636,1542385810200476,323876250,-1170761828,52057,17613,0.18,0.039776225,0.52500004,1.0500001,0.72999996,1.17,75,3,4.9440002,0.23700002,4.938,0.878,1.5262232,0,nan,0.0,4,1,17
785685604,1542385810400476,323876253,-1170761720,51786,17342,0.21700001,0.046791926,0.52400005,1.056,0.79999995,1.36,75,3,4.921,0.15900001,4.918,0.88600004,1.5318515,0,nan,0.0,4,1,15
785890497,1542385810600476,323876256,-1170761614,51667,17223,0.224,0.043819804,0.52500004,1.0600001,0.72999996,1.17,75,3,5.0150003,0.156,5.012,0.78400004,1.5362169,0,nan,0.0,4,1,17
786091340,1542385810800476,323876259,-1170761508,51573,17130,0.238,0.047272064,0.527,1.07,0.72999996,1.17,75,3,4.98,0.09900001,4.979,0.71300006,1.5434682,0,nan,0.0,4,1,17
786293539,1542385811000476,323876261,-1170761402,51498,17054,0.19600001,0.043013986,0.527,1.07,0.72999996,1.17,75,2,4.861,0.115,4.86,0.504,1.545607,0,nan,0.0,4,1,17
786493514,1542385811200476,323876263,-1170761297,51459,17015,0.215,0.045219906,0.527,1.0730001,0.72999996,1.17,75,2,4.842,0.083000004,4.841,0.377,1.5496671,0,nan,0.0,4,1,17
786692627,1542385811400476,323876264,-1170761191,51434,16991,0.19600001,0.039662257,0.528,1.07,0.72999996,1.17,75,2,5.0290003,0.134,5.0280004,0.307,1.5463665,0,nan,0.0,4,1,17
786893503,1542385811600476,323876266,-1170761083,51388,16945,0.19600001,0.041371107,0.527,1.0710001,0.72999996,1.17,75,2,5.0160003,0.104,5.0150003,0.305,1.5482467,0,nan,0.0,4,1,17
787089622,1542385811800476,323876269,-1170760975,51350,16906,0.193,0.046302885,0.527,1.079,0.72999996,1.17,75,2,5.0420003,0.171,5.039,0.29500002,1.5427715,0,nan,0.0,4,1,17
787294593,1542385812000476,323876271,-1170760868,51316,16873,0.18800001,0.043378584,0.526,1.082,0.72999996,1.17,75,4,5.011,0.126,5.01,0.216,1.5443828,0,nan,0.0,4,1,17
787494504,1542385812200476,323876274,-1170760761,51278,16835,0.22600001,0.046247557,0.527,1.0910001,0.72999996,1.17,75,4,5.057,0.086,5.057,0.21700001,1.5490646,0,nan,0.0,4,1,17
787695500,1542385812400476,323876277,-1170760654,51266,16822,0.19900002,0.04559969,0.528,1.095,0.74,1.22,75,4,4.8910003,0.193,4.887,0.07300001,1.5395781,0,nan,0.0,4,1,16
787901502,1542385812600476,323876279,-1170760548,51270,16827,0.21300001,0.044717252,0.52900004,1.1,0.72999996,1.17,75,4,4.9810004,0.014,4.9810004,0.15100001,1.5549506,0,nan,0.0,4,1,17
788097500,1542385812800476,323876279,-1170760440,51289,16845,0.18100001,0.045354996,0.527,1.0990001,0.72999996,1.17,75,4,4.9230003,0.15200001,4.92,0.034,1.5470951,0,nan,0.0,4,1,17
788293609,1542385813000476,323876281,-1170760334,51266,16822,0.216,0.046561193,0.528,1.105,0.72999996,1.17,76,2,4.9630003,0.002,4.9630003,0.029000001,1.5592008,0,nan,0.0,4,1,17
788490560,1542385813200476,323876282,-1170760226,51300,16857,0.19100001,0.043666914,0.528,1.1040001,0.72999996,1.17,76,2,4.971,0.066,4.9700003,-0.046000004,1.5583053,0,nan,0.0,4,1,17
788694501,1542385813400476,323876284,-1170760117,51217,16773,0.208,0.04451654,0.528,1.105,0.72999996,1.17,76,2,5.0020003,0.136,5.0,-0.066,1.5506101,0,nan,0.0,4,1,17
788899505,1542385813600476,323876286,-1170760012,51208,16764,0.192,0.045593932,0.528,1.113,0.72999996,1.17,76,2,4.8360004,0.081,4.835,-0.043,1.5523926,0,nan,0.0,4,1,17
789100552,1542385813800476,323876288,-1170759906,51245,16802,0.19500001,0.046294857,0.528,1.1170001,0.72999996,1.17,76,2,4.953,0.11800001,4.951,-0.08800001,1.5495422,0,nan,0.0,4,1,17
789303502,1542385814000476,323876288,-1170759802,51344,16901,0.201,0.043363925,0.528,1.115,0.72999996,1.17,81,3,5.0220003,0.120000005,5.0200005,-0.038000003,1.548046,0,nan,0.0,4,1,17
789503497,1542385814200476,323876289,-1170759698,51512,17068,0.215,0.045771256,0.528,1.115,0.72999996,1.17,81,3,4.927,0.16800001,4.9240003,-0.17600001,1.5422742,0,nan,0.0,4,1,17
789704557,1542385814400476,323876289,-1170759595,51681,17238,0.19900002,0.045339115,0.52900004,1.115,0.72999996,1.17,81,3,4.919,0.09,4.918,-0.16100001,1.5477291,0,nan,0.0,4,1,17
789901512,1542385814600476,323876291,-1170759489,51708,17264,0.19500001,0.046622105,0.53000003,1.12,0.72999996,1.17,81,3,4.927,0.072000004,4.926,-0.15900001,1.552064,0,nan,0.0,4,1,17
790097560,1542385814800475,323876293,-1170759382,51716,17273,0.177,0.04429855,0.528,1.1190001,0.72999996,1.17,81,3,4.8900003,0.069000006,4.8890004,-0.23,1.5546132,0,nan,0.0,4,1,17
790302606,1542385815000475,323876295,-1170759277,51814,17370,0.193,0.047901083,0.52900004,1.123,0.72999996,1.17,81,3,4.9240003,0.023000002,4.9240003,-0.35200003,1.5603161,0,nan,0.0,4,1,17
790501508,1542385815200475,323876297,-1170759172,51928,17485,0.231,0.046876922,0.531,1.1290001,0.72999996,1.17,81,3,4.8970003,0.20500001,4.893,-0.356,1.5434446,0,nan,0.0,4,1,17
790702514,1542385815400475,323876301,-1170759068,52044,17600,0.24200001,0.04979424,0.53400004,1.1370001,0.72999996,1.17,81,3,4.8650002,0.098000005,4.8640003,-0.39400002,1.547015,0,nan,0.0,4,1,17
790898519,1542385815600475,323876303,-1170758962,52136,17693,0.19700001,0.042273443,0.535,1.1400001,0.72999996,1.17,81,3,4.993,0.054,4.992,-0.38000003,1.5548776,0,nan,0.0,4,1,17
791099500,1542385815800475,323876304,-1170758857,52261,17818,0.21900001,0.047647137,0.537,1.1450001,0.72999996,1.17,81,3,4.846,0.056,4.8450003,-0.44700003,1.556994,0,nan,0.0,4,1,17
791301500,1542385816000475,323876307,-1170758752,52337,17894,0.21200001,0.04659191,0.53800005,1.149,0.72999996,1.17,81,2,4.931,0.143,4.9290004,-0.46,1.5487527,0,nan,0.0,4,1,17
791501498,1542385816200475,323876310,-1170758647,52457,18014,0.23500001,0.05070984,0.541,1.1580001,0.72999996,1.17,81,2,4.801,0.071,4.8,-0.41900003,1.552253,0,nan,0.0,4,1,17
791700791,1542385816400475,323876312,-1170758545,52564,18121,0.24700001,0.05155109,0.544,1.167,0.72999996,1.17,81,2,4.761,0.085,4.76,-0.52400005,1.5526314,0,nan,0.0,4,1,17
791902497,1542385816600475,323876314,-1170758441,52746,18303,0.22800002,0.049894948,0.54700005,1.174,0.72999996,1.17,81,2,4.918,0.060000002,4.918,-0.522,1.5558735,0,nan,0.0,4,1,17
792101743,1542385816800475,323876315,-1170758335,52823,18380,0.215,0.048163407,0.55,1.179,0.72999996,1.17,81,2,5.0340004,0.10300001,5.0330005,-0.46100003,1.5528405,0,nan,0.0,4,1,17
792298515,1542385817000475,323876317,-1170758226,52906,18462,0.224,0.05026321,0.55200005,1.1860001,0.72999996,1.17,81,7,5.1260004,0.040000003,5.1260004,-0.35700002,1.5580356,0,nan,0.0,4,1,17
792498514,1542385817200475,323876319,-1170758118,52936,18493,0.21100001,0.043771982,0.554,1.192,0.72999996,1.17,81,7,4.9,0.052,4.899,-0.37100002,1.5593436,0,nan,0.0,4,1,17
792696730,1542385817400475,323876322,-1170758013,53027,18584,0.23600002,0.0493052,0.55600005,1.2010001,0.72999996,1.17,81,7,4.992,0.16600001,4.9890003,-0.42900002,1.5490496,0,nan,0.0,4,1,17
792900637,1542385817600475,323876325,-1170757906,53174,18731,0.23600002,0.05021539,0.559,1.2110001,0.72999996,1.17,81,7,4.9900002,0.040000003,4.9900002,-0.33600003,1.5561771,0,nan,0.0,4,1,17
793100676,1542385817800475,323876327,-1170757800,53223,18780,0.238,0.05010229,0.56200004,1.2210001,0.72999996,1.17,81,7,4.94,0.045,4.94,-0.254,1.5590969,0,nan,0.0,4,1,17
793312880,1542385818000475,323876330,-1170757694,53286,18843,0.23600002,0.049499106,0.565,1.23,0.72999996,1.17,81,4,5.045,0.163,5.0420003,-0.275,1.5481656,0,nan,0.0,4,1,17
793501610,1542385818200475,323876332,-1170757587,53384,18940,0.24900001,0.0505566,0.569,1.238,0.72999996,1.17,81,4,4.9700003,0.09,4.9690003,-0.20600002,1.5504475,0,nan,0.0,4,1,17
793699531,1542385818400475,323876334,-1170757480,53432,18989,0.19600001,0.048788406,0.569,1.24,0.72999996,1.17,81,4,4.96,0.039,4.959,-0.141,1.5572537,0,nan,0.0,4,1,17
793899498,1542385818600475,323876335,-1170757375,53528,19085,0.22700001,0.049838748,0.57100004,1.246,0.72999996,1.17,81,4,4.886,0.040000003,4.885,-0.113000005,1.5600175,0,nan,0.0,4,1,17
794099499,1542385818800475,323876337,-1170757270,53583,19140,0.23,0.049686555,0.573,1.2520001,0.72999996,1.17,81,4,4.9750004,0.106000006,4.9740005,-0.17,1.5544767,0,nan,0.0,4,1,17
794301524,1542385819000475,323876339,-1170757165,53605,19162,0.323,0.06451749,0.578,1.264,0.72999996,1.17,81,16,4.945,0.047000002,4.945,-0.004,1.5571865,0,nan,0.0,4,1,17
794499497,1542385819200475,323876342,-1170757062,53687,19244,0.18,0.04304453,0.57900006,1.264,0.72999996,1.17,81,16,4.879,-0.033,4.879,0.002,1.5716127,0,nan,0.0,4,1,17
794701563,1542385819400475,323876345,-1170756958,53749,19306,0.187,0.04372678,0.57600003,1.2650001,0.72999996,1.17,81,16,4.953,0.067,4.952,-0.002,1.5640488,0,nan,0.0,4,1,17
794900712,1542385819600475,323876347,-1170756852,53731,19288,0.216,0.04834771,0.57600003,1.2700001,0.72999996,1.17,81,16,4.9560003,-0.065000005,4.9560003,0.076000005,1.5736572,0,nan,0.0,4,1,17
795097604,1542385819800475,323876348,-1170756747,53736,19293,0.263,0.051829994,0.578,1.2800001,0.72999996,1.17,81,16,4.94,-0.053000003,4.94,0.085,1.5775701,0,nan,0.0,4,1,17
795298501,1542385820000475,323876348,-1170756641,53664,19221,0.19900002,0.038048,0.577,1.2720001,0.72999996,1.17,102,23,4.94,-0.030000001,4.94,0.101,1.577151,0,nan,0.0,4,1,17
795500686,1542385820200475,323876348,-1170756536,53638,19195,0.208,0.045189712,0.57600003,1.2700001,0.72999996,1.17,102,23,4.8840003,-0.028,4.8840003,0.12900001,1.5768623,0,nan,0.0,4,1,17
795698511,1542385820400475,323876349,-1170756431,53633,19190,0.20400001,0.042819206,0.57600003,1.2700001,0.72999996,1.17,102,23,4.991,-0.020000001,4.991,0.003,1.5757587,0,nan,0.0,4,1,17
795897501,1542385820600475,323876352,-1170756325,53687,19244,0.215,0.044938385,0.57600003,1.2720001,0.72999996,1.17,102,23,4.958,0.061000004,4.9570003,-0.042000003,1.5669832,0,nan,0.0,4,1,17
796099500,1542385820800475,323876353,-1170756219,53673,19230,0.20400001,0.04672316,0.57600003,1.2750001,0.72999996,1.17,102,23,4.972,-0.047000002,4.972,0.020000001,1.5737909,0,nan,0.0,4,1,17
796293524,1542385821000475,323876353,-1170756113,53710,19267,0.224,0.042385843,0.577,1.274,0.72999996,1.17,95,14,4.9110003,-0.023000002,4.9110003,0.019000001,1.5747422,0,nan,0.0,4,1,17
796500751,1542385821200475,323876352,-1170756008,53717,19274,0.21900001,0.041506544,0.577,1.2700001,0.72999996,1.17,95,14,4.9360003,-0.113000005,4.9350004,0.060000002,1.5850489,0,nan,0.0,4,1,17
796701523,1542385821400475,323876352,-1170755903,53727,19284,0.20300001,0.042904727,0.577,1.268,0.72999996,1.17,95,14,4.913,-0.056,4.913,0.012,1.5835627,0,nan,0.0,4,1,17
796901521,1542385821600475,323876352,-1170755798,53771,19328,0.171,0.04432246,0.574,1.2670001,0.72999996,1.17,95,14,4.9030004,-0.045,4.9030004,-0.062000003,1.5816793,0,nan,0.0,4,1,17
797098535,1542385821800475,323876353,-1170755691,53777,19334,0.186,0.042785347,0.573,1.264,0.72999996,1.17,95,14,5.046,-0.014,5.046,-0.07300001,1.5771707,0,nan,0.0,4,1,17
797306538,1542385822000475,323876352,-1170755583,53743,19300,0.19500001,0.041600794,0.57000005,1.256,0.72999996,1.17,88,33,4.9430003,-0.16100001,4.9410005,0.006,1.5915204,0,nan,0.0,4,1,17
797499525,1542385822200475,323876352,-1170755478,53733,19290,0.19000001,0.043377362,0.568,1.253,0.72999996,1.17,88,33,4.934,-0.014,4.934,-0.017,1.5822899,0,nan,0.0,4,1,17
797703566,1542385822400475,323876352,-1170755371,53702,19259,0.16600001,0.03770801,0.564,1.243,0.72999996,1.17,88,33,5.012,-0.15300001,5.01,0.025,1.5937783,0,nan,0.0,4,1,17
797901516,1542385822600475,323876352,-1170755263,53717,19274,0.18100001,0.037316535,0.56,1.2360001,0.72999996,1.17,88,33,5.0870004,-0.105000004,5.0860004,0.086,1.592476,0,nan,0.0,4,1,17
798105575,1542385822800475,323876351,-1170755157,53716,19274,0.18900001,0.041534994,0.55700004,1.23,0.72999996,1.17,88,33,4.8300004,-0.17600001,4.826,0.23500001,1.5996839,0,nan,0.0,4,1,17
798302496,1542385823000474,323876350,-1170755053,53650,19207,0.17600001,0.041697133,0.554,1.2270001,0.72999996,1.17,88,6,4.867,-0.12100001,4.8650002,0.108,1.5975189,0,nan,0.0,4,1,17
798502520,1542385823200474,323876349,-1170754951,53613,19170,0.17,0.039843246,0.55,1.2160001,0.72999996,1.17,88,6,4.761,-0.079,4.761,0.162,1.5918351,0,nan,0.0,4,1,17
798701587,1542385823400474,323876349,-1170754850,53552,19109,0.163,0.04076862,0.54700005,1.2060001,0.72999996,1.17,88,6,4.644,-0.051000003,4.644,0.19800001,1.5864918,0,nan,0.0,4,1,17
798894533,1542385823600474,323876349,-1170754756,53508,19065,0.16000001,0.046403766,0.54300004,1.2,0.72999996,1.17,88,6,4.236,-0.064,4.235,0.185,1.586186,0,nan,0.0,4,1,17
799099523,1542385823800474,323876350,-1170754669,53458,19016,0.17500001,0.048805688,0.541,1.195,0.72999996,1.17,88,6,3.9390001,-0.023000002,3.9390001,0.335,1.5814539,0,nan,0.0,4,1,17
799312558,1542385824000474,323876349,-1170754588,53484,19041,0.156,0.047906842,0.535,1.174,0.72999996,1.17,88,15,3.6410003,-0.029000001,3.6410003,0.323,1.5800763,0,nan,0.0,4,1,17
799501523,1542385824200474,323876349,-1170754513,53484,19041,0.17300001,0.05542502,0.531,1.1580001,0.72999996,1.17,88,15,3.3680003,0.065000005,3.367,0.305,1.5673572,0,nan,0.0,4,1,17
799700556,1542385824400474,323876350,-1170754444,53455,19012,0.16600001,0.058750223,0.527,1.1400001,0.72999996,1.17,88,15,3.0240002,0.006,3.0240002,0.38700002,1.5680732,0,nan,0.0,4,1,17
799901532,1542385824600474,323876351,-1170754383,53361,18918,0.16000001,0.06662759,0.52400005,1.128,0.72999996,1.17,88,15,2.7170002,-0.010000001,2.7170002,0.35000002,1.5709767,0,nan,0.0,4,1,17
800098501,1542385824800474,323876352,-1170754327,53275,18832,0.165,0.07927843,0.521,1.1240001,0.74,1.23,88,15,2.5560002,-0.012,2.5560002,0.277,1.5728323,0,nan,0.0,4,1,16
800298737,1542385825000474,323876353,-1170754274,53205,18762,0.16100001,0.0836456,0.518,1.12,0.74,1.23,88,14,2.338,0.07700001,2.3370001,0.256,1.5560615,0,nan,0.0,4,1,16
800499500,1542385825200474,323876356,-1170754226,53141,18698,0.16800001,0.08752983,0.51500005,1.113,0.74,1.23,88,14,2.1460001,0.010000001,2.1460001,0.26900002,1.560957,0,nan,0.0,4,1,16
800700582,1542385825400474,323876357,-1170754181,53055,18612,0.157,0.0840355,0.51100004,1.103,0.72999996,1.17,88,14,2.125,-0.0050000004,2.125,0.21000001,1.5673063,0,nan,0.0,4,1,17
800900125,1542385825600474,323876359,-1170754138,52982,18539,0.15900001,0.095344886,0.507,1.0960001,0.72999996,1.17,88,14,1.909,0.001,1.909,0.165,1.5685661,0,nan,0.0,4,1,17
801097513,1542385825800474,323876359,-1170754098,52900,18457,0.16600001,0.105349116,0.504,1.0890001,0.72999996,1.17,88,14,1.7670001,-0.093,1.764,0.135,1.5934646,0,nan,0.0,4,1,17
801298507,1542385826000474,323876360,-1170754061,52875,18432,0.16800001,0.10742833,0.50200003,1.0860001,0.72999996,1.17,82,13,1.748,0.001,1.748,0.062000003,1.582097,0,nan,0.0,4,1,17
801492949,1542385826200474,323876360,-1170754026,52859,18416,0.172,0.12385467,0.5,1.0840001,0.72999996,1.17,82,13,1.5370001,-0.13000001,1.531,-0.098000005,1.6137502,0,nan,0.0,4,1,17
801698693,1542385826400474,323876360,-1170753995,52867,18424,0.171,0.12920026,0.49800003,1.082,0.72999996,1.17,82,13,1.4670001,-0.082,1.465,-0.208,1.6200775,0,nan,0.0,4,1,17
801897603,1542385826600474,323876360,-1170753965,52882,18439,0.172,0.13732284,0.49600002,1.0780001,0.72999996,1.17,82,13,1.3950001,-0.104,1.391,-0.33900002,1.6320912,0,nan,0.0,4,1,17
802098573,1542385826800474,323876359,-1170753936,52888,18445,0.171,0.14459546,0.49400002,1.069,0.72999996,1.17,82,13,1.271,-0.16000001,1.261,-0.381,1.6628644,0,nan,0.0,4,1,17
802299508,1542385827000474,323876358,-1170753910,52893,18450,0.17300001,0.1543042,0.49100003,1.065,0.72999996,1.17,82,8,1.207,-0.163,1.1960001,-0.411,1.6832948,0,nan,0.0,4,1,17
802501501,1542385827200474,323876357,-1170753884,52965,18522,0.17400001,0.16422744,0.49,1.062,0.72999996,1.17,82,8,1.241,-0.033,1.241,-0.48700002,1.6427935,0,nan,0.0,4,1,17
802701513,1542385827400474,323876356,-1170753859,53022,18579,0.18,0.1683815,0.48800004,1.054,0.72999996,1.17,82,8,1.0760001,-0.185,1.0600001,-0.605,1.6921544,0,nan,0.0,4,1,17
802902634,1542385827600474,323876354,-1170753837,53103,18661,0.17300001,0.19015151,0.48600003,1.0500001,0.72999996,1.17,82,8,1.0,-0.22000001,0.9760001,-0.545,1.7362707,0,nan,0.0,4,1,17
803101841,1542385827800474,323876352,-1170753817,53187,18744,0.19600001,0.23567301,0.485,1.0500001,0.72999996,1.17,82,8,0.90400004,-0.066,0.90200007,-0.56600004,1.699813,0,nan,0.0,4,1,17
803301612,1542385828000474,323876353,-1170753796,53250,18807,0.19100001,0.17826617,0.48200002,1.0320001,0.72999996,1.17,82,35,0.92800003,-0.117000006,0.92100006,-0.66800004,1.6979465,0,nan,0.0,4,1,17
803510360,1542385828200474,323876352,-1170753776,53340,18897,0.18,0.18133777,0.47900003,1.023,0.72999996,1.17,82,35,0.961,-0.13100001,0.952,-0.651,1.7028598,0,nan,0.0,4,1,17
803699513,1542385828400474,323876349,-1170753756,53439,18996,0.18800001,0.23433854,0.47900003,1.026,0.72999996,1.17,82,35,0.92,-0.124000005,0.91200006,-0.601,1.7039282,0,nan,0.0,4,1,17
803899507,1542385828600474,323876348,-1170753736,53540,19098,0.20300001,0.22901598,0.47800002,1.0170001,0.72999996,1.17,82,35,0.80600005,-0.081,0.80200005,-0.62100005,1.6870228,0,nan,0.0,4,1,17
804096574,1542385828800474,323876347,-1170753719,53656,19213,0.192,0.25130454,0.47700003,1.0150001,0.72999996,1.17,82,35,0.75600004,-0.058000002,0.754,-0.568,1.6688538,0,nan,0.0,4,1,17
804305502,1542385829000474,323876346,-1170753703,53747,19304,0.20300001,0.29444873,0.47700003,1.019,0.72999996,1.17,82,17,0.731,0.007,0.731,-0.53400004,1.6236618,0,nan,0.0,4,1,17
804501510,1542385829200474,323876345,-1170753689,53882,19439,0.21100001,0.32256475,0.47700003,1.018,0.72999996,1.17,82,17,0.596,-0.060000002,0.59300005,-0.53400004,1.6456494,0,nan,0.0,4,1,17
804701620,1542385829400474,323876345,-1170753677,53990,19547,0.21900001,0.41181284,0.47700003,1.021,0.72999996,1.17,82,17,0.51900005,-0.006,0.51900005,-0.46300003,1.6216602,0,nan,0.0,4,1,17
804902496,1542385829600474,323876344,-1170753664,54038,19595,0.18800001,0.3799964,0.47800002,1.021,0.72999996,1.17,82,17,0.574,-0.018000001,0.574,-0.33600003,1.6107985,0,nan,0.0,4,1,17
805102522,1542385829800474,323876345,-1170753652,54084,19641,0.18200001,0.34403685,0.47800002,1.021,0.72999996,1.17,82,17,0.56700003,0.11800001,0.555,-0.22200002,1.473428,0,nan,0.0,4,1,17
805303142,1542385830000474,323876350,-1170753640,54167,19724,0.194,0.24898744,0.47700003,1.016,0.72999996,1.17,82,25,0.758,0.554,0.518,-0.256,1.0000452,0,nan,0.0,4,1,17
805496541,1542385830200474,323876363,-1170753629,54240,19797,0.28800002,0.27274364,0.48200002,1.024,0.72999996,1.17,82,25,1.213,1.056,0.596,-0.185,0.77897495,0,nan,0.0,4,1,17
805696255,1542385830400474,323876388,-1170753618,54393,19950,0.286,0.14786953,0.49100003,1.0270001,0.72999996,1.17,82,25,2.0,1.922,0.55300003,-0.238,0.39315355,0,nan,0.0,4,1,17
805896015,1542385830600474,323876427,-1170753608,54558,20116,0.29000002,0.105441794,0.499,1.0270001,0.72999996,1.17,82,25,2.7120001,2.657,0.545,-0.11000001,0.2663264,0,nan,0.0,4,1,17
806096556,1542385830800474,323876481,-1170753596,54574,20132,0.27400002,0.073804736,0.50600004,1.023,0.72999996,1.17,82,25,3.367,3.3220003,0.549,-0.035,0.19718537,0,nan,0.0,4,1,17
806296841,1542385831000473,323876548,-1170753584,54470,20027,0.18200001,0.04457501,0.50600004,1.011,0.72999996,1.17,61,11,3.9780002,3.956,0.418,0.067,0.12920462,0,nan,0.0,4,1,17
806492591,1542385831200473,323876623,-1170753576,54418,19976,0.19900002,0.044629987,0.505,1.0040001,0.72999996,1.17,61,11,4.2590003,4.2400002,0.402,0.113000005,0.11088512,0,nan,0.0,4,1,17
806689688,1542385831400473,323876702,-1170753568,54463,20021,0.192,0.042396314,0.504,1.0,0.72999996,1.17,61,11,4.662,4.6470003,0.37,0.112,0.093396224,0,nan,0.0,4,1,17
806891449,1542385831600473,323876788,-1170753561,54442,20000,0.164,0.033563204,0.50100005,0.984,0.72999996,1.17,61,11,4.789,4.774,0.379,0.11800001,0.08426589,0,nan,0.0,4,1,17
807091513,1542385831800473,323876873,-1170753554,54442,19999,0.16900001,0.033323396,0.49800003,0.97400004,0.72999996,1.17,61,11,4.806,4.795,0.323,0.11000001,0.074856296,0,nan,0.0,4,1,17
807292638,1542385832000473,323876957,-1170753549,54502,20059,0.16000001,0.03215228,0.49300003,0.957,0.72999996,1.17,61,11,4.7650003,4.7530003,0.337,0.076000005,0.07257306,0,nan,0.0,4,1,17
807492321,1542385832200473,323877041,-1170753544,54479,20036,0.157,0.031243835,0.48800004,0.94100004,0.72999996,1.17,61,11,4.82,4.8120003,0.282,0.21200001,0.064520456,0,nan,0.0,4,1,17
807692773,1542385832400473,323877127,-1170753539,54387,19944,0.18200001,0.036268115,0.48600003,0.94000006,0.72999996,1.17,61,11,4.806,4.802,0.192,0.34500003,0.052557096,0,nan,0.0,4,1,17
807898548,1542385832600473,323877213,-1170753536,54271,19828,0.15900001,0.03231756,0.483,0.929,0.72999996,1.17,61,11,4.855,4.8500004,0.22800002,0.499,0.049165398,0,nan,0.0,4,1,17
808093520,1542385832800473,323877300,-1170753533,54116,19674,0.16100001,0.033418514,0.48100004,0.92100006,0.72999996,1.17,61,11,4.7510004,4.75,0.113000005,0.69100004,0.035483412,0,nan,0.0,4,1,17
808294763,1542385833000473,323877386,-1170753529,53919,19476,0.156,0.03250571,0.47800002,0.9110001,0.72999996,1.17,61,3,4.8570004,4.853,0.202,0.60400003,0.038933583,0,nan,0.0,4,1,17
808493536,1542385833200473,323877474,-1170753525,53667,19224,0.147,0.028510476,0.47300002,0.89400005,0.72999996,1.17,61,3,4.875,4.872,0.15400001,0.582,0.03439747,0,nan,0.0,4,1,17
808692542,1542385833400473,323877561,-1170753520,53583,19141,0.155,0.032930173,0.47000003,0.88400006,0.72999996,1.17,61,3,4.8770003,4.8760004,0.116000004,0.61700004,0.029100746,0,nan,0.0,4,1,17
808892044,1542385833600473,323877648,-1170753518,53426,18983,0.16900001,0.033996392,0.46800002,0.88000005,0.72999996,1.17,61,3,4.8570004,4.8560004,0.091000006,0.66300005,0.023548853,0,nan,0.0,4,1,17
809092638,1542385833800473,323877736,-1170753516,53294,18852,0.192,0.036144372,0.46800002,0.882,0.72999996,1.17,61,3,4.9020004,4.9020004,0.067,0.59300005,0.018419331,0,nan,0.0,4,1,17
809290501,1542385834000473,323877823,-1170753512,53192,18749,0.15200001,0.032676052,0.46600002,0.873,0.72999996,1.17,67,6,4.879,4.8760004,0.179,0.643,0.029312454,0,nan,0.0,4,1,17
809494501,1542385834200473,323877911,-1170753507,53089,18646,0.15300001,0.032065187,0.46400002,0.86600006,0.72999996,1.17,67,6,4.932,4.9290004,0.19600001,0.711,0.035169255,0,nan,0.0,4,1,17
809697519,1542385834400473,323877998,-1170753506,52931,18489,0.162,0.03188315,0.46100003,0.86,0.72999996,1.17,67,6,4.918,4.918,0.006,0.749,0.016087921,0,nan,0.0,4,1,17
809897693,1542385834600473,323878086,-1170753505,52755,18313,0.18100001,0.0382632,0.46,0.86200005,0.72999996,1.17,67,6,4.8320003,4.8310003,0.1,0.767,0.018237816,0,nan,0.0,4,1,17
810098335,1542385834800473,323878174,-1170753502,52655,18212,0.165,0.034570783,0.45900002,0.85700005,0.72999996,1.17,67,6,5.018,5.0160003,0.142,0.62200004,0.024196021,0,nan,0.0,4,1,17
810294611,1542385835000473,323878260,-1170753498,52615,18173,0.16100001,0.035260536,0.45800003,0.851,0.72999996,1.17,67,5,4.9020004,4.9020004,-0.010000001,0.66300005,0.009985726,0,nan,0.0,4,1,17
810497498,1542385835200473,323878347,-1170753498,52569,18126,0.17300001,0.03612081,0.45700002,0.84900004,0.72999996,1.17,67,5,4.9280005,4.9280005,-0.029000001,0.53900003,0.0014514157,0,nan,0.0,4,1,17
810692206,1542385835400473,323878436,-1170753499,52487,18045,0.194,0.036960486,0.45600003,0.851,0.72999996,1.17,67,5,4.977,4.977,0.083000004,0.47100002,0.00963282,0,nan,0.0,4,1,17
810897608,1542385835600473,323878526,-1170753499,52383,17941,0.186,0.035183743,0.45600003,0.85300004,0.72999996,1.17,67,5,5.104,5.104,-0.003,0.298,0.00375717,0,nan,0.0,4,1,17
811097495,1542385835800473,323878616,-1170753499,52278,17835,0.165,0.033781193,0.455,0.85200006,0.72999996,1.17,67,5,4.9870005,4.9870005,0.008,0.321,0.0025256658,0,nan,0.0,4,1,17
811297553,1542385836000473,323878705,-1170753499,52263,17820,0.16000001,0.032174096,0.45400003,0.845,0.72999996,1.17,67,13,5.063,5.063,-0.031000001,0.171,6.280687,0,nan,0.0,4,1,17
811494327,1542385836200473,323878793,-1170753498,52339,17897,0.16900001,0.031755216,0.45200002,0.841,0.72999996,1.17,67,13,5.0330005,5.0330005,0.002,0.115,6.282313,0,nan,0.0,4,1,17
811697512,1542385836400473,323878882,-1170753498,52330,17887,0.16900001,0.033577513,0.45100003,0.837,0.72999996,1.17,67,13,5.072,5.072,0.015000001,0.085,0.0011974704,0,nan,0.0,4,1,17
811895526,1542385836600473,323878972,-1170753497,52319,17877,0.19600001,0.03565655,0.45100003,0.84000003,0.72999996,1.17,67,13,5.0750003,5.0750003,0.023000002,-0.031000001,0.0029398324,0,nan,0.0,4,1,17
812088561,1542385836800473,323879061,-1170753497,52353,17911,0.18400002,0.03432399,0.45200002,0.84200007,0.72999996,1.17,67,13,4.992,4.992,0.033,-0.059000004,0.005067738,0,nan,0.0,4,1,17
812292023,1542385837000473,323879150,-1170753496,52381,17939,0.185,0.032766983,0.453,0.841,0.72999996,1.17,77,11,5.032,5.032,0.059000004,-0.13000001,0.008872904,0,nan,0.0,4,1,17
812496567,1542385837200473,323879240,-1170753495,52430,17988,0.18400002,0.03143617,0.453,0.84200007,0.72999996,1.17,77,11,5.156,5.155,0.062000003,-0.062000003,0.010685952,0,nan,0.0,4,1,17
812692120,1542385837400473,323879330,-1170753494,52496,18054,0.18200001,0.030805059,0.453,0.841,0.72999996,1.17,77,11,5.157,5.157,-0.019000001,-0.09,0.0025082126,0,nan,0.0,4,1,17
812893544,1542385837600473,323879420,-1170753494,52578,18136,0.18,0.030612899,0.45200002,0.841,0.72999996,1.17,77,11,5.149,5.149,-0.031000001,-0.15200001,6.280843,0,nan,0.0,4,1,17
813093513,1542385837800473,323879510,-1170753494,52666,18224,0.179,0.031125328,0.45200002,0.841,0.72999996,1.17,77,11,5.0690002,5.0690002,-0.019000001,-0.095000006,6.280022,0,nan,0.0,4,1,17
813297667,1542385838000473,323879599,-1170753494,52734,18292,0.187,0.031718217,0.453,0.841,0.72999996,1.17,77,8,5.07,5.07,-0.024,-0.096,6.279203,0,nan,0.0,4,1,17
813491539,1542385838200473,323879688,-1170753494,52810,18368,0.18,0.031126026,0.45400003,0.84200007,0.72999996,1.17,77,8,5.064,5.064,-0.016,-0.135,6.279688,0,nan,0.0,4,1,17
813695512,1542385838400473,323879779,-1170753494,52828,18386,0.193,0.033023722,0.45400003,0.846,0.72999996,1.17,77,8,5.1530004,5.1530004,-0.007,-0.083000004,6.2808757,0,nan,0.0,4,1,17
813895509,1542385838600473,323879869,-1170753494,52841,18399,0.21100001,0.035568934,0.455,0.85300004,0.72999996,1.17,77,8,5.0480003,5.0470004,0.025,-0.12100001,0.0014994122,0,nan,0.0,4,1,17
814094501,1542385838800473,323879960,-1170753495,52885,18443,0.18300001,0.03195174,0.45600003,0.85300004,0.72999996,1.17,77,8,5.1800003,5.1790004,-0.038000003,-0.17400001,6.279379,0,nan,0.0,4,1,17
814296562,1542385839000473,323880052,-1170753496,52935,18493,0.208,0.033846818,0.45700002,0.85700005,0.72999996,1.17,77,17,5.157,5.157,-0.036000002,-0.07700001,6.27768,0,nan,0.0,4,1,17
814494607,1542385839200472,323880143,-1170753498,52980,18538,0.19000001,0.032430135,0.45800003,0.85800004,0.72999996,1.17,77,17,5.0870004,5.0870004,-0.061000004,-0.15400001,6.2739725,0,nan,0.0,4,1,17
814694509,1542385839400472,323880233,-1170753498,53047,18605,0.186,0.0319294,0.45800003,0.86,0.72999996,1.17,77,17,5.1320004,5.1320004,-0.028,-0.11400001,6.2761455,0,nan,0.0,4,1,17
814889733,1542385839600472,323880323,-1170753499,53137,18695,0.19800001,0.0336105,0.46,0.86300004,0.72999996,1.17,77,17,5.1190004,5.1190004,0.012,-0.23,6.2811694,0,nan,0.0,4,1,17
815090643,1542385839800472,323880414,-1170753498,53170,18728,0.208,0.035173442,0.462,0.87000006,0.72999996,1.17,77,17,5.072,5.072,0.055000003,-0.158,0.0048429393,0,nan,0.0,4,1,17
815294497,1542385840000472,323880505,-1170753499,53185,18743,0.21400002,0.03566912,0.46400002,0.87700003,0.72999996,1.17,77,19,5.176,5.176,-0.042000003,-0.120000005,6.2809706,0,nan,0.0,4,1,17
815491498,1542385840200472,323880598,-1170753499,53208,18766,0.21800001,0.0405885,0.46600002,0.88600004,0.72999996,1.17,77,19,5.155,5.155,0.022000002,-0.19100001,0.00089430664,0,nan,0.0,4,1,17
815692695,1542385840400472,323880689,-1170753500,53212,18770,0.22000001,0.03689521,0.46800002,0.89400005,0.72999996,1.17,77,19,5.0950003,5.0950003,-0.018000001,-0.097,6.281519,0,nan,0.0,4,1,17
815892557,1542385840600472,323880780,-1170753502,53220,18778,0.22100002,0.03696101,0.47000003,0.90300006,0.72999996,1.17,77,19,5.0950003,5.0950003,-0.063,-0.14,6.2756505,0,nan,0.0,4,1,17
816092785,1542385840800472,323880871,-1170753504,53245,18803,0.21300001,0.03584592,0.47200003,0.9110001,0.72999996,1.17,77,19,5.0610003,5.0610003,-0.052,-0.147,6.2741475,0,nan,0.0,4,1,17
816293642,1542385841000472,323880960,-1170753504,53191,18749,0.18300001,0.035530016,0.47100002,0.90800005,0.72999996,1.17,77,19,4.997,4.997,0.002,-0.063,6.279342,0,nan,0.0,4,1,17
816498497,1542385841200472,323881050,-1170753505,53205,18763,0.20400001,0.035213064,0.47100002,0.91400003,0.72999996,1.17,77,19,5.0200005,5.0200005,-0.003,-0.071,6.2810864,0,nan,0.0,4,1,17
816698548,1542385841400472,323881140,-1170753504,53187,18745,0.216,0.038867082,0.47400004,0.92100006,0.72999996,1.17,77,19,5.026,5.026,0.044000003,-0.027,0.0033714522,0,nan,0.0,4,1,17
816899500,1542385841600472,323881230,-1170753503,53187,18745,0.193,0.036806896,0.47700003,0.9250001,0.72999996,1.17,77,19,5.046,5.046,0.010000001,0.09200001,0.0026218335,0,nan,0.0,4,1,17
817097505,1542385841800472,323881319,-1170753502,53185,18743,0.19500001,0.036302324,0.47900003,0.92800003,0.72999996,1.17,77,19,5.0290003,5.0290003,0.037,-0.032,0.005272988,0,nan,0.0,4,1,17
817311501,1542385842000472,323881409,-1170753500,53224,18782,0.19800001,0.03699679,0.48100004,0.93100005,0.72999996,1.17,85,9,5.013,5.013,0.032,-0.07,0.005855405,0,nan,0.0,4,1,17
