timestamp,magnetometer_ga[0],magnetometer_ga[1],magnetometer_ga[2]
751568466,0.22830161,-0.026304709,0.4295078
751591475,0.23127154,-0.037927486,0.40713468
751614341,0.23424147,-0.032116096,0.4295078
751635469,0.22830161,-0.032116096,0.413527
751657779,0.24018133,-0.029210404,0.413527
751681817,0.23424147,-0.029210404,0.413527
751703475,0.2372114,-0.029210404,0.4231155
751724469,0.23424147,-0.029210404,0.41672316
751747505,0.22830161,-0.035021793,0.40713468
751770569,0.23127154,-0.037927486,0.40393853
751792475,0.23424147,-0.032116096,0.42631164
751815173,0.22236176,-0.032116096,0.41991934
751836476,0.22533168,-0.032116096,0.41033086
751858577,0.2372114,-0.023399014,0.4231155
751880467,0.23424147,-0.032116096,0.40074238
751903079,0.24018133,-0.02049332,0.40713468
751925511,0.24315126,-0.02049332,0.3975462
751948466,0.23127154,-0.026304709,0.4231155
751970606,0.22236176,-0.029210404,0.41672316
751992564,0.2372114,-0.029210404,0.41991934
752015469,0.2372114,-0.026304709,0.40713468
752037467,0.2372114,-0.01468193,0.41033086
752059465,0.24315126,-0.02049332,0.3847616
752080465,0.24909113,-0.008870541,0.40713468
752101481,0.24315126,-0.008870541,0.40074238
752123472,0.24018133,-0.008870541,0.3975462
752145485,0.23424147,-0.00015345702,0.40393853
752167871,0.22533168,-0.00015345702,0.41033086
752190465,0.21642189,-0.00015345702,0.40713468
752213474,0.21642189,0.0027522377,0.40713468
752235466,0.22830161,0.0027522377,0.413527
752257526,0.22533168,0.0085636275,0.41672316
752278512,0.22236176,-0.00015345702,0.40713468
752301466,0.22533168,0.0056579323,0.41033086
752323472,0.21345197,0.0056579323,0.41033086
752345479,0.22533168,0.0027522377,0.41672316
752366467,0.21939182,0.011469321,0.4231155
752389466,0.21939182,0.0027522377,0.40393853
752411473,0.22533168,0.0056579323,0.41033086
752433478,0.21345197,0.0085636275,0.413527
752455468,0.22236176,0.011469321,0.41991934
752477468,0.22236176,0.014375016,0.4231155
752499465,0.21939182,0.0056579323,0.40713468
752522467,0.22236176,0.0027522377,0.40074238
752544480,0.23127154,0.0056579323,0.413527
752566506,0.22830161,0.0056579323,0.413527
752587504,0.22830161,0.0056579323,0.413527
752610466,0.22533168,0.011469321,0.41672316
752632466,0.22830161,0.0027522377,0.3975462
752655474,0.23424147,0.0085636275,0.40713468
752676697,0.23424147,0.0085636275,0.40713468
752699466,0.22236176,0.0085636275,0.3975462
752721485,0.23127154,0.0056579323,0.40713468
752744472,0.22830161,0.011469321,0.413527
752766467,0.22830161,0.011469321,0.41672316
752788466,0.23127154,0.0056579323,0.40074238
752811504,0.22830161,0.0027522377,0.3975462
752832792,0.23424147,0.0085636275,0.40713468
752856465,0.22533168,0.0056579323,0.41033086
752878468,0.22533168,0.0085636275,0.40713468
752900466,0.23424147,0.0027522377,0.40713468
752923468,0.23424147,0.0027522377,0.40713468
752945488,0.23127154,0.011469321,0.413527
752968465,0.22830161,0.0027522377,0.41033086
752989827,0.24018133,0.0056579323,0.40713468
753013797,0.23127154,-0.00015345702,0.3911539
753035475,0.23424147,0.0056579323,0.40713468
753058291,0.22533168,0.0056579323,0.40074238
753079512,0.22830161,0.0056579323,0.40713468
753101848,0.23424147,0.0085636275,0.41991934
753125855,0.2372114,0.0027522377,0.41033086
753149810,0.22830161,0.0027522377,0.40713468
753173810,0.2372114,0.0027522377,0.413527
753197806,0.23424147,-0.00015345702,0.40393853
753219469,0.23424147,0.0056579323,0.413527
753242343,0.22830161,0.0027522377,0.40393853
753263504,0.22830161,0.0027522377,0.40074238
753285477,0.24018133,0.0027522377,0.40713468
753308466,0.2372114,0.0027522377,0.40713468
753331145,0.23424147,-0.0030591516,0.3975462
753353466,0.23424147,-0.0030591516,0.3975462
753376563,0.23424147,-0.0030591516,0.3911539
753399467,0.23424147,-0.0030591516,0.40074238
753422650,0.2372114,-0.00015345702,0.40393853
753444473,0.2372114,0.0027522377,0.413527
753466992,0.23127154,0.0027522377,0.40393853
753488571,0.22830161,0.0027522377,0.40074238
753511466,0.2372114,0.0027522377,0.40393853
753534611,0.24018133,-0.00015345702,0.40713468
753556473,0.23127154,0.0056579323,0.40713468
753578995,0.23424147,-0.0030591516,0.3911539
753601466,0.23127154,-0.0030591516,0.3911539
753624466,0.23424147,-0.0030591516,0.3975462
753645479,0.22830161,-0.00015345702,0.40074238
753666474,0.23127154,0.0056579323,0.41033086
753689482,0.23127154,0.0027522377,0.41033086
753711466,0.23127154,-0.0030591516,0.3975462
753733476,0.23127154,0.0056579323,0.413527
753755945,0.22830161,-0.00015345702,0.41672316
753778513,0.22830161,-0.00015345702,0.41033086
753801481,0.23127154,-0.00015345702,0.41033086
753823466,0.2372114,0.0027522377,0.3975462
753845467,0.23127154,0.0027522377,0.40393853
753866475,0.23424147,-0.0030591516,0.40074238
753889492,0.23424147,0.0056579323,0.413527
753911465,0.22830161,-0.00015345702,0.40713468
753933470,0.2372114,-0.00015345702,0.41033086
753954474,0.23127154,-0.0059648464,0.39435005
753976475,0.23424147,0.0027522377,0.41991934
753999473,0.22830161,-0.00015345702,0.41033086
754021467,0.22830161,-0.00015345702,0.40713468
754043467,0.24018133,-0.0030591516,0.413527
754065512,0.2372114,-0.00015345702,0.40713468
754087465,0.22830161,-0.0030591516,0.40074238
754109478,0.23127154,0.0027522377,0.413527
754131466,0.22830161,-0.0030591516,0.41033086
754153476,0.22830161,-0.00015345702,0.41033086
754175473,0.23424147,0.0027522377,0.41991934
754197535,0.23127154,-0.0059648464,0.3975462
754219475,0.2372114,-0.0030591516,0.41033086
754243506,0.23127154,-0.0059648464,0.3975462
754265489,0.23424147,0.0027522377,0.413527
754288800,0.22830161,-0.0030591516,0.40713468
754312796,0.24018133,-0.0059648464,0.38795778
754336474,0.2372114,-0.0059648464,0.3911539
754360477,0.24018133,-0.0059648464,0.38795778
754384466,0.24018133,-0.0059648464,0.38795778
754406478,0.24018133,-0.0059648464,0.3847616
754427484,0.24018133,-0.0030591516,0.38156545
754449492,0.2372114,-0.0059648464,0.38795778
754472474,0.24315126,-0.0030591516,0.3783693
754493557,0.24315126,-0.0059648464,0.38795778
754515466,0.24018133,-0.0059648464,0.38156545
754536549,0.24018133,-0.0059648464,0.3847616
754559504,0.24018133,-0.0059648464,0.38156545
754580550,0.24315126,-0.0059648464,0.3783693
754603466,0.24612118,-0.0059648464,0.3847616
754626387,0.24018133,-0.0059648464,0.38156545
754648465,0.24018133,-0.0059648464,0.3847616
754671475,0.24018133,-0.0059648464,0.3847616
754693818,0.24315126,-0.0059648464,0.38795778
754717793,0.24018133,-0.0059648464,0.38156545
754741776,0.24018133,-0.0059648464,0.38156545
754765939,0.2372114,-0.008870541,0.3783693
754789477,0.24018133,-0.008870541,0.3847616
754812482,0.24018133,-0.0059648464,0.3847616
754835466,0.24315126,-0.0059648464,0.38795778
754857466,0.24018133,-0.008870541,0.38156545
754879466,0.24018133,-0.0059648464,0.38156545
754900465,0.24018133,-0.0059648464,0.3847616
754922989,0.24018133,-0.0059648464,0.38795778
754945467,0.24018133,-0.0059648464,0.3847616
754968466,0.24018133,-0.008870541,0.38795778
754990603,0.2372114,-0.011776236,0.3847616
755012563,0.2372114,-0.008870541,0.38156545
755035466,0.2372114,-0.011776236,0.38156545
755057466,0.24018133,-0.011776236,0.38156545
755080468,0.2372114,-0.011776236,0.38795778
755102578,0.2372114,-0.011776236,0.3911539
755124465,0.2372114,-0.011776236,0.38156545
755146467,0.23424147,-0.011776236,0.38156545
755169489,0.23424147,-0.01468193,0.3847616
755191471,0.23424147,-0.01468193,0.38795778
755212466,0.23424147,-0.011776236,0.3911539
755234466,0.23424147,-0.01468193,0.38795778
755256468,0.23424147,-0.01468193,0.3911539
755278466,0.23424147,-0.011776236,0.38795778
755300565,0.23424147,-0.01468193,0.39435005
755323933,0.23424147,-0.017587624,0.39435005
755346476,0.2372114,-0.01468193,0.3847616
755369483,0.23424147,-0.01468193,0.38795778
755391472,0.23424147,-0.01468193,0.3847616
755413484,0.23424147,-0.017587624,0.3911539
755434473,0.23424147,-0.01468193,0.38795778
755455466,0.23424147,-0.01468193,0.3847616
755477495,0.23424147,-0.01468193,0.3783693
755499466,0.2372114,-0.017587624,0.38795778
755522473,0.23424147,-0.017587624,0.38795778
755544472,0.23424147,-0.01468193,0.38795778
755567504,0.23424147,-0.017587624,0.38795778
755588719,0.23424147,-0.017587624,0.38795778
755611466,0.23127154,-0.017587624,0.39435005
755634473,0.23127154,-0.017587624,0.3847616
755656467,0.23424147,-0.017587624,0.38795778
755679465,0.23127154,-0.017587624,0.38156545
755700700,0.23127154,-0.017587624,0.3911539
755723466,0.23127154,-0.017587624,0.38795778
755746476,0.23127154,-0.017587624,0.3847616
755767506,0.23127154,-0.017587624,0.3975462
755789483,0.22830161,-0.017587624,0.3847616
755812831,0.23127154,-0.017587624,0.3911539
755836789,0.23127154,-0.017587624,0.39435005
755860792,0.23424147,-0.017587624,0.3847616
755884809,0.23424147,-0.01468193,0.3847616
755905534,0.23127154,-0.017587624,0.3847616
755927467,0.23424147,-0.01468193,0.38795778
755949470,0.2372114,-0.017587624,0.3847616
755972789,0.2372114,-0.01468193,0.3847616
755996675,0.2372114,-0.017587624,0.38795778
756019466,0.23424147,-0.01468193,0.3847616
756042288,0.23424147,-0.01468193,0.3847616
756064466,0.23424147,-0.01468193,0.38156545
756087466,0.23424147,-0.01468193,0.38156545
756109814,0.23424147,-0.01468193,0.38795778
756131467,0.23424147,-0.01468193,0.3847616
756152465,0.23424147,-0.01468193,0.3847616
756175466,0.23424147,-0.01468193,0.38156545
756197797,0.2372114,-0.011776236,0.3911539
756219473,0.23424147,-0.011776236,0.38156545
756240473,0.2372114,-0.01468193,0.3847616
756263466,0.23424147,-0.011776236,0.3847616
756285839,0.2372114,-0.011776236,0.38156545
756308557,0.23424147,-0.01468193,0.38156545
756331473,0.23424147,-0.011776236,0.38795778
756353468,0.23424147,-0.01468193,0.3847616
756376565,0.23424147,-0.011776236,0.38156545
756399467,0.23424147,-0.01468193,0.38795778
756420466,0.23424147,-0.011776236,0.38156545
756443094,0.2372114,-0.011776236,0.3911539
756465466,0.2372114,-0.011776236,0.38156545
756488473,0.23424147,-0.011776236,0.3847616
756510577,0.23424147,-0.01468193,0.3847616
756532475,0.23424147,-0.011776236,0.3911539
756555133,0.23424147,-0.011776236,0.3847616
756577478,0.23424147,-0.011776236,0.3911539
756600465,0.23424147,-0.008870541,0.39435005
756621473,0.23424147,-0.011776236,0.3911539
756644467,0.23424147,-0.008870541,0.38795778
756666466,0.23424147,-0.011776236,0.3911539
756688476,0.2372114,-0.011776236,0.3911539
756711476,0.23424147,-0.01468193,0.3847616
756733481,0.23424147,-0.011776236,0.39435005
756755978,0.23424147,-0.011776236,0.38795778
756778476,0.2372114,-0.011776236,0.3911539
756800520,0.23127154,-0.011776236,0.3911539
756823467,0.23127154,-0.011776236,0.38795778
756845479,0.23424147,-0.008870541,0.3847616
756867958,0.2372114,-0.011776236,0.38156545
756890465,0.23424147,-0.011776236,0.38795778
756913488,0.2372114,-0.008870541,0.3911539
756934466,0.23424147,-0.008870541,0.3911539
756955466,0.23424147,-0.011776236,0.38156545
756978474,0.23424147,-0.008870541,0.3911539
757000467,0.23424147,-0.011776236,0.38795778
757023467,0.23424147,-0.008870541,0.39435005
757045467,0.23424147,-0.008870541,0.38795778
757067504,0.2372114,-0.008870541,0.3847616
757090509,0.23424147,-0.008870541,0.39435005
757112465,0.23424147,-0.008870541,0.38795778
757135508,0.23424147,-0.011776236,0.3847616
757157494,0.23424147,-0.008870541,0.39435005
757178483,0.23424147,-0.008870541,0.3911539
757200465,0.23424147,-0.008870541,0.3911539
757223466,0.2372114,-0.008870541,0.3847616
757244690,0.23424147,-0.008870541,0.3911539
757267474,0.23424147,-0.008870541,0.39435005
757289490,0.23424147,-0.008870541,0.38795778
757312475,0.23424147,-0.011776236,0.3847616
757336807,0.2372114,-0.008870541,0.38795778
757360474,0.23424147,-0.011776236,0.3911539
757383467,0.23424147,-0.008870541,0.3847616
757405527,0.23424147,-0.008870541,0.38156545
757427465,0.23424147,-0.008870541,0.3911539
757449490,0.23424147,-0.011776236,0.3847616
757470475,0.23424147,-0.008870541,0.3847616
757492476,0.23424147,-0.011776236,0.38795778
757515506,0.23127154,-0.008870541,0.38795778
757538186,0.23424147,-0.008870541,0.38795778
757559474,0.23424147,-0.008870541,0.39435005
757581833,0.23424147,-0.008870541,0.38795778
757605872,0.23127154,-0.008870541,0.3847616
757629773,0.23127154,-0.0059648464,0.38795778
757653774,0.23424147,-0.008870541,0.38795778
757677771,0.2372114,-0.008870541,0.38156545
757701785,0.23424147,-0.0059648464,0.3911539
757723466,0.23127154,-0.008870541,0.38795778
757746513,0.23424147,-0.0059648464,0.3847616
757767504,0.23424147,-0.0059648464,0.38156545
757789774,0.23127154,-0.0059648464,0.3911539
757813482,0.23424147,-0.0059648464,0.39435005
757836480,0.23424147,-0.0030591516,0.3911539
757859465,0.23424147,-0.0059648464,0.38795778
757880473,0.23424147,-0.0059648464,0.38795778
757902613,0.2372114,-0.0059648464,0.3975462
757926667,0.23424147,-0.0059648464,0.39435005
757948474,0.23424147,-0.0059648464,0.39435005
757971505,0.2372114,-0.0059648464,0.3847616
757992687,0.23127154,-0.0059648464,0.3847616
758015472,0.23424147,-0.0030591516,0.3911539
758038650,0.23424147,-0.0030591516,0.3911539
758062570,0.23424147,-0.0030591516,0.3847616
758084467,0.2372114,-0.0059648464,0.3847616
758107103,0.2372114,-0.0059648464,0.3847616
758129467,0.23424147,-0.0030591516,0.3911539
758152472,0.23424147,-0.0030591516,0.38795778
758174467,0.23424147,-0.0030591516,0.38795778
758196465,0.23424147,-0.0030591516,0.3847616
758218512,0.23424147,-0.0030591516,0.38795778
758241515,0.23424147,-0.0030591516,0.38156545
758263473,0.23424147,-0.0030591516,0.3911539
758285479,0.2372114,-0.0059648464,0.38795778
758306467,0.2372114,-0.0059648464,0.3847616
758329465,0.23424147,-0.0059648464,0.38795778
758351473,0.23424147,-0.0030591516,0.3847616
758373474,0.2372114,-0.0059648464,0.38795778
758394466,0.23424147,-0.0059648464,0.39435005
758417467,0.2372114,-0.0059648464,0.38795778
758439465,0.23424147,-0.0030591516,0.38156545
758461483,0.2372114,-0.0059648464,0.38795778
758482473,0.23424147,-0.0059648464,0.39435005
758503473,0.2372114,-0.0059648464,0.3847616
758525481,0.23424147,-0.0059648464,0.3911539
758547502,0.23424147,-0.0059648464,0.39435005
758570466,0.2372114,-0.0059648464,0.3847616
758592482,0.2372114,-0.0059648464,0.3847616
758615466,0.2372114,-0.0059648464,0.3911539
758636712,0.2372114,-0.0059648464,0.39435005
758659466,0.23424147,-0.0059648464,0.38795778
758682474,0.23424147,-0.0059648464,0.38795778
758703467,0.23424147,-0.0059648464,0.38156545
758724591,0.23424147,-0.008870541,0.3911539
758747466,0.23424147,-0.0059648464,0.3911539
758770467,0.2372114,-0.008870541,0.39435005
758792473,0.23424147,-0.0059648464,0.39435005
758814505,0.23424147,-0.008870541,0.3911539
758835504,0.23424147,-0.0059648464,0.38795778
758857485,0.23424147,-0.0059648464,0.38795778
758880797,0.23424147,-0.0059648464,0.3911539
758903474,0.23127154,-0.0059648464,0.38795778
758925568,0.2372114,-0.008870541,0.3975462
758947466,0.23127154,-0.0059648464,0.3911539
758969477,0.23127154,-0.0059648464,0.3911539
758990475,0.23424147,-0.0059648464,0.3911539
759012475,0.23424147,-0.0059648464,0.38795778
759035506,0.23424147,-0.0059648464,0.3975462
759058378,0.23424147,-0.0059648464,0.39435005
759079466,0.2372114,-0.0059648464,0.3911539
759101773,0.2372114,-0.0059648464,0.3911539
759125882,0.2372114,-0.0059648464,0.38795778
759149789,0.23424147,-0.0059648464,0.38795778
759173792,0.23424147,-0.0059648464,0.38795778
759197776,0.23424147,-0.0059648464,0.3911539
759221864,0.23424147,-0.0059648464,0.3847616
759245892,0.23424147,-0.0030591516,0.38156545
759269829,0.23424147,-0.0030591516,0.3847616
759293818,0.2372114,-0.0030591516,0.38795778
759317788,0.2372114,-0.0059648464,0.3847616
759341789,0.2372114,-0.0030591516,0.38156545
759363466,0.2372114,-0.0030591516,0.3847616
759384474,0.2372114,-0.0030591516,0.3911539
759406612,0.2372114,-0.0030591516,0.38795778
759428466,0.24018133,-0.0030591516,0.38156545
759449466,0.24018133,-0.00015345702,0.38795778
759472466,0.23424147,-0.0030591516,0.3847616
759493470,0.2372114,-0.0030591516,0.38156545
759516472,0.2372114,-0.00015345702,0.38795778
759539504,0.24018133,-0.00015345702,0.3847616
759561466,0.2372114,-0.00015345702,0.3847616
759584466,0.23424147,-0.0030591516,0.3783693
759606583,0.2372114,-0.00015345702,0.3911539
759627466,0.2372114,-0.00015345702,0.3911539
759649467,0.2372114,-0.00015345702,0.3847616
759672466,0.2372114,-0.00015345702,0.38156545
759693467,0.2372114,-0.0030591516,0.3847616
759716466,0.2372114,-0.0030591516,0.3847616
759738466,0.24018133,-0.0030591516,0.3847616
759761525,0.24018133,-0.0030591516,0.38795778
759783465,0.24018133,-0.0030591516,0.38795778
759805484,0.24018133,-0.0030591516,0.38795778
759827969,0.2372114,-0.0030591516,0.38156545
759849554,0.2372114,-0.0030591516,0.3847616
759871466,0.24018133,-0.0030591516,0.38156545
759893475,0.2372114,-0.0030591516,0.3783693
759915966,0.24018133,-0.0030591516,0.3847616
759937477,0.24018133,-0.0030591516,0.3911539
759959465,0.24018133,-0.0059648464,0.38156545
759982466,0.24018133,-0.0030591516,0.3847616
760005488,0.24315126,-0.0059648464,0.38795778
760027484,0.24315126,-0.0030591516,0.38795778
760049483,0.24018133,-0.0059648464,0.38156545
760071467,0.24018133,-0.0059648464,0.38156545
760093519,0.24018133,-0.0030591516,0.3847616
760114503,0.24315126,-0.0059648464,0.38795778
760136465,0.24018133,-0.0059648464,0.38795778
760159467,0.24018133,-0.0059648464,0.38156545
760181489,0.24018133,-0.0030591516,0.38156545
760203465,0.24315126,-0.0030591516,0.3847616
760226474,0.24018133,-0.0059648464,0.38156545
760247465,0.24018133,-0.0059648464,0.3847616
760269482,0.24018133,-0.0059648464,0.38156545
760291474,0.24018133,-0.0059648464,0.3783693
760314474,0.24018133,-0.0059648464,0.3847616
760335474,0.24018133,-0.008870541,0.38156545
760357604,0.24315126,-0.0059648464,0.38795778
760379466,0.24018133,-0.0059648464,0.3847616
760401526,0.24018133,-0.0059648464,0.38156545
760424465,0.24018133,-0.0030591516,0.38795778
760446467,0.24018133,-0.0059648464,0.3847616
760468474,0.24018133,-0.0059648464,0.38795778
760490466,0.2372114,-0.0059648464,0.3847616
760512466,0.24018133,-0.0030591516,0.38156545
760534466,0.2372114,-0.0059648464,0.3911539
760556466,0.2372114,-0.0059648464,0.38795778
760579468,0.2372114,-0.008870541,0.38795778
760601768,0.24018133,-0.0059648464,0.38156545
760623467,0.2372114,-0.0059648464,0.3847616
760646341,0.24018133,-0.0059648464,0.3847616
760668555,0.2372114,-0.0059648464,0.38156545
760691467,0.2372114,-0.0059648464,0.39435005
760713786,0.2372114,-0.008870541,0.38795778
760736466,0.24018133,-0.0059648464,0.3783693
760759474,0.2372114,-0.0059648464,0.38795778
760782184,0.24018133,-0.0059648464,0.38795778
760804473,0.2372114,-0.0059648464,0.3847616
760827466,0.2372114,-0.0059648464,0.3847616
760849819,0.2372114,-0.008870541,0.3847616
760873830,0.2372114,-0.0059648464,0.39435005
760897487,0.24018133,-0.008870541,0.38156545
760920466,0.24018133,-0.0059648464,0.38795778
760942584,0.24315126,-0.0059648464,0.3911539
760964465,0.24018133,-0.0059648464,0.3783693
760986988,0.2372114,-0.0059648464,0.38156545
761009475,0.24018133,-0.008870541,0.3847616
761032548,0.24018133,-0.0059648464,0.38156545
761054616,0.24018133,-0.0059648464,0.3847616
761078639,0.24018133,-0.0059648464,0.3783693
761102603,0.2372114,-0.0059648464,0.3911539
761124468,0.24018133,-0.0059648464,0.3847616
761145467,0.24018133,-0.0059648464,0.3847616
761168474,0.24018133,-0.0059648464,0.3911539
761191467,0.24018133,-0.0059648464,0.3847616
761212467,0.24018133,-0.0059648464,0.3847616
761233478,0.24315126,-0.0059648464,0.3847616
761256465,0.24315126,-0.0059648464,0.3847616
761278466,0.24612118,-0.008870541,0.3847616
761300465,0.24315126,-0.0059648464,0.38795778
761322475,0.24018133,-0.0059648464,0.3847616
761345549,0.24018133,-0.0059648464,0.38156545
761367465,0.24018133,-0.0059648464,0.38156545
761389488,0.24315126,-0.0030591516,0.3847616
761411955,0.24315126,-0.0059648464,0.38156545
761433512,0.24018133,-0.0059648464,0.38795778
761454507,0.24315126,-0.0030591516,0.38156545
761476473,0.24018133,-0.0059648464,0.3847616
761499901,0.24315126,-0.0059648464,0.38156545
761522506,0.24315126,-0.0059648464,0.38156545
761544465,0.24018133,-0.0059648464,0.3847616
761567514,0.24018133,-0.0059648464,0.38795778
761591511,0.24018133,-0.0059648464,0.38795778
761612704,0.24018133,-0.0059648464,0.38795778
761635475,0.24018133,-0.0059648464,0.38156545
761658481,0.24018133,-0.0059648464,0.3783693
761680473,0.24018133,-0.0059648464,0.3847616
761703474,0.2372114,-0.008870541,0.38795778
761724583,0.24018133,-0.0059648464,0.3847616
761747474,0.24018133,-0.0059648464,0.3847616
761770481,0.24018133,-0.0059648464,0.3847616
761792553,0.24018133,-0.0059648464,0.38795778
761814505,0.24018133,-0.0059648464,0.38156545
761835512,0.24018133,-0.0059648464,0.3847616
761858468,0.2372114,-0.0059648464,0.3847616
761880476,0.2372114,-0.0059648464,0.38795778
761904466,0.24315126,-0.0030591516,0.38156545
761925573,0.24018133,-0.0030591516,0.38156545
761947471,0.24018133,-0.0030591516,0.38156545
761969472,0.24018133,-0.0030591516,0.38795778
761992466,0.24018133,-0.0059648464,0.38156545
762014466,0.24018133,-0.0059648464,0.38156545
762036484,0.24018133,-0.0030591516,0.3847616
762059504,0.24018133,-0.0030591516,0.3911539
762080809,0.24018133,-0.0030591516,0.38795778
762104466,0.24018133,-0.0030591516,0.38795778
762126467,0.2372114,-0.0059648464,0.38156545
762148474,0.24018133,-0.0059648464,0.3847616
762171467,0.24018133,-0.0030591516,0.3911539
762194350,0.24018133,-0.0059648464,0.3847616
762215465,0.2372114,-0.0059648464,0.3847616
762237760,0.24018133,-0.0059648464,0.3847616
762261851,0.2372114,-0.0059648464,0.3847616
762283470,0.2372114,-0.0059648464,0.38156545
762306415,0.2372114,-0.0059648464,0.3911539
762327503,0.2372114,-0.0059648464,0.38795778
762349777,0.23424147,-0.008870541,0.38795778
762373787,0.2372114,-0.008870541,0.3911539
762397789,0.23424147,-0.008870541,0.39435005
762419467,0.2372114,-0.008870541,0.3847616
762439483,0.23424147,-0.008870541,0.38795778
762462597,0.2372114,-0.008870541,0.38156545
762484482,0.2372114,-0.008870541,0.3847616
762507467,0.2372114,-0.008870541,0.3847616
762529467,0.23424147,-0.008870541,0.3911539
762551467,0.2372114,-0.008870541,0.39435005
762574629,0.23424147,-0.008870541,0.38795778
762598578,0.23424147,-0.008870541,0.38156545
762620466,0.23424147,-0.008870541,0.38795778
762641477,0.23424147,-0.008870541,0.3911539
762664565,0.2372114,-0.008870541,0.39435005
762687476,0.2372114,-0.011776236,0.38795778
762708474,0.23127154,-0.008870541,0.3911539
762731465,0.23424147,-0.008870541,0.38795778
762753474,0.23424147,-0.008870541,0.38156545
762776467,0.23424147,-0.011776236,0.3847616
762797483,0.23424147,-0.008870541,0.39435005
762818466,0.23127154,-0.008870541,0.38156545
762841526,0.23424147,-0.011776236,0.3847616
762862512,0.23424147,-0.008870541,0.38795778
762885474,0.23424147,-0.008870541,0.39435005
762907966,0.23424147,-0.0059648464,0.38795778
762929521,0.23424147,-0.008870541,0.3911539
762951465,0.23424147,-0.008870541,0.3911539
762973474,0.23424147,-0.008870541,0.3911539
762996074,0.23424147,-0.008870541,0.3911539
763018466,0.23424147,-0.0059648464,0.39435005
763041488,0.23424147,-0.0059648464,0.38156545
763063473,0.23127154,-0.008870541,0.38795778
763085522,0.23424147,-0.008870541,0.3911539
763106505,0.23424147,-0.0059648464,0.3975462
763127511,0.23424147,-0.008870541,0.3911539
763150466,0.2372114,-0.008870541,0.3911539
763172465,0.23127154,-0.008870541,0.3847616
763195466,0.23424147,-0.0059648464,0.3847616
763217487,0.23424147,-0.0059648464,0.3847616
763238468,0.23424147,-0.0059648464,0.38795778
763260466,0.23424147,-0.0059648464,0.38795778
763281481,0.23127154,-0.0059648464,0.38156545
763303475,0.23127154,-0.0059648464,0.3847616
763326470,0.23424147,-0.008870541,0.3847616
763348468,0.23127154,-0.0059648464,0.39435005
763371473,0.23424147,-0.0030591516,0.3911539
763393486,0.23424147,-0.0059648464,0.3847616
763415480,0.23127154,-0.008870541,0.39435005
763437530,0.23424147,-0.0059648464,0.3911539
763458543,0.23424147,-0.0059648464,0.3911539
763480474,0.23127154,-0.0059648464,0.3911539
763503473,0.23127154,-0.0059648464,0.3847616
763525492,0.23424147,-0.0059648464,0.38156545
763547476,0.23127154,-0.0059648464,0.38156545
763569504,0.23424147,-0.0059648464,0.38795778
763591466,0.23127154,-0.0059648464,0.3911539
763613483,0.23424147,-0.0059648464,0.3911539
763636465,0.23424147,-0.0059648464,0.3847616
763658467,0.23127154,-0.0059648464,0.3911539
763680465,0.23424147,-0.0059648464,0.3911539
763703467,0.23424147,-0.0059648464,0.38795778
763725888,0.23424147,-0.0059648464,0.39435005
763748475,0.23424147,-0.0059648464,0.3911539
763771476,0.23424147,-0.0059648464,0.38795778
763794194,0.23424147,-0.0059648464,0.3911539
763815474,0.23424147,-0.0059648464,0.3847616
763837825,0.23424147,-0.0059648464,0.39435005
763861780,0.23424147,-0.0059648464,0.38795778
763885852,0.23424147,-0.0059648464,0.38795778
763909800,0.23424147,-0.0059648464,0.3847616
763933828,0.23424147,-0.0059648464,0.3911539
763957856,0.23424147,-0.0059648464,0.38795778
763980477,0.23127154,-0.0059648464,0.39435005
764003210,0.23424147,-0.0059648464,0.38795778
764025466,0.23424147,-0.0059648464,0.38795778
764048466,0.23424147,-0.008870541,0.3847616
764070567,0.2372114,-0.0059648464,0.38795778
764092467,0.2372114,-0.008870541,0.3847616
764113466,0.23424147,-0.011776236,0.38795778
764136519,0.2372114,-0.011776236,0.38795778
764159465,0.2372114,-0.008870541,0.3847616
764182599,0.2372114,-0.008870541,0.38156545
764204466,0.2372114,-0.011776236,0.3847616
764226986,0.23424147,-0.008870541,0.3911539
764249466,0.2372114,-0.008870541,0.38795778
764272473,0.23424147,-0.008870541,0.38795778
764294583,0.2372114,-0.011776236,0.3847616
764315466,0.23424147,-0.008870541,0.38156545
764337508,0.2372114,-0.008870541,0.38795778
764359502,0.23424147,-0.011776236,0.3847616
764381484,0.23424147,-0.008870541,0.3911539
764403928,0.2372114,-0.008870541,0.38795778
764426474,0.23424147,-0.008870541,0.38156545
764449477,0.23424147,-0.011776236,0.3911539
764470481,0.2372114,-0.008870541,0.3847616
764492473,0.2372114,-0.008870541,0.38795778
764514480,0.23424147,-0.008870541,0.3911539
764537481,0.2372114,-0.011776236,0.38795778
764559466,0.23424147,-0.008870541,0.38795778
764581486,0.23127154,-0.011776236,0.3911539
764603939,0.2372114,-0.008870541,0.3847616
764625514,0.2372114,-0.011776236,0.3847616
764647473,0.23424147,-0.011776236,0.3847616
764669484,0.2372114,-0.008870541,0.3847616
764691467,0.23424147,-0.011776236,0.38795778
764713477,0.24018133,-0.011776236,0.3911539
764735465,0.2372114,-0.011776236,0.38795778
764756697,0.2372114,-0.011776236,0.38156545
764779468,0.24018133,-0.01468193,0.38156545
764802475,0.2372114,-0.011776236,0.3847616
764824473,0.2372114,-0.011776236,0.3847616
764847466,0.2372114,-0.011776236,0.39435005
764869470,0.2372114,-0.011776236,0.3847616
764891506,0.2372114,-0.011776236,0.38795778
764914466,0.2372114,-0.011776236,0.3847616
764936473,0.2372114,-0.011776236,0.3847616
764959467,0.2372114,-0.01468193,0.3847616
764980466,0.2372114,-0.01468193,0.3847616
765003465,0.2372114,-0.011776236,0.3847616
765025493,0.2372114,-0.01468193,0.38156545
765048466,0.2372114,-0.01468193,0.38795778
765069515,0.2372114,-0.01468193,0.38795778
765090466,0.24018133,-0.011776236,0.3847616
765112466,0.24018133,-0.01468193,0.38156545
765133495,0.23424147,-0.011776236,0.38156545
765155472,0.2372114,-0.011776236,0.3847616
765176473,0.24018133,-0.01468193,0.3847616
765200517,0.23424147,-0.011776236,0.3911539
765224466,0.23424147,-0.008870541,0.3847616
765246467,0.2372114,-0.011776236,0.3847616
765268473,0.2372114,-0.011776236,0.38156545
765291473,0.2372114,-0.01468193,0.3847616
765313812,0.23424147,-0.011776236,0.38795778
765337868,0.2372114,-0.011776236,0.38795778
765361898,0.2372114,-0.011776236,0.3847616
765385919,0.2372114,-0.011776236,0.38156545
765409860,0.24018133,-0.01468193,0.3847616
765433804,0.2372114,-0.01468193,0.3911539
765457807,0.2372114,-0.01468193,0.3847616
765481813,0.2372114,-0.011776236,0.3847616
765503466,0.24018133,-0.011776236,0.3847616
765524472,0.24018133,-0.01468193,0.38795778
765546579,0.2372114,-0.011776236,0.38795778
765568474,0.2372114,-0.01468193,0.3847616
765591109,0.2372114,-0.01468193,0.38795778
765613514,0.2372114,-0.01468193,0.3847616
765636563,0.24018133,-0.011776236,0.3847616
765659465,0.2372114,-0.011776236,0.3847616
765682596,0.2372114,-0.01468193,0.3847616
765705477,0.2372114,-0.01468193,0.3847616
765728466,0.2372114,-0.011776236,0.3911539
765751135,0.2372114,-0.01468193,0.3847616
765772466,0.2372114,-0.01468193,0.3847616
765794605,0.2372114,-0.01468193,0.3847616
765818599,0.23424147,-0.011776236,0.38156545
765840465,0.2372114,-0.01468193,0.38156545
765863192,0.2372114,-0.01468193,0.3911539
765884562,0.2372114,-0.01468193,0.3847616
765907474,0.2372114,-0.01468193,0.3847616
765929486,0.2372114,-0.01468193,0.3847616
765951964,0.2372114,-0.01468193,0.3847616
765974465,0.2372114,-0.01468193,0.3847616
765997485,0.2372114,-0.01468193,0.3847616
766018467,0.2372114,-0.01468193,0.3783693
766039782,0.24018133,-0.01468193,0.38156545
766062466,0.2372114,-0.01468193,0.38156545
766085483,0.2372114,-0.01468193,0.3847616
766106467,0.23424147,-0.01468193,0.3847616
766128466,0.24018133,-0.01468193,0.3911539
766150504,0.2372114,-0.01468193,0.3847616
766173485,0.2372114,-0.01468193,0.38156545
766195473,0.2372114,-0.01468193,0.3847616
766217528,0.24315126,-0.01468193,0.3847616
766238467,0.24018133,-0.01468193,0.38156545
766259473,0.24018133,-0.01468193,0.3847616
766281486,0.24018133,-0.011776236,0.3847616
766303465,0.24018133,-0.017587624,0.38156545
766326466,0.2372114,-0.017587624,0.38795778
766347467,0.24018133,-0.01468193,0.38156545
766368715,0.24018133,-0.01468193,0.38795778
766391466,0.2372114,-0.01468193,0.3847616
766414476,0.24018133,-0.01468193,0.3847616
766436465,0.2372114,-0.01468193,0.38795778
766458504,0.2372114,-0.01468193,0.38156545
766479509,0.24018133,-0.011776236,0.3847616
766502475,0.2372114,-0.011776236,0.38156545
766524466,0.23424147,-0.011776236,0.38156545
766544481,0.2372114,-0.011776236,0.38795778
766566475,0.2372114,-0.011776236,0.38795778
766588777,0.2372114,-0.008870541,0.39435005
766611466,0.2372114,-0.011776236,0.3911539
766633487,0.23424147,-0.011776236,0.38156545
766655505,0.2372114,-0.011776236,0.3847616
766676466,0.23424147,-0.008870541,0.3847616
766697599,0.23424147,-0.008870541,0.3911539
766720328,0.23424147,-0.008870541,0.38795778
766743473,0.23424147,-0.008870541,0.3847616
766765391,0.23424147,-0.008870541,0.3911539
766787321,0.23424147,-0.008870541,0.3911539
766810324,0.2372114,-0.008870541,0.38795778
766831358,0.23424147,-0.008870541,0.3847616
766854666,0.23127154,-0.0059648464,0.38795778
766878687,0.23424147,-0.0059648464,0.3847616
766902666,0.23424147,-0.0059648464,0.3911539
766926714,0.23424147,-0.0059648464,0.38795778
766950665,0.23424147,-0.0059648464,0.3911539
766974646,0.22830161,-0.0059648464,0.38795778
766997810,0.23127154,-0.0059648464,0.38795778
767020481,0.23424147,-0.0030591516,0.38156545
767043465,0.23424147,-0.0030591516,0.38795778
767066385,0.23127154,-0.0030591516,0.39435005
767088472,0.23424147,-0.0030591516,0.39435005
767111136,0.23127154,-0.00015345702,0.38795778
767132473,0.23424147,-0.0030591516,0.39435005
767155468,0.23424147,-0.0030591516,0.3975462
767177465,0.23424147,-0.0030591516,0.3911539
767200474,0.23127154,-0.00015345702,0.3847616
767223190,0.23424147,-0.00015345702,0.39435005
767243477,0.23424147,-0.00015345702,0.39435005
767267449,0.23127154,0.0027522377,0.3847616
767289354,0.23424147,-0.00015345702,0.38795778
767311943,0.23424147,-0.00015345702,0.38795778
767335179,0.23127154,-0.00015345702,0.39435005
767357486,0.23127154,-0.00015345702,0.3911539
767380315,0.23127154,0.0027522377,0.3847616
767403468,0.23424147,-0.00015345702,0.3911539
767425368,0.23127154,-0.00015345702,0.3911539
767448566,0.22830161,0.0027522377,0.39435005
767472019,0.23127154,0.0056579323,0.3911539
767493482,0.23127154,0.0027522377,0.39435005
767514467,0.23424147,0.0027522377,0.3911539
767537520,0.23127154,-0.00015345702,0.38795778
767559961,0.23127154,0.0027522377,0.38795778
767580472,0.23127154,0.0056579323,0.38156545
767602466,0.23127154,0.0027522377,0.3911539
767624467,0.23127154,0.0027522377,0.3911539
767645485,0.22830161,0.0027522377,0.38795778
767665484,0.22830161,0.0027522377,0.38156545
767687796,0.23127154,0.0027522377,0.3911539
767710466,0.23127154,0.0027522377,0.38795778
767732467,0.22830161,0.0027522377,0.38795778
767754466,0.23424147,0.0027522377,0.39435005
767774477,0.22830161,0.0027522377,0.38795778
767795466,0.23127154,0.0027522377,0.3847616
767817484,0.23127154,0.0027522377,0.3911539
767839473,0.23127154,0.0027522377,0.38795778
767860515,0.23127154,0.0056579323,0.38795778
767884569,0.22830161,0.0027522377,0.3847616
767908319,0.23127154,0.0027522377,0.3911539
767930330,0.23127154,0.0027522377,0.3911539
767952927,0.23424147,0.0056579323,0.38795778
767975321,0.22830161,0.0056579323,0.3975462
767998474,0.22533168,0.0056579323,0.3911539
768020316,0.23127154,0.0056579323,0.39435005
768042369,0.22830161,0.0027522377,0.3911539
768064318,0.22830161,0.0027522377,0.39435005
768087474,0.23127154,0.0056579323,0.3975462
768109374,0.23127154,0.0056579323,0.38795778
768131311,0.22533168,0.0027522377,0.38795778
768153642,0.22830161,0.0027522377,0.39435005
768176328,0.22830161,0.0056579323,0.3975462
768199473,0.22830161,0.0027522377,0.3911539
768221388,0.22830161,0.0027522377,0.3911539
768242321,0.22830161,0.0027522377,0.3911539
768264324,0.22830161,0.0027522377,0.3911539
768287473,0.22830161,0.0027522377,0.39435005
768309506,0.23127154,-0.00015345702,0.39435005
768333389,0.23127154,-0.00015345702,0.3975462
768355312,0.22830161,-0.00015345702,0.39435005
768378342,0.23127154,-0.00015345702,0.3911539
768399349,0.23127154,-0.00015345702,0.3975462
768422647,0.23127154,-0.0030591516,0.3911539
768446719,0.23127154,-0.00015345702,0.3911539
768470638,0.23127154,-0.0030591516,0.3847616
768494657,0.23127154,-0.00015345702,0.38795778
768518654,0.23424147,-0.0030591516,0.3911539
768542668,0.23424147,-0.00015345702,0.3911539
768565926,0.23424147,-0.00015345702,0.3911539
768588472,0.2372114,-0.0030591516,0.3911539
768611466,0.23424147,-0.0030591516,0.39435005
768634296,0.23127154,-0.0030591516,0.3911539
768656467,0.23424147,-0.0030591516,0.3911539
768679140,0.23424147,-0.0030591516,0.38156545
768700473,0.23127154,-0.0030591516,0.38795778
768723466,0.23127154,-0.0059648464,0.38795778
768745469,0.23424147,-0.0059648464,0.3911539
768768474,0.23127154,-0.0030591516,0.39435005
768791139,0.23424147,-0.0059648464,0.38795778
768812482,0.23424147,-0.0059648464,0.3911539
768835466,0.23127154,-0.0059648464,0.38795778
768857505,0.23127154,-0.0030591516,0.39435005
768880542,0.23424147,-0.0059648464,0.38795778
768903483,0.23424147,-0.008870541,0.3911539
768924480,0.23127154,-0.0059648464,0.3911539
768947475,0.23127154,-0.0059648464,0.39435005
768969507,0.23424147,-0.0059648464,0.38795778
768992466,0.23424147,-0.008870541,0.3847616
769014541,0.2372114,-0.008870541,0.38795778
769035942,0.23424147,-0.0059648464,0.38156545
769058336,0.23424147,-0.008870541,0.3847616
769081486,0.23424147,-0.011776236,0.3847616
769103467,0.23424147,-0.008870541,0.38795778
769124703,0.23424147,-0.008870541,0.3847616
769146335,0.2372114,-0.008870541,0.3847616
769169487,0.2372114,-0.008870541,0.3847616
769191465,0.2372114,-0.008870541,0.3847616
769211968,0.2372114,-0.008870541,0.3911539
769234334,0.2372114,-0.008870541,0.38156545
769257468,0.2372114,-0.008870541,0.38156545
769279468,0.2372114,-0.008870541,0.3847616
769301476,0.2372114,-0.008870541,0.3911539
769323472,0.2372114,-0.008870541,0.3847616
769345512,0.2372114,-0.008870541,0.3847616
769368466,0.2372114,-0.008870541,0.3783693
769391506,0.2372114,-0.008870541,0.3847616
769413483,0.2372114,-0.008870541,0.3847616
769434505,0.2372114,-0.008870541,0.38795778
769455506,0.2372114,-0.0059648464,0.38795778
769477490,0.2372114,-0.008870541,0.3847616
769499466,0.2372114,-0.0059648464,0.3847616
769521467,0.23424147,-0.0059648464,0.3847616
769543506,0.2372114,-0.0059648464,0.3847616
769564705,0.2372114,-0.0059648464,0.38795778
769587349,0.2372114,-0.0059648464,0.38795778
769610474,0.23424147,-0.0059648464,0.38156545
769632392,0.24018133,-0.0059648464,0.3847616
769654479,0.2372114,-0.0059648464,0.38795778
769677641,0.2372114,-0.0059648464,0.3847616
769700310,0.2372114,-0.0059648464,0.3847616
769723466,0.2372114,-0.0059648464,0.3847616
769745393,0.2372114,-0.0059648464,0.38156545
769766430,0.2372114,-0.0059648464,0.3911539
769787322,0.24018133,-0.0059648464,0.3847616
769808311,0.2372114,-0.0059648464,0.38795778
769829502,0.2372114,-0.0059648464,0.3847616
769852313,0.2372114,-0.0059648464,0.38156545
769875476,0.23424147,-0.0059648464,0.3847616
769898356,0.2372114,-0.0059648464,0.38795778
769920313,0.23424147,-0.0059648464,0.3911539
769942635,0.23424147,-0.0059648464,0.38795778
769965850,0.2372114,-0.0059648464,0.3847616
769988483,0.23424147,-0.0059648464,0.39435005
770011506,0.23424147,-0.0059648464,0.38795778
770034337,0.23127154,-0.0059648464,0.38795778
770056473,0.23424147,-0.0059648464,0.38795778
770078721,0.23424147,-0.0059648464,0.38795778
770102722,0.23127154,-0.0059648464,0.3911539
770126808,0.23127154,-0.0059648464,0.3911539
770150658,0.23424147,-0.0059648464,0.3911539
770173820,0.23127154,-0.0059648464,0.39435005
770196473,0.23127154,-0.0059648464,0.39435005
770219474,0.22830161,-0.008870541,0.38795778
770241478,0.22830161,-0.008870541,0.3911539
770264466,0.23127154,-0.0059648464,0.38795778
770285466,0.23127154,-0.008870541,0.3911539
770308466,0.23127154,-0.008870541,0.39435005
770328474,0.23127154,-0.0059648464,0.3911539
770350592,0.23127154,-0.008870541,0.38795778
770371467,0.23424147,-0.0059648464,0.3911539
770391470,0.23424147,-0.008870541,0.38795778
770414624,0.22830161,-0.008870541,0.38795778
770437473,0.23127154,-0.0059648464,0.38156545
770460312,0.23127154,-0.008870541,0.3847616
770483140,0.2372114,-0.008870541,0.38795778
770505355,0.23127154,-0.008870541,0.38795778
770528466,0.23127154,-0.0059648464,0.3911539
770550596,0.23127154,-0.0059648464,0.38156545
770572466,0.23424147,-0.0059648464,0.3911539
770594465,0.23127154,-0.0059648464,0.39435005
770617466,0.23424147,-0.0030591516,0.3911539
770638473,0.23127154,-0.0030591516,0.3911539
770660474,0.23424147,-0.00015345702,0.38795778
770682466,0.23424147,-0.00015345702,0.38795778
770704471,0.23424147,0.0056579323,0.38795778
770726467,0.23424147,0.0085636275,0.3911539
770748473,0.23127154,0.014375016,0.38795778
770770469,0.23424147,0.01728071,0.38156545
770792476,0.23424147,0.020186406,0.38156545
770814512,0.23424147,0.0230921,0.38156545
770835511,0.2372114,0.0230921,0.38156545
770858505,0.2372114,0.025997793,0.3847616
770880466,0.24018133,0.02890349,0.3783693
770904566,0.24018133,0.02890349,0.3783693
770928566,0.24315126,0.02890349,0.38156545
770952568,0.24315126,0.031809185,0.37197697
770976567,0.24909113,0.031809185,0.36878082
770999511,0.24909113,0.034714878,0.36558464
771023474,0.25206104,0.034714878,0.3623885
771045501,0.25800088,0.037620574,0.3623885
771066475,0.26394075,0.037620574,0.3623885
771088565,0.26691067,0.04343196,0.3528
771110466,0.26988062,0.04343196,0.3464077
771132716,0.27285054,0.04343196,0.34960386
771154467,0.27582046,0.046337657,0.34960386
771175465,0.28176033,0.04924335,0.3464077
771197577,0.28473026,0.04924335,0.33681923
771219472,0.28770018,0.052149046,0.33362308
771241520,0.29067013,0.055054743,0.32723075
771263468,0.29661,0.055054743,0.32083842
771285540,0.29661,0.060866132,0.31764227
771305509,0.30254987,0.06377182,0.32083842
771329638,0.3055198,0.06377182,0.31124994
771353396,0.3084897,0.06667752,0.3080538
771375319,0.31442958,0.06667752,0.3080538
771397594,0.3173995,0.06667752,0.30166152
771421996,0.32036945,0.069583215,0.2952692
771444472,0.32333937,0.07248891,0.2952692
771467465,0.3263093,0.07539461,0.28887686
771489801,0.32927924,0.07539461,0.27928838
771513824,0.33224916,0.07539461,0.27289608
771537834,0.3352191,0.0783003,0.27289608
771561777,0.338189,0.081205994,0.26650375
771585844,0.34115896,0.081205994,0.26969993
771609763,0.34412888,0.081205994,0.26969993
771631467,0.34412888,0.08411168,0.27289608
771655331,0.3470988,0.08411168,0.26011142
771679100,0.3470988,0.08411168,0.25691527
771703086,0.35006875,0.08411168,0.25691527
771726980,0.35006875,0.08411168,0.26011142
771750881,0.35006875,0.08411168,0.25691527
771774974,0.35006875,0.08411168,0.25691527
771797514,0.3470988,0.08411168,0.25371912
771821519,0.35006875,0.08411168,0.25371912
771844473,0.35303867,0.08411168,0.26011142
771866577,0.35006875,0.08411168,0.25691527
771888473,0.3470988,0.08411168,0.26011142
771911088,0.3470988,0.08411168,0.2633076
771933476,0.3470988,0.08411168,0.25691527
771956467,0.3470988,0.08411168,0.2633076
771978602,0.3470988,0.08411168,0.26011142
772000545,0.34412888,0.08411168,0.26011142
772023180,0.34412888,0.081205994,0.26650375
772045466,0.34115896,0.081205994,0.26011142
772068465,0.34412888,0.081205994,0.26650375
772089471,0.34412888,0.081205994,0.26650375
772112467,0.34115896,0.081205994,0.27289608
772135107,0.34115896,0.081205994,0.27609223
772157467,0.338189,0.0783003,0.2633076
772179924,0.338189,0.0783003,0.27609223
772201486,0.338189,0.0783003,0.27609223
772223466,0.33224916,0.0783003,0.27928838
772245506,0.3352191,0.07539461,0.27928838
772266504,0.33224916,0.07539461,0.2856807
772289475,0.33224916,0.07539461,0.2856807
772311465,0.3263093,0.0783003,0.2856807
772333489,0.32927924,0.07248891,0.28887686
772354483,0.32927924,0.07248891,0.29207304
772375473,0.32333937,0.07248891,0.2856807
772396507,0.32333937,0.07248891,0.29207304
772418476,0.32333937,0.07248891,0.2984653
772439466,0.32036945,0.069583215,0.2984653
772461499,0.3173995,0.069583215,0.30166152
772482466,0.31442958,0.06667752,0.2984653
772504482,0.3173995,0.06667752,0.2984653
772527475,0.3173995,0.06667752,0.30166152
772548976,0.31145966,0.06667752,0.31124994
772570506,0.31145966,0.06667752,0.3080538
772591466,0.3084897,0.06377182,0.31124994
772613482,0.3055198,0.06377182,0.30485764
772635466,0.30254987,0.06377182,0.31764227
772657474,0.3055198,0.06377182,0.3240346
772680688,0.29957995,0.06377182,0.31764227
772704484,0.29364008,0.06377182,0.32083842
772728554,0.29364008,0.06377182,0.32723075
772752560,0.28770018,0.06377182,0.32723075
772776467,0.28473026,0.06377182,0.3304269
772798469,0.28176033,0.06377182,0.33362308
772820465,0.27879038,0.06377182,0.33681923
772843544,0.27285054,0.060866132,0.33681923
772864806,0.27285054,0.06377182,0.33681923
772888467,0.26988062,0.06377182,0.3464077
772912466,0.26691067,0.06667752,0.34321153
772933507,0.26394075,0.06667752,0.34960386
772955465,0.26097083,0.06667752,0.34001538
772977484,0.26097083,0.069583215,0.34960386
773000467,0.26097083,0.07248891,0.34960386
773022466,0.25800088,0.07248891,0.34960386
773044465,0.25800088,0.07539461,0.3528
773067467,0.25800088,0.07248891,0.3464077
773090353,0.26097083,0.07248891,0.34960386
773111504,0.25800088,0.07539461,0.34960386
773133808,0.25800088,0.07248891,0.3528
773158474,0.25503096,0.07248891,0.3528
773181808,0.25503096,0.07248891,0.34960386
773205863,0.25206104,0.07539461,0.34960386
773229822,0.25206104,0.07539461,0.3528
773251468,0.25503096,0.07539461,0.34960386
773274269,0.24909113,0.07539461,0.3559962
773295507,0.25206104,0.07539461,0.3528
773316550,0.25206104,0.07248891,0.3559962
773339465,0.25206104,0.07539461,0.35919234
773360475,0.24909113,0.07539461,0.35919234
773382661,0.24909113,0.07248891,0.35919234
773403465,0.24612118,0.07248891,0.3528
773424465,0.24909113,0.07248891,0.3559962
773446615,0.24909113,0.07539461,0.3559962
773468968,0.24909113,0.07539461,0.3559962
773491180,0.24909113,0.0783003,0.35919234
773513355,0.25503096,0.07248891,0.3559962
773535460,0.24909113,0.0783003,0.3623885
773557354,0.25206104,0.07539461,0.3528
773580475,0.25206104,0.07539461,0.3528
773601472,0.24909113,0.07539461,0.35919234
773624317,0.24909113,0.07539461,0.3559962
773646580,0.24909113,0.07539461,0.35919234
773667965,0.24612118,0.07539461,0.35919234
773689480,0.24315126,0.07248891,0.36558464
773712318,0.24018133,0.07539461,0.36558464
773735473,0.2372114,0.07539461,0.3623885
773756887,0.23424147,0.07248891,0.36558464
773779966,0.23424147,0.07539461,0.36558464
773802319,0.23127154,0.07248891,0.36558464
773825476,0.22830161,0.07539461,0.36878082
773847465,0.22830161,0.07539461,0.36878082
773869480,0.22236176,0.0783003,0.3623885
773891990,0.21939182,0.0783003,0.37517312
773914466,0.21939182,0.0783003,0.37197697
773936520,0.21345197,0.07539461,0.3783693
773959473,0.21345197,0.07539461,0.37517312
773981475,0.21345197,0.0783003,0.38156545
774003958,0.20751211,0.0783003,0.36878082
774026467,0.20751211,0.0783003,0.38795778
774049497,0.20751211,0.0783003,0.3783693
774072481,0.20454217,0.0783003,0.38795778
774096467,0.20454217,0.0783003,0.38156545
774119465,0.20157225,0.0783003,0.38156545
774141581,0.20157225,0.081205994,0.3847616
774163504,0.19860232,0.0783003,0.38795778
774186466,0.19860232,0.081205994,0.3847616
774208465,0.19860232,0.081205994,0.3847616
774231467,0.19860232,0.081205994,0.3847616
774252705,0.19563238,0.0783003,0.3847616
774275466,0.19860232,0.081205994,0.38795778
774298468,0.19266246,0.081205994,0.38795778
774319466,0.18969253,0.081205994,0.39435005
774341467,0.19563238,0.081205994,0.38795778
774363481,0.18969253,0.081205994,0.38795778
774385484,0.19266246,0.081205994,0.38795778
774408477,0.18375267,0.08411168,0.40393853
774432795,0.1867226,0.08411168,0.3911539
774456473,0.18375267,0.08411168,0.3975462
774480466,0.18375267,0.08411168,0.39435005
774501568,0.18078274,0.08701738,0.40393853
774523509,0.18078274,0.08411168,0.3975462
774545495,0.17781281,0.08411168,0.40393853
774569484,0.17781281,0.081205994,0.39435005
774592467,0.17781281,0.081205994,0.39435005
774613563,0.18078274,0.081205994,0.40393853
774635467,0.17781281,0.081205994,0.40074238
774656465,0.17484288,0.0783003,0.39435005
774679504,0.17781281,0.0783003,0.3975462
774700557,0.17781281,0.07539461,0.39435005
774723466,0.18078274,0.07539461,0.40393853
774746350,0.17781281,0.07539461,0.3975462
774768466,0.18078274,0.07248891,0.3975462
774791466,0.18078274,0.07248891,0.39435005
774813799,0.18078274,0.07248891,0.39435005
774835467,0.18375267,0.07248891,0.3911539
774856466,0.18375267,0.07248891,0.3911539
774879466,0.1867226,0.07539461,0.39435005
774901806,0.18375267,0.07248891,0.3975462
774926467,0.18375267,0.07248891,0.3911539
774950641,0.1867226,0.07248891,0.3975462
774974643,0.1867226,0.07539461,0.3975462
774997510,0.18969253,0.07539461,0.38795778
775020466,0.18969253,0.07539461,0.38795778
775043084,0.19266246,0.07539461,0.38156545
775064467,0.19266246,0.07539461,0.3975462
775086588,0.19266246,0.07248891,0.39435005
775110582,0.18969253,0.07248891,0.38795778
775133474,0.19563238,0.07248891,0.3847616
775156563,0.19563238,0.07248891,0.3847616
775179473,0.19563238,0.07539461,0.3911539
775201474,0.19860232,0.07539461,0.39435005
775224479,0.19860232,0.07248891,0.38795778
775247466,0.19860232,0.07248891,0.38795778
775269466,0.20157225,0.07539461,0.3847616
775291466,0.19860232,0.07539461,0.39435005
775312473,0.20157225,0.07539461,0.38156545
775333468,0.19860232,0.0783003,0.38156545
775354474,0.19860232,0.07539461,0.38156545
775377482,0.20157225,0.07539461,0.37517312
775399473,0.20157225,0.07248891,0.3847616
775420713,0.20157225,0.0783003,0.38156545
775443976,0.20157225,0.0783003,0.3847616
775466322,0.20454217,0.0783003,0.3783693
775488693,0.20157225,0.0783003,0.37517312
775511483,0.20157225,0.0783003,0.38156545
775532803,0.20157225,0.07539461,0.3783693
775556380,0.20157225,0.0783003,0.38156545
775577369,0.20157225,0.0783003,0.38156545
775600316,0.19860232,0.0783003,0.3847616
775622353,0.20454217,0.0783003,0.38795778
775644816,0.20454217,0.0783003,0.38156545
775667312,0.20454217,0.07539461,0.38156545
775690473,0.20454217,0.0783003,0.3783693
775712310,0.20454217,0.0783003,0.3783693
775734326,0.20751211,0.081205994,0.3783693
775757075,0.20751211,0.0783003,0.3783693
775779465,0.20751211,0.0783003,0.38156545
775801502,0.21048203,0.0783003,0.3783693
775824319,0.20751211,0.0783003,0.3783693
775846336,0.20751211,0.081205994,0.3783693
775868710,0.20751211,0.0783003,0.38156545
775891321,0.21048203,0.0783003,0.38156545
775913494,0.21048203,0.081205994,0.3783693
775937644,0.21048203,0.081205994,0.38156545
775961638,0.20751211,0.0783003,0.3783693
775985687,0.21048203,0.0783003,0.38156545
776009685,0.21048203,0.0783003,0.38156545
776033394,0.21345197,0.081205994,0.3783693
776055320,0.21345197,0.0783003,0.38156545
776077609,0.21345197,0.0783003,0.37197697
776100325,0.21642189,0.081205994,0.3783693
776123472,0.21345197,0.081205994,0.37517312
776145482,0.21345197,0.081205994,0.38156545
776169493,0.21345197,0.0783003,0.37517312
776191326,0.21345197,0.081205994,0.38156545
776214429,0.21048203,0.081205994,0.37517312
776236325,0.21048203,0.081205994,0.37517312
776258642,0.21345197,0.081205994,0.38156545
776282631,0.21345197,0.081205994,0.36878082
776306681,0.21642189,0.0783003,0.3783693
776329798,0.21642189,0.081205994,0.3783693
776353788,0.21642189,0.081205994,0.38156545
776377849,0.21345197,0.081205994,0.3783693
776398466,0.21345197,0.0783003,0.3783693
776420472,0.21345197,0.0783003,0.3783693
776442695,0.21939182,0.081205994,0.38156545
776466722,0.21642189,0.081205994,0.37517312
776490670,0.21345197,0.0783003,0.3783693
776515337,0.21642189,0.081205994,0.37517312
776537369,0.21345197,0.0783003,0.3783693
776560474,0.21345197,0.081205994,0.38156545
776582601,0.21642189,0.0783003,0.3783693
776603942,0.21642189,0.0783003,0.3783693
776625479,0.21642189,0.081205994,0.3847616
776648310,0.21345197,0.0783003,0.37517312
776670697,0.21345197,0.081205994,0.37197697
776693472,0.21939182,0.081205994,0.3783693
776716318,0.21642189,0.0783003,0.37517312
776739105,0.21642189,0.081205994,0.38156545
776761358,0.21939182,0.081205994,0.3783693
776783512,0.21939182,0.0783003,0.37517312
776807432,0.21939182,0.0783003,0.37517312
776829367,0.21642189,0.081205994,0.37517312
776851946,0.21642189,0.081205994,0.37517312
776875155,0.21642189,0.0783003,0.37197697
776897488,0.21939182,0.0783003,0.37197697
776919516,0.21939182,0.0783003,0.3783693
776941485,0.21642189,0.081205994,0.3783693
776964207,0.21642189,0.0783003,0.37517312
776986466,0.21642189,0.0783003,0.37197697
777009485,0.21642189,0.07539461,0.37197697
777030474,0.21939182,0.0783003,0.37517312
777052467,0.21939182,0.0783003,0.36878082
777074466,0.21642189,0.07539461,0.37197697
777097480,0.21939182,0.07539461,0.37517312
777118467,0.21939182,0.07539461,0.37197697
777139902,0.21642189,0.07539461,0.3783693
777161487,0.21642189,0.07539461,0.37197697
777185518,0.21939182,0.07539461,0.37517312
777207467,0.21642189,0.07539461,0.37517312
777228808,0.21642189,0.0783003,0.37517312
777250466,0.21939182,0.07539461,0.3783693
777272554,0.21939182,0.07539461,0.38156545
777294512,0.21939182,0.0783003,0.37517312
777315510,0.21642189,0.07539461,0.37517312
777338473,0.21939182,0.07248891,0.37197697
777359480,0.21642189,0.07539461,0.37517312
777381491,0.21939182,0.07539461,0.36878082
777403476,0.21939182,0.07539461,0.37517312
777425472,0.21642189,0.07539461,0.37517312
777447472,0.21642189,0.07539461,0.36878082
777469491,0.21939182,0.07539461,0.37197697
777491472,0.21939182,0.07539461,0.36878082
777514466,0.21939182,0.07539461,0.3783693
777536483,0.21939182,0.07539461,0.3783693
777560796,0.21939182,0.07539461,0.36878082
777584466,0.21939182,0.069583215,0.36878082
777606467,0.21939182,0.07248891,0.3783693
777628467,0.21642189,0.07248891,0.3783693
777651466,0.21939182,0.07248891,0.37197697
777673494,0.21642189,0.069583215,0.38156545
777696799,0.21939182,0.07248891,0.37517312
777720797,0.21939182,0.07248891,0.3783693
777742467,0.22236176,0.07248891,0.37517312
777763507,0.21939182,0.069583215,0.37517312
777785473,0.21939182,0.07248891,0.37517312
777807512,0.22236176,0.07248891,0.37517312
777828512,0.21642189,0.069583215,0.37517312
777851476,0.21939182,0.07248891,0.38156545
777873797,0.21939182,0.07248891,0.37517312
777897825,0.21939182,0.069583215,0.37517312
777921845,0.21939182,0.069583215,0.37197697
777944473,0.21939182,0.069583215,0.3783693
777967466,0.21939182,0.07248891,0.3783693
777990322,0.21939182,0.069583215,0.3783693
778012467,0.21642189,0.069583215,0.38156545
778035466,0.21939182,0.069583215,0.37517312
778057817,0.21642189,0.069583215,0.37197697
778081788,0.21642189,0.069583215,0.37197697
778105848,0.21939182,0.069583215,0.3783693
778128465,0.21939182,0.069583215,0.38156545
778151139,0.21939182,0.069583215,0.37517312
778172465,0.21642189,0.06667752,0.37517312
778194655,0.21642189,0.069583215,0.37517312
778218585,0.21642189,0.06667752,0.38156545
778240476,0.21642189,0.069583215,0.38156545
778263076,0.21939182,0.06667752,0.37197697
778284562,0.21642189,0.069583215,0.3783693
778307466,0.21642189,0.069583215,0.37197697
778330579,0.21642189,0.069583215,0.3783693
778352467,0.21642189,0.069583215,0.37197697
778375080,0.21345197,0.069583215,0.37517312
778397467,0.21642189,0.06667752,0.37517312
778420466,0.21642189,0.069583215,0.3783693
778442586,0.21939182,0.06667752,0.37197697
778464465,0.21939182,0.06667752,0.3783693
778485484,0.21642189,0.06667752,0.3783693
778506466,0.21939182,0.06667752,0.3783693
778528474,0.21642189,0.06667752,0.38156545
778550504,0.21642189,0.06667752,0.3847616
778573476,0.21642189,0.06667752,0.37517312
778595468,0.21642189,0.06377182,0.37517312
778617474,0.21642189,0.06667752,0.38156545
778639969,0.21642189,0.06667752,0.37517312
778662466,0.21345197,0.06667752,0.38156545
778685476,0.21642189,0.06667752,0.38156545
778706508,0.21345197,0.06377182,0.3783693
778727887,0.21642189,0.06667752,0.3847616
778749489,0.21642189,0.06667752,0.3783693
778771466,0.21642189,0.06667752,0.3783693
778793474,0.21642189,0.06667752,0.38156545
778815481,0.21642189,0.06377182,0.38156545
778837485,0.21642189,0.06667752,0.37197697
778859466,0.21345197,0.06667752,0.3783693
778881513,0.21345197,0.069583215,0.3783693
778903465,0.21345197,0.06377182,0.3783693
778925482,0.21642189,0.06377182,0.3847616
778947465,0.21345197,0.06667752,0.37517312
778969490,0.21345197,0.06377182,0.38156545
778991465,0.21642189,0.06377182,0.3847616
779013477,0.21345197,0.06377182,0.38156545
779035466,0.21345197,0.06667752,0.3783693
779057482,0.21642189,0.060866132,0.38156545
779079505,0.21642189,0.06377182,0.3783693
779101480,0.21345197,0.06377182,0.38156545
779124468,0.21345197,0.060866132,0.38156545
779146485,0.21345197,0.06377182,0.3847616
779168787,0.21345197,0.06377182,0.38156545
779191466,0.21048203,0.06377182,0.38795778
779213483,0.21345197,0.06377182,0.38156545
779236475,0.21345197,0.06377182,0.38156545
779258490,0.21345197,0.06377182,0.38156545
779279465,0.21345197,0.06667752,0.38156545
779301484,0.21048203,0.060866132,0.38156545
779324467,0.21345197,0.060866132,0.3847616
779345494,0.21048203,0.06377182,0.3847616
779366467,0.21048203,0.06377182,0.38795778
779388465,0.21345197,0.06377182,0.38156545
779410473,0.21345197,0.060866132,0.38156545
779432466,0.21048203,0.06377182,0.3783693
779454466,0.21345197,0.06377182,0.3847616
779477839,0.21345197,0.060866132,0.38156545
779501840,0.21642189,0.06377182,0.38156545
779525907,0.21048203,0.06377182,0.38156545
779549857,0.21345197,0.060866132,0.38156545
779573792,0.21345197,0.06377182,0.38156545
779597768,0.21345197,0.06377182,0.38156545
779621823,0.21345197,0.06667752,0.3783693
779645837,0.21345197,0.06377182,0.3783693
779669797,0.21642189,0.060866132,0.38156545
779693787,0.21345197,0.060866132,0.38156545
779716478,0.21345197,0.06377182,0.38156545
779737473,0.21345197,0.06377182,0.3783693
779760474,0.21345197,0.06377182,0.37517312
779783466,0.21048203,0.060866132,0.3847616
779806585,0.21345197,0.060866132,0.38156545
779829512,0.21345197,0.060866132,0.3847616
779852472,0.21345197,0.060866132,0.38156545
779875076,0.21642189,0.06377182,0.3847616
779897468,0.21345197,0.060866132,0.38156545
779920465,0.21345197,0.060866132,0.38156545
779942619,0.21642189,0.06377182,0.37517312
779964465,0.21345197,0.06377182,0.3783693
779985468,0.21642189,0.060866132,0.38156545
780008465,0.21642189,0.060866132,0.38156545
780030666,0.21939182,0.055054743,0.37517312
780054598,0.21939182,0.055054743,0.38156545
780076466,0.22236176,0.052149046,0.38156545
780098504,0.22236176,0.04924335,0.38156545
780121481,0.22533168,0.046337657,0.3783693
780143465,0.22830161,0.04343196,0.38156545
780164467,0.22830161,0.040526267,0.3783693
780184466,0.22830161,0.040526267,0.38156545
780206467,0.23127154,0.040526267,0.3847616
780227948,0.23127154,0.040526267,0.37517312
780250328,0.23424147,0.037620574,0.3783693
780273475,0.2372114,0.037620574,0.37517312
780295473,0.23424147,0.037620574,0.3783693
780316864,0.24018133,0.037620574,0.37197697
780339313,0.24315126,0.037620574,0.37517312
780362474,0.24612118,0.037620574,0.37517312
780384466,0.24315126,0.037620574,0.37197697
780407466,0.24612118,0.034714878,0.37197697
780429520,0.25206104,0.034714878,0.37197697
780450503,0.24909113,0.037620574,0.3623885
780472585,0.25206104,0.037620574,0.36558464
780497489,0.25503096,0.034714878,0.36878082
780520313,0.25800088,0.037620574,0.37197697
780541534,0.25800088,0.034714878,0.36558464
780564706,0.25800088,0.034714878,0.36558464
780587322,0.26097083,0.034714878,0.3623885
780610465,0.26097083,0.031809185,0.35919234
780632473,0.26394075,0.034714878,0.3559962
780654467,0.26394075,0.031809185,0.35919234
780676740,0.26394075,0.031809185,0.3559962
780699510,0.26691067,0.02890349,0.3623885
780720796,0.26988062,0.02890349,0.3559962
780743465,0.26988062,0.02890349,0.3559962
780765492,0.27285054,0.025997793,0.3528
780785479,0.27285054,0.025997793,0.3559962
780808466,0.27285054,0.025997793,0.35919234
780830466,0.27582046,0.0230921,0.35919234
780852476,0.27879038,0.0230921,0.3623885
780874466,0.27879038,0.020186406,0.3528
780897489,0.27879038,0.01728071,0.3528
780919465,0.28473026,0.014375016,0.34960386
780941587,0.28770018,0.014375016,0.3528
780963515,0.28473026,0.011469321,0.34960386
780986474,0.28770018,0.011469321,0.34321153
781008385,0.29067013,0.0085636275,0.34960386
781030748,0.29364008,0.0027522377,0.34321153
781054633,0.29364008,-0.00015345702,0.3464077
781078630,0.29661,-0.0030591516,0.3464077
781102638,0.29661,-0.0059648464,0.34001538
781126692,0.29661,-0.008870541,0.3464077
781150629,0.29957995,-0.017587624,0.33681923
781173799,0.29957995,-0.02049332,0.34001538
781196466,0.29957995,-0.023399014,0.33681923
781219464,0.29957995,-0.029210404,0.33362308
781242353,0.29957995,-0.032116096,0.33362308
781264465,0.30254987,-0.037927486,0.33681923
781288465,0.30254987,-0.043738876,0.34321153
781310602,0.30254987,-0.04955027,0.3464077
781331093,0.30254987,-0.05245596,0.3464077
781352467,0.29957995,-0.05826735,0.34960386
781373473,0.29957995,-0.06407874,0.34960386
781395129,0.30254987,-0.06698443,0.34960386
781417466,0.29957995,-0.07279582,0.3528
781440474,0.29957995,-0.07860721,0.34960386
781462597,0.29661,-0.081512906,0.34960386
781484109,0.29661,-0.0873243,0.3528
781507177,0.29661,-0.093135685,0.3528
781528404,0.29364008,-0.096041374,0.34960386
781551422,0.29364008,-0.104758464,0.3464077
781573356,0.28770018,-0.10766416,0.34960386
781595973,0.28770018,-0.113475546,0.34960386
781619122,0.28176033,-0.11638124,0.3528
781641355,0.28176033,-0.122192636,0.3464077
781664492,0.28176033,-0.13090971,0.3528
781687505,0.27285054,-0.13381541,0.3528
781709482,0.26988062,-0.1396268,0.35919234
781731881,0.26988062,-0.14543818,0.3623885
781754503,0.26691067,-0.15124957,0.36558464
781775549,0.26394075,-0.15415527,0.3623885
781799502,0.26097083,-0.15996666,0.36558464
781820465,0.25800088,-0.16287236,0.36558464
781842473,0.25503096,-0.16577804,0.35919234
781865478,0.24909113,-0.17449513,0.36558464
781886466,0.24909113,-0.17740083,0.36878082
781908465,0.24612118,-0.18321222,0.36558464
781930473,0.2372114,-0.1890236,0.37517312
781953467,0.23424147,-0.19192931,0.37197697
781974466,0.22533168,-0.19774069,0.37197697
781996823,0.22533168,-0.2006464,0.3783693
782019466,0.21939182,-0.20645778,0.3783693
782042520,0.21642189,-0.20936346,0.3783693
782063514,0.21048203,-0.21517485,0.36878082
782088567,0.20454217,-0.22098625,0.3783693
