timestamp,states[0],states[1],states[2],states[3],states[4],states[5],states[6],states[7],states[8],states[9],states[10],states[11],states[12],states[13],states[14],states[15],states[16],states[17],states[18],states[19],states[20],states[21],states[22],states[23],vibe[0],vibe[1],vibe[2],covariances[0],covariances[1],covariances[2],covariances[3],covariances[4],covariances[5],covariances[6],covariances[7],covariances[8],covariances[9],covariances[10],covariances[11],covariances[12],covariances[13],covariances[14],covariances[15],covariances[16],covariances[17],covariances[18],covariances[19],covariances[20],covariances[21],covariances[22],covariances[23],control_mode_flags,pos_horiz_accuracy,pos_vert_accuracy,mag_test_ratio,vel_test_ratio,pos_test_ratio,hgt_test_ratio,tas_test_ratio,hagl_test_ratio,beta_test_ratio,time_slip,gps_check_fail_flags,filter_fault_flags,innovation_check_flags,solution_status_flags,n_states,pre_flt_fail,health_flags,timeout_flags
253793177,-0.9036169,0.0017123359,-0.020307593,0.4278566,-0.10275515,-0.15873334,0.113936074,0.23726211,-1.2344428,-7.0420456,-1.5790336e-05,-4.49417e-06,6.155896e-05,0.00024356435,-0.0014078254,-0.0009147862,0.24368802,0.036445696,0.43770203,0.12374665,0.004288167,0.002636981,0.0,0.0,1.9388453e-10,1.092843e-05,0.0007799095,3.400742e-06,6.2973977e-06,6.2487197e-06,2.9408666e-05,0.012366435,0.012376767,0.011255756,0.051537763,0.05154527,0.059882455,1.1535079e-11,1.1533177e-11,1.74031e-11,5e-08,5e-08,5e-08,0.0,0.0,0.0,0.0,0.0,0.0,0.0,0.0,535,0.32106546,0.24470893,0.43725482,0.06345273,0.04043801,0.011742199,0.0,0.0,0.0,-0.001595,0,0,0,831,24,0,0,0
253993971,-0.9024238,0.0016842464,-0.020271711,0.4303691,-0.10067603,-0.15630831,0.124447435,0.2348769,-1.2431434,-7.021664,-1.5918866e-05,-4.514015e-06,6.247262e-05,0.00025044548,-0.001408001,-0.0009289965,0.24368802,0.036445696,0.43770203,0.12374665,0.004288167,0.002636981,0.0,0.0,2.6024471e-10,1.2540003e-05,0.00077950524,3.4445707e-06,6.2964637e-06,6.248123e-06,2.9394309e-05,0.012359154,0.01236937,0.011240413,0.051515996,0.051523957,0.059836455,1.1509013e-11,1.15071164e-11,1.7409947e-11,5.0000036e-08,5.0000036e-08,5.0000036e-08,0.0,0.0,0.0,0.0,0.0,0.0,0.0,0.0,535,0.32099837,0.24461491,0.46714753,0.07598057,0.036832485,0.0025360037,0.0,0.0,0.0,-0.001592,0,0,0,831,24,0,0,0
254203593,-0.90118647,0.0015620934,-0.020241588,0.43295598,-0.09920575,-0.15755287,0.14340705,0.23498315,-1.2570257,-6.974882,-1.6044312e-05,-4.499782e-06,6.338203e-05,0.0002578982,-0.0014082695,-0.0009512721,0.24368802,0.036445696,0.43770203,0.12374665,0.004288167,0.002636981,0.0,0.0,1.8569358e-09,4.52731e-05,0.0019661419,3.4941343e-06,6.307123e-06,6.2591816e-06,2.93921e-05,0.0124575,0.012467637,0.011181955,0.052042212,0.052050836,0.059431013,1.14948355e-11,1.1492935e-11,1.7427448e-11,5e-08,5e-08,5e-08,0.0,0.0,0.0,0.0,0.0,0.0,0.0,0.0,535,0.32263455,0.24378477,0.33997694,0.074560866,0.03727778,0.025927499,0.0,0.0,0.0,-0.001584,0,0,0,831,24,0,0,0
254404388,-0.9002169,0.0017660887,-0.019702584,0.4349922,-0.09038633,-0.159786,0.15398858,0.24423113,-1.2749474,-6.959903,-1.6178734e-05,-4.4312774e-06,6.400578e-05,0.0002642125,-0.0014087572,-0.00095757697,0.24368802,0.036445696,0.43770203,0.12374665,0.004288167,0.002636981,0.0,0.0,1.1822935e-08,0.0001225148,0.0035523078,3.5413605e-06,6.3060565e-06,6.2581853e-06,2.937764e-05,0.012481144,0.012491169,0.011185117,0.05224338,0.052252416,0.059599847,1.1473316e-11,1.1471406e-11,1.743962e-11,5.0000036e-08,5.0000036e-08,5.0000036e-08,0.0,0.0,0.0,0.0,0.0,0.0,0.0,0.0,535,0.3232581,0.2441308,0.28656873,0.0672689,0.040069215,0.028587881,0.0,0.0,0.0,-0.001576,0,0,0,831,24,0,0,0
254610030,-0.8991407,0.002037728,-0.019374575,0.4372259,-0.07695009,-0.16310973,0.17162003,0.25423005,-1.2894232,-6.907413,-1.6338548e-05,-4.3979667e-06,6.472258e-05,0.00027107977,-0.0014081566,-0.0009770759,0.24368802,0.036445696,0.43770203,0.12374665,0.004288167,0.002636981,0.0,0.0,1.6774338e-08,0.00018022308,0.0070493133,3.587595e-06,6.3115444e-06,6.263644e-06,2.9331746e-05,0.01256303,0.012573166,0.01112681,0.052735005,0.052744538,0.059207447,1.1457255e-11,1.145532e-11,1.744662e-11,5e-08,5e-08,5e-08,0.0,0.0,0.0,0.0,0.0,0.0,0.0,0.0,535,0.32477614,0.2433258,0.29446942,0.059184812,0.043452412,0.05666514,0.0,0.0,0.0,-0.001533,0,0,0,831,24,0,0,0
254810801,-0.8982345,0.0021585883,-0.019113122,0.4390954,-0.086722195,-0.15219507,0.18507905,0.25622892,-1.307079,-6.8700247,-1.6430266e-05,-4.3898863e-06,6.536857e-05,0.0002761835,-0.0014082532,-0.000989855,0.24368802,0.036445696,0.43770203,0.12374665,0.004288167,0.002636981,0.0,0.0,2.5736183e-08,0.00026603424,0.011745443,3.631225e-06,6.3056145e-06,6.2578633e-06,2.9323086e-05,0.01255098,0.012560438,0.011214956,0.052751806,0.05276149,0.060082454,1.1430772e-11,1.1428809e-11,1.745394e-11,5.0000036e-08,5.0000036e-08,5.0000036e-08,0.0,0.0,0.0,0.0,0.0,0.0,0.0,0.0,535,0.32482812,0.24511723,0.30246106,0.04862362,0.040030852,0.036092,0.0,0.0,0.0,-0.001563,0,0,0,831,24,0,0,0
255012388,-0.8970983,0.0021364088,-0.018664902,0.44143152,-0.0782862,-0.16085514,0.21513636,0.25952372,-1.3217334,-6.817684,-1.6554044e-05,-4.391241e-06,6.609209e-05,0.0002820839,-0.0014077339,-0.0010087693,0.24368802,0.036445696,0.43770203,0.12374665,0.004288167,0.002636981,0.0,0.0,3.5415503e-08,0.00032936138,0.015548499,3.6771835e-06,6.301742e-06,6.2542154e-06,2.925889e-05,0.012566051,0.0125752995,0.011108926,0.052957553,0.05296742,0.05934033,1.1411133e-11,1.1409125e-11,1.7456843e-11,5.0000036e-08,5.0000036e-08,5.0000036e-08,0.0,0.0,0.0,0.0,0.0,0.0,0.0,0.0,535,0.32546118,0.24359871,0.32424074,0.05754303,0.03640559,0.010771685,0.0,0.0,0.0,-0.001574,0,0,0,831,24,0,0,0
255217971,-0.89606875,0.0022425018,-0.019038487,0.44350135,-0.07726581,-0.15365359,0.21993601,0.25288853,-1.3435383,-6.776742,-1.6608301e-05,-4.4096882e-06,6.6806955e-05,0.00028669965,-0.0014081644,-0.0010218881,0.24368802,0.036445696,0.43770203,0.12374665,0.004288167,0.002636981,0.0,0.0,4.2580222e-08,0.0003581523,0.017305737,3.7215175e-06,6.3043863e-06,6.256999e-06,2.9220484e-05,0.012649543,0.012658856,0.011142646,0.053484708,0.053494815,0.05978144,1.1394137e-11,1.139207e-11,1.746264e-11,5e-08,5e-08,5e-08,0.0,0.0,0.0,0.0,0.0,0.0,0.0,0.0,535,0.32707724,0.24450244,0.27483916,0.03983563,0.032049283,0.01495336,0.0,0.0,0.0,-0.001593,0,0,0,831,24,0,0,0
255418776,-0.89509946,0.0027010366,-0.018278724,0.44548362,-0.07699513,-0.17486621,0.24181159,0.25726077,-1.3547782,-6.7351766,-1.6749813e-05,-4.4213366e-06,6.7418434e-05,0.00029192396,-0.0014071132,-0.0010310303,0.24368802,0.036445696,0.43770203,0.12374665,0.004288167,0.002636981,0.0,0.0,4.430986e-08,0.0003762067,0.018433752,3.7698283e-06,6.2959616e-06,6.248345e-06,2.9199631e-05,0.012631225,0.012639554,0.011030615,0.053559184,0.05356931,0.05889813,1.1369448e-11,1.1367316e-11,1.747071e-11,5.0000093e-08,5e-08,5e-08,0.0,0.0,0.0,0.0,0.0,0.0,0.0,0.0,535,0.3273049,0.24268937,0.2584218,0.07921635,0.033738878,0.0149930585,0.0,0.0,0.0,-0.001587,0,0,0,831,24,0,0,0
255620398,-0.89403653,0.002299253,-0.018284138,0.44761485,-0.07270334,-0.14138763,0.24113333,0.26154757,-1.3639019,-6.6979165,-1.6895881e-05,-4.440012e-06,6.8083384e-05,0.00029738154,-0.0014060476,-0.0010402807,0.24368802,0.036445696,0.43770203,0.12374665,0.004288167,0.002636981,0.0,0.0,4.308032e-08,0.00038303682,0.019215412,3.814792e-06,6.289292e-06,6.24209e-06,2.913934e-05,0.012652579,0.012660993,0.010947184,0.053743105,0.053753167,0.05825959,1.1348864e-11,1.1346646e-11,1.7472147e-11,5.0000025e-08,5e-08,5e-08,0.0,0.0,0.0,0.0,0.0,0.0,0.0,0.0,535,0.32786626,0.24137023,0.26603168,0.07145167,0.032450996,0.005969535,0.0,0.0,0.0,-0.001566,0,0,0,831,24,0,0,0
255821186,-0.8930593,0.0024325731,-0.018345082,0.44955838,-0.06769659,-0.1635122,0.25923714,0.26678333,-1.3767822,-6.6534967,-1.7027563e-05,-4.440756e-06,6.868176e-05,0.00030254986,-0.0014052371,-0.0010476923,0.24368802,0.036445696,0.43770203,0.12374665,0.004288167,0.002636981,0.0,0.0,4.699052e-08,0.00038796198,0.01971333,3.8650765e-06,6.282371e-06,6.2351933e-06,2.9127901e-05,0.012663104,0.012670876,0.01096272,0.053914454,0.05392447,0.058537163,1.133025e-11,1.1327956e-11,1.7486727e-11,5.0000093e-08,5.0000036e-08,5.0000036e-08,0.0,0.0,0.0,0.0,0.0,0.0,0.0,0.0,535,0.3283884,0.24194455,0.26805577,0.09329777,0.03120008,0.014255903,0.0,0.0,0.0,-0.001587,0,0,0,831,24,0,0,0
256018802,-0.8918982,0.0023886713,-0.017894482,0.45187572,-0.0634612,-0.15347075,0.2742293,0.27291745,-1.3863758,-6.62873,-1.7166287e-05,-4.4536446e-06,6.938087e-05,0.00030815785,-0.0014044842,-0.0010493993,0.24368802,0.036445696,0.43770203,0.12374665,0.004288167,0.002636981,0.0,0.0,4.6933792e-08,0.0003823576,0.019894077,3.9141146e-06,6.273832e-06,6.2267854e-06,2.9069237e-05,0.012656467,0.012663923,0.010970048,0.054012228,0.054022122,0.058759164,1.1309822e-11,1.1307441e-11,1.748887e-11,5e-08,5e-08,5e-08,0.0,0.0,0.0,0.0,0.0,0.0,0.0,0.0,535,0.3286858,0.2424029,0.25940025,0.113495186,0.032742187,0.010299889,0.0,0.0,0.0,-0.001561,0,0,0,831,24,0,0,0
256227580,-0.89078313,0.002470316,-0.018448947,0.45404744,-0.062644936,-0.14779942,0.2792793,0.2720593,-1.398837,-6.6017637,-1.7264718e-05,-4.482613e-06,7.005197e-05,0.00031283248,-0.0014040524,-0.001049867,0.24368802,0.036445696,0.43770203,0.12374665,0.004288167,0.002636981,0.0,0.0,4.897158e-08,0.00039003877,0.020263515,3.964611e-06,6.271599e-06,6.224512e-06,2.902736e-05,0.012696559,0.012703676,0.011009361,0.054333244,0.054343063,0.059168275,1.1291081e-11,1.12886055e-11,1.7491605e-11,5e-08,5.0000068e-08,5e-08,0.0,0.0,0.0,0.0,0.0,0.0,0.0,0.0,535,0.3296609,0.2432453,0.26707482,0.12543733,0.027668774,0.007075307,0.0,0.0,0.0,-0.001585,0,0,0,831,24,0,0,0
256425173,-0.88990575,0.002154353,-0.017886704,0.45578867,-0.06456798,-0.14512716,0.27635407,0.27947903,-1.4089274,-6.571269,-1.7404258e-05,-4.483442e-06,7.057521e-05,0.00031760277,-0.0014030526,-0.0010490795,0.24368802,0.036445696,0.43770203,0.12374665,0.004288167,0.002636981,0.0,0.0,4.758398e-08,0.00038208204,0.020222867,4.0197688e-06,6.263791e-06,6.216982e-06,2.9057534e-05,0.01271243,0.012718949,0.011009258,0.054475743,0.054485403,0.05935312,1.1272241e-11,1.1269664e-11,1.7514495e-11,5.0000036e-08,5.000005e-08,5.0000036e-08,0.0,0.0,0.0,0.0,0.0,0.0,0.0,0.0,535,0.33009264,0.24362496,0.28846592,0.1064557,0.027797742,0.010179869,0.0,0.0,0.0,-0.001601,0,0,0,831,24,0,0,0
256625967,-0.88885903,0.0023060949,-0.017924277,0.45782447,-0.056216888,-0.14602673,0.30030203,0.28493255,-1.4142072,-6.527103,-1.7543567e-05,-4.510186e-06,7.111865e-05,0.00032209972,-0.0014016612,-0.001052973,0.24368802,0.036445696,0.43770203,0.12374665,0.004288167,0.002636981,0.0,0.0,4.584239e-08,0.0003919444,0.020548733,4.0760647e-06,6.252428e-06,6.2054833e-06,2.9038274e-05,0.0126797175,0.012685874,0.010994566,0.054467347,0.05447672,0.05938615,1.1249712e-11,1.1247016e-11,1.7523434e-11,5.0000082e-08,5.0000093e-08,5.000007e-08,0.0,0.0,0.0,0.0,0.0,0.0,0.0,0.0,535,0.33006677,0.24369274,0.24275449,0.11345419,0.025668213,0.02680365,0.0,0.0,0.0,-0.001596,0,0,0,831,24,0,0,0
256835565,-0.8878469,0.0019711107,-0.018020015,0.45978194,-0.058108866,-0.14962623,0.30324093,0.28403232,-1.4215664,-6.492172,-1.764719e-05,-4.554654e-06,7.167772e-05,0.00032591663,-0.0014006612,-0.0010528106,0.24368802,0.036445696,0.43770203,0.12374665,0.004288167,0.002636981,0.0,0.0,4.207781e-08,0.00038391323,0.020389872,4.1277412e-06,6.254504e-06,6.2076883e-06,2.8993656e-05,0.012764865,0.012770575,0.010939522,0.05497388,0.054983158,0.059025563,1.1237402e-11,1.1234582e-11,1.7528848e-11,5.0000043e-08,5.0000075e-08,5.0000036e-08,0.0,0.0,0.0,0.0,0.0,0.0,0.0,0.0,535,0.33159772,0.24295177,0.22458573,0.106602624,0.025387872,0.0019667584,0.0,0.0,0.0,-0.0016,0,0,0,831,24,0,0,0
257036379,-0.887129,0.0022248155,-0.017285291,0.46119252,-0.05931074,-0.12851885,0.29610837,0.28722203,-1.4285717,-6.4459567,-1.7760736e-05,-4.5781744e-06,7.19664e-05,0.000328666,-0.0013992663,-0.0010506032,0.24368802,0.036445696,0.43770203,0.12374665,0.004288167,0.002636981,0.0,0.0,6.5069463e-07,0.00054438127,0.02117033,4.176377e-06,6.246838e-06,6.199873e-06,2.893907e-05,0.012791888,0.012797369,0.01094166,0.055127557,0.05513653,0.059247922,1.1221735e-11,1.1218794e-11,1.7532765e-11,5e-08,5.000012e-08,5e-08,0.0,0.0,0.0,0.0,0.0,0.0,0.0,0.0,663,0.33206037,0.24340896,0.71731156,0.090831384,0.027391773,0.013067178,0.0,0.0,0.0,-0.001585,0,0,0,831,24,0,0,0
257241979,-0.8799408,0.04438182,0.007729259,0.4729425,-0.012124143,-0.17813149,-0.11076859,0.2964721,-1.4475303,-6.3177714,-1.7841821e-05,-4.576139e-06,7.106949e-05,0.0003252238,-0.0013962787,-0.0010577108,0.24368802,0.036445696,0.43770203,0.12374665,0.004288167,0.002636981,0.0,0.0,5.838101e-07,0.00046464754,0.019169832,4.6046466e-06,6.2641457e-06,6.214734e-06,2.8729277e-05,0.013179848,0.013187087,0.010995204,0.055568587,0.0555776,0.0597311,1.1208922e-11,1.1205864e-11,1.759313e-11,5.0000263e-08,5.0000324e-08,5.000009e-08,0.0,0.0,0.0,0.0,0.0,0.0,0.0,0.0,663,0.33338594,0.24439947,1.0544163,0.070150405,0.02310143,0.024791999,0.0,0.0,0.0,-0.001585,0,0,64,831,24,0,0,0
257442812,-0.86464757,0.033205323,0.014508608,0.5010704,-0.024677986,-0.2917479,-0.9436064,0.2988305,-1.4841557,-6.5341697,-1.7887509e-05,-4.570758e-06,7.119628e-05,0.00032696815,-0.0013965162,-0.0010101006,0.24368802,0.036445696,0.43770203,0.12374665,0.004288167,0.002636981,0.0,0.0,4.2958783e-07,0.00039353507,0.017086303,5.4275843e-06,6.2496197e-06,6.1750065e-06,2.832461e-05,0.013698583,0.013704001,0.010923361,0.055415217,0.05542396,0.058838937,1.11794254e-11,1.1176219e-11,1.7683117e-11,5.0000292e-08,5.0000278e-08,5e-08,0.0,0.0,0.0,0.0,0.0,0.0,0.0,0.0,663,0.33292517,0.24256739,1.2956603,0.18354183,0.017343175,0.08102886,0.0,0.0,0.0,-0.001552,0,0,64,831,24,0,0,0
257644352,-0.8686018,0.022637911,0.004209205,0.49497545,-0.05582558,-0.24193871,-1.9038532,0.30245352,-1.5320793,-6.943659,-1.7937777e-05,-4.5550537e-06,7.1316266e-05,0.00032902087,-0.0013966516,-0.000966232,0.24368802,0.036445696,0.43770203,0.12374665,0.004288167,0.002636981,0.0,0.0,3.6243068e-07,0.00036049585,0.017161483,5.3340545e-06,6.192941e-06,6.1320366e-06,2.8865525e-05,0.014331405,0.014340625,0.010972736,0.055500675,0.05550933,0.05904115,1.1149758e-11,1.11463686e-11,1.7780482e-11,5.0000295e-08,5.000035e-08,5.0000054e-08,0.0,0.0,0.0,0.0,0.0,0.0,0.0,0.0,663,0.33318162,0.24298385,1.1647482,0.14855635,0.01653381,0.0664746,0.0,0.0,0.0,-0.001612,0,0,64,831,24,0,0,0
257845176,-0.86818445,0.006987251,-0.00440722,0.4961729,0.083690554,-0.027109887,-2.334352,0.32905093,-1.5322899,-7.5212064,-1.8140741e-05,-4.5617326e-06,7.036726e-05,0.00032768186,-0.0013915544,-0.0008858023,0.24368802,0.036445696,0.43770203,0.12374665,0.004288167,0.002636981,0.0,0.0,4.1504717e-07,0.00039031648,0.017330628,5.4677726e-06,6.129241e-06,6.080559e-06,2.8962624e-05,0.014490638,0.014505192,0.010985945,0.055486567,0.055495895,0.05921869,1.1112246e-11,1.1108655e-11,1.7830437e-11,5.000007e-08,5.0000295e-08,5.000007e-08,0.0,0.0,0.0,0.0,0.0,0.0,0.0,0.0,663,0.3331403,0.24334891,0.95783126,0.14611368,0.025862407,0.08543752,0.0,0.0,0.0,-0.001598,0,0,0,831,24,0,0,0
258050822,0.98742145,-0.030086385,0.009522465,-0.15492927,0.15916319,0.18337716,-2.2478523,0.3478023,-1.4811311,-8.119615,-1.8192757e-05,-4.7220888e-06,6.875274e-05,0.0003180661,-0.0013865683,-0.0007991196,0.32020912,0.07220474,0.48008057,0.07518838,0.002535284,0.0016399405,0.0,0.0,3.9974557e-07,0.00039741202,0.017231572,6.0740757e-07,6.632492e-06,6.5901017e-06,2.4406554e-05,0.014091924,0.014099319,0.010890989,0.055739295,0.055750217,0.05886341,1.1081294e-11,1.1077476e-11,1.7851491e-11,5.0000086e-08,5.0000274e-08,5e-08,0.0014938248,0.0013609563,0.0015003794,0.0014845778,0.0014530845,0.0015002155,0.0,0.0,743,0.33390045,0.24261783,0.1816658,0.09266194,0.03456647,0.07942691,0.0,0.0,0.0,-0.001542,0,0,0,831,24,0,0,0
258251594,0.9846593,-0.037953794,0.0058792382,-0.17020898,0.07356964,0.22257014,-2.0984468,0.34786493,-1.3941504,-8.650293,-1.8257959e-05,-4.9612972e-06,6.8836125e-05,0.0003155677,-0.0013834919,-0.000761809,0.3166715,0.06978651,0.48320323,0.07391176,-0.0020710714,0.0040239673,0.0,0.0,4.1901725e-07,0.0004888338,0.018459788,7.387647e-07,6.7178808e-06,6.6816024e-06,2.4363748e-05,0.0126309395,0.012635771,0.010855379,0.055243813,0.05525515,0.059718173,1.1050448e-11,1.10464285e-11,1.794203e-11,5.0000107e-08,5.0000338e-08,5.0000107e-08,0.0012964498,0.00092989515,0.0013157736,0.0012278584,0.0010797319,0.0013146758,0.0,0.0,743,0.33241385,0.24437302,0.09463785,0.12785463,0.041138273,0.042234577,0.0,0.0,0.0,-0.00157,0,0,0,831,24,0,0,0
258453199,0.98445827,-0.031779923,0.026612103,-0.17065732,-0.13822703,0.26410025,-2.077938,0.32312977,-1.3144349,-9.152918,-1.8286131e-05,-5.10873e-06,6.891008e-05,0.00031516797,-0.0013827487,-0.00072916725,0.3161819,0.06916215,0.48408684,0.074298486,-0.0034465187,0.0046745157,0.0,0.0,5.1625295e-07,0.00054812594,0.019116368,7.4326005e-07,6.8171553e-06,6.7672163e-06,2.4453859e-05,0.011659345,0.011668287,0.010664398,0.05476183,0.05477291,0.058973256,1.1044748e-11,1.104054e-11,1.803961e-11,5e-08,5.0000317e-08,5e-08,0.0012529065,0.00071259943,0.0012810291,0.0011343253,0.0008995673,0.001279383,0.0,0.0,743,0.33096033,0.2428441,0.029864782,0.14298984,0.045540184,0.038150977,0.0,0.0,0.0,-0.001579,0,0,0,831,24,0,0,0
258654007,0.98181075,-0.04137877,0.000525259,-0.18529779,-0.2767722,0.34212574,-2.0621855,0.26298395,-1.2037995,-9.665806,-1.8379922e-05,-5.300252e-06,6.897856e-05,0.00031552813,-0.0013824672,-0.0006954413,0.315337,0.069256045,0.4836505,0.07342229,-0.003930263,0.004480873,0.0,0.0,4.975963e-07,0.00052711536,0.018503644,8.833969e-07,6.891349e-06,6.8589015e-06,2.441731e-05,0.011078845,0.011093445,0.010600502,0.05406723,0.054077677,0.059092246,1.1051104e-11,1.1046723e-11,1.8137016e-11,5.000008e-08,5.000029e-08,5.000007e-08,0.0012352809,0.0005964775,0.0012696758,0.001085797,0.0008062337,0.0012677017,0.0,0.0,743,0.32885394,0.24308896,0.053484708,0.13487516,0.05347035,0.06878255,0.0,0.0,0.0,-0.001557,0,0,0,831,24,0,0,0
258859604,0.9785786,-0.044819184,-0.020458354,-0.19989128,-0.32615545,0.26881182,-2.0372343,0.18598665,-1.0898852,-10.144863,-1.8472498e-05,-5.48041e-06,6.901059e-05,0.00031628253,-0.0013835093,-0.00067384157,0.31347996,0.06999391,0.48267546,0.072862595,-0.005087672,0.006953111,0.0,0.0,4.3000017e-07,0.0005047926,0.018222589,1.0395233e-06,6.9776047e-06,6.932285e-06,2.4359988e-05,0.0108770905,0.010901065,0.0105056,0.053576253,0.05358633,0.058548056,1.1071293e-11,1.1066742e-11,1.8235378e-11,5.000007e-08,5.00002e-08,5.000007e-08,0.0012138082,0.0005230859,0.0012545165,0.0010413252,0.00074999046,0.0012526144,0.0,0.0,743,0.32735696,0.24196705,0.08911938,0.1364263,0.05893916,0.04558297,0.0,0.0,0.0,-0.001562,0,0,0,831,24,0,0,0
259060409,0.9788526,-0.03994864,-0.04234265,-0.19610925,-0.34310216,0.19153444,-2.009531,0.11058954,-0.99466264,-10.61012,-1.8576313e-05,-5.6256977e-06,6.904354e-05,0.00031743795,-0.0013859178,-0.0006528371,0.30830628,0.07019113,0.48105145,0.075878,-0.005654801,0.011379762,0.0,0.0,3.1861816e-07,0.0004944785,0.018513825,1.0159454e-06,7.0708334e-06,6.9773555e-06,2.4473275e-05,0.010948604,0.010981314,0.0104110185,0.05292957,0.052939806,0.05786387,1.1101915e-11,1.1097184e-11,1.8334327e-11,5e-08,5.000019e-08,5e-08,0.0011739107,0.00045312155,0.0012188997,0.0009814099,0.00069440354,0.0012169518,0.0,0.0,743,0.32537574,0.2405491,0.09737989,0.12194348,0.06890544,0.031539693,0.0,0.0,0.0,-0.001555,0,0,0,831,24,0,0,0
259257972,0.9791644,-0.03778321,-0.050676525,-0.19298057,-0.34754264,0.13551769,-1.9714772,0.027513657,-0.9111403,-11.057476,-1.8649858e-05,-5.7876996e-06,6.906523e-05,0.0003204911,-0.0013893457,-0.00063403626,0.30241725,0.06960857,0.4805369,0.08064921,-0.004759847,0.014581897,0.0,0.0,2.7754342e-07,0.00048916263,0.01646237,9.947073e-07,7.1238824e-06,7.004891e-06,2.4598963e-05,0.011216118,0.011256978,0.010420128,0.05214798,0.052159037,0.057908714,1.11376845e-11,1.1132761e-11,1.8431107e-11,5.0000036e-08,5.0000093e-08,5.0000036e-08,0.0011377982,0.0004056183,0.0011818485,0.0009354484,0.0006536387,0.0011792436,0.0,0.0,743,0.32296598,0.2406423,0.07881488,0.12133738,0.077602886,0.032250416,0.0,0.0,0.0,-0.001595,0,0,0,831,24,0,0,0
259466787,0.9763355,-0.03949324,-0.06027119,-0.20390335,-0.3216998,0.12584399,-1.8680456,-0.05292903,-0.8287508,-11.519437,-1.8744548e-05,-5.9378453e-06,6.9081696e-05,0.00032334094,-0.0013953173,-0.00061535207,0.30370852,0.07142879,0.46421358,0.07352917,-0.00757905,0.030577352,0.0,0.0,6.751828e-07,0.000689618,0.018630363,1.1224216e-06,7.1659115e-06,7.017994e-06,2.4586834e-05,0.011728267,0.011777367,0.010485936,0.05183621,0.051849294,0.05836513,1.1189705e-11,1.11845845e-11,1.8536282e-11,5.000007e-08,5.0000164e-08,5.000007e-08,0.001100858,0.00036332745,0.0011441798,0.0008909711,0.00061625225,0.0011407759,0.0,0.0,743,0.32200235,0.24158876,0.69035816,0.13639407,0.08489479,0.03151736,0.0,0.0,0.0,-0.001576,0,0,0,831,24,0,0,0
259668382,0.9688224,-0.057569426,-0.08017734,-0.22724554,-0.22313657,0.10853616,-1.2887119,-0.12698717,-0.7481015,-11.880801,-1.8802613e-05,-6.0875236e-06,6.909219e-05,0.00032877224,-0.0014010891,-0.00059962174,0.3169427,0.07748112,0.43036053,0.054151498,-0.018605288,0.061854977,0.0,0.0,8.529585e-07,0.0006933966,0.017874163,1.4293029e-06,7.207949e-06,7.008822e-06,2.4372877e-05,0.011998576,0.0120545775,0.01051548,0.05144728,0.051462885,0.058482885,1.1247365e-11,1.1242038e-11,1.863994e-11,5.0000036e-08,5.0000036e-08,5.0000036e-08,0.001047329,0.0003315828,0.0010893701,0.00083311874,0.0005860853,0.0010850255,0.0,0.0,743,0.32079613,0.24183235,0.2610541,0.11945439,0.088050514,0.06836935,0.0,0.0,0.0,-0.001583,0,0,0,831,24,0,0,0
259873989,0.9649476,-0.02049202,-0.06308265,-0.25392294,-0.100057885,0.06287038,-1.0363717,-0.17409812,-0.6716531,-12.159641,-1.887306e-05,-6.2361983e-06,6.909562e-05,0.00033574563,-0.0014103529,-0.00058515475,0.31366745,0.07884956,0.42329508,0.05616177,-0.020768173,0.06958439,0.0,0.0,8.6670354e-07,0.00071206,0.018551866,1.7257546e-06,7.1571385e-06,6.9923617e-06,2.4256386e-05,0.01264331,0.012711475,0.010592252,0.05150652,0.051525813,0.058856428,1.1314422e-11,1.1308879e-11,1.874635e-11,5.000007e-08,5.000007e-08,5.000007e-08,0.0009858563,0.0003059977,0.0010552048,0.00077273115,0.00055669143,0.001050486,0.0,0.0,743,0.3209865,0.24260344,0.12735602,0.15226714,0.091106944,0.03239699,0.0,0.0,0.0,-0.001575,0,0,0,831,24,0,0,0
260074799,0.9607939,-0.029220829,-0.0967227,-0.25819737,-0.010342109,0.03656115,-0.99392927,-0.21754108,-0.6136149,-12.384072,-1.8876013e-05,-6.367533e-06,6.910048e-05,0.00034622246,-0.0014126523,-0.0005778305,0.28660896,0.07244413,0.42563865,0.080836326,-0.00772395,0.06994667,0.0,0.0,6.380898e-07,0.0005353498,0.018070675,1.842846e-06,7.2227267e-06,6.908709e-06,2.4210169e-05,0.013411037,0.0134944385,0.010558994,0.05146128,0.051484745,0.058023434,1.13802075e-11,1.1374446e-11,1.884535e-11,5.0000036e-08,5.0000036e-08,5.0000036e-08,0.0009016686,0.00027763058,0.00101357,0.00069632096,0.0005169531,0.001009518,0.0,0.0,743,0.32085204,0.24088053,0.45275363,0.112183504,0.09035149,0.0003938555,0.0,0.0,0.0,-0.001565,0,0,0,831,24,0,0,0
260276359,0.95881814,-0.03781791,-0.12721756,-0.2511042,0.12855011,-0.09400049,-1.0973172,-0.2637389,-0.58169824,-12.631392,-1.8828285e-05,-6.507128e-06,6.91062e-05,0.0003634039,-0.0014096802,-0.0005684572,0.2467129,0.06371046,0.4443507,0.11746632,0.013579778,0.054483537,0.0,0.0,5.089249e-07,0.0004437045,0.01735251,1.8171162e-06,7.293536e-06,6.7950805e-06,2.4290988e-05,0.014342144,0.014448534,0.010625361,0.051687118,0.051716365,0.05817091,1.1454534e-11,1.1448543e-11,1.8948386e-11,5.0000036e-08,5.0000036e-08,5.0000036e-08,0.00081340375,0.00025130925,0.00093256996,0.00061899377,0.00047883813,0.00092734926,0.0,0.0,743,0.3215641,0.24118647,0.34903833,0.20093845,0.08476817,0.059142366,0.0,0.0,0.0,-0.001604,0,0,0,831,24,0,0,0
260473213,0.9578423,-0.04313857,-0.15158932,-0.2402042,0.42040977,-0.2287801,-1.1643339,-0.24853149,-0.5707571,-12.909208,-1.882576e-05,-6.6119514e-06,6.9108195e-05,0.00037513912,-0.001412984,-0.0005491924,0.20420739,0.055785943,0.47497,0.1559243,0.035790782,0.026711477,0.0,0.0,3.5534936e-07,0.00038853122,0.017368712,1.7385862e-06,7.3381466e-06,6.6606503e-06,2.4428306e-05,0.015223029,0.015374427,0.010612562,0.05206339,0.052100386,0.057535212,1.1534992e-11,1.1528756e-11,1.9053412e-11,5.0000036e-08,5.0000036e-08,5.0000036e-08,0.000735636,0.00022731259,0.00083582796,0.00055198336,0.00044502536,0.00082874333,0.0,0.0,743,0.32274413,0.23986499,0.46138188,0.08348442,0.08267547,0.014438724,0.0,0.0,0.0,-0.001562,0,0,0,831,24,0,0,0
260682781,0.96130437,-0.030660784,-0.14567436,-0.23180363,0.76406723,-0.37183788,-1.2402743,-0.18296246,-0.6031317,-13.18946,-1.8792472e-05,-6.711757e-06,6.909672e-05,0.00039067346,-0.001409659,-0.0005344799,0.17961787,0.05123823,0.49004066,0.1782992,0.04802044,0.013183917,0.0,0.0,4.6623552e-07,0.0003589556,0.016882826,1.6177543e-06,7.1904815e-06,6.55594e-06,2.4730829e-05,0.016094519,0.016314754,0.010736977,0.052590743,0.052639037,0.057906985,1.1615622e-11,1.16091425e-11,1.9155198e-11,5.000007e-08,5.000007e-08,5.000007e-08,0.0006769374,0.00020300093,0.0007604139,0.00050043146,0.0004151548,0.00075141754,0.0,0.0,743,0.3243914,0.2406387,0.255247,0.14418301,0.0739913,0.01254496,0.0,0.0,0.0,-0.001583,0,0,0,831,24,0,0,0
260883599,0.97721374,-0.020419493,-0.13093865,-0.16580546,1.1641631,-0.4710066,-1.2106023,-0.019627418,-0.6910273,-13.477471,-1.8755547e-05,-6.7486567e-06,6.908115e-05,0.0003936867,-0.0014006469,-0.000512227,0.16959867,0.04969848,0.5026905,0.18869868,0.051858198,0.002073909,0.0,0.0,8.9959184e-07,0.0003625675,0.016810816,8.768131e-07,6.980155e-06,6.459397e-06,2.5682086e-05,0.016742017,0.017055256,0.0108429445,0.053138647,0.053202674,0.05817344,1.170298e-11,1.1696256e-11,1.9260064e-11,5.000007e-08,5.000013e-08,5.000007e-08,0.000634129,0.00017833675,0.000710222,0.00046413648,0.0003853395,0.0006995931,0.0,0.0,743,0.32610017,0.24119172,0.29152083,0.10979403,0.067126185,0.016510442,0.0,0.0,0.0,-0.001566,0,0,0,831,24,0,0,0
261089234,0.9916296,0.019160537,-0.12298055,-0.034344584,1.5327916,-0.28067034,-1.074171,0.2099683,-0.7667839,-13.783786,-1.871819e-05,-6.810667e-06,6.907186e-05,0.00040661145,-0.0013940372,-0.00048575003,0.18756777,0.05764728,0.5134385,0.17823778,0.035842583,-0.0066624437,0.0,0.0,1.2240719e-06,0.00038105928,0.016573513,1.3841573e-07,6.8129093e-06,6.38878e-06,2.657633e-05,0.01724474,0.01766749,0.010811068,0.054075517,0.054163903,0.057084974,1.1795511e-11,1.1788538e-11,1.9366862e-11,5e-08,5.000005e-08,5e-08,0.00052940124,0.00014926797,0.00067471055,0.00040094572,0.00031560077,0.00066111056,0.0,0.0,743,0.3289976,0.23892462,0.3641581,0.10773946,0.07637483,0.06300608,0.0,0.0,0.0,-0.001542,0,0,0,831,24,0,0,0
261290023,0.98869383,0.042906046,-0.10708326,0.095795885,1.8325619,0.1923619,-1.0098653,0.51855177,-0.78635067,-14.063742,-1.8689465e-05,-6.8317377e-06,6.905376e-05,0.00040853492,-0.0013869494,-0.00045393436,0.21554862,0.07297368,0.5237759,0.16153932,0.009830135,-0.0145643065,0.0,0.0,1.273897e-06,0.0003554714,0.017022943,3.2598012e-07,6.58123e-06,6.331211e-06,2.6557553e-05,0.017558191,0.018022222,0.010921232,0.05452251,0.05463816,0.057334803,1.18827595e-11,1.1875557e-11,1.9465615e-11,5.0000068e-08,5.00002e-08,5.000007e-08,0.00037897663,0.0001217787,0.00065384526,0.0003122008,0.0002282268,0.00063435663,0.0,0.0,743,0.33039472,0.23944686,0.5120387,0.09817667,0.06701357,0.057196498,0.0,0.0,0.0,-0.001541,0,0,0,831,24,0,0,0
261491588,0.9720019,0.044221886,-0.09067612,0.21221359,1.9862797,0.8069941,-1.0413557,0.8829094,-0.71091354,-14.325241,-1.8651774e-05,-6.8407244e-06,6.903579e-05,0.0004084105,-0.001373923,-0.00042866467,0.23196562,0.09101293,0.5334254,0.15636685,-0.013253813,-0.02364144,0.0,0.0,1.2769992e-06,0.00039847876,0.017386273,1.2775536e-06,6.3597454e-06,6.21492e-06,2.5811947e-05,0.017936878,0.018286003,0.010951982,0.05506736,0.055212557,0.056908935,1.1975505e-11,1.1968088e-11,1.9567268e-11,5.0000036e-08,5.0000214e-08,5.0000036e-08,0.00023553627,9.394043e-05,0.00064544135,0.00021986652,0.00014886631,0.00062064955,0.0,0.0,743,0.3320842,0.23855594,0.49846596,0.16026583,0.05626349,0.0675891,0.0,0.0,0.0,-0.001576,0,0,0,831,24,0,0,0
261700363,0.9559398,0.03928739,-0.080697365,0.27950597,1.927119,1.4008919,-1.0850908,1.2893617,-0.51081854,-14.612844,-1.8615689e-05,-6.8302543e-06,6.901722e-05,0.0004046694,-0.001361475,-0.0004008073,0.23217952,0.10518484,0.5373742,0.16413893,-0.026574716,-0.029641014,0.0,0.0,9.384788e-07,0.00036572988,0.017436067,2.1785042e-06,6.1689416e-06,6.0665766e-06,2.5108482e-05,0.018354123,0.018429302,0.010942845,0.055935662,0.056102566,0.056089792,1.207578e-11,1.2068178e-11,1.967394e-11,5e-08,5.0000175e-08,5e-08,0.00014967675,7.2548435e-05,0.00064360176,0.00015774326,0.00010052881,0.0006167471,0.0,0.0,743,0.33472112,0.23683284,0.3320054,0.16377641,0.051186103,0.037780844,0.0,0.0,0.0,-0.0016,0,0,0,831,24,0,0,0
261898003,0.95742387,-0.022684997,-0.08102054,0.27615345,1.8959179,1.7221302,-1.0829406,1.670833,-0.2541263,-14.859084,-1.856891e-05,-6.802116e-06,6.901967e-05,0.00039715297,-0.0013422819,-0.00038727082,0.2271959,0.11279203,0.5341537,0.17386264,-0.031805545,-0.028811477,0.0,0.0,8.775089e-07,0.00041196102,0.017744731,2.1462329e-06,6.009714e-06,5.8297674e-06,2.5368665e-05,0.018465692,0.018349271,0.011065476,0.056223318,0.056387316,0.056501817,1.2167753e-11,1.2159985e-11,1.9770146e-11,5.000004e-08,5.0000203e-08,5.000004e-08,0.00011501839,6.219408e-05,0.0006371368,0.00012697022,8.1044884e-05,0.00061297516,0.0,0.0,743,0.33557507,0.2377011,0.38035646,0.23734574,0.035046253,0.026886437,0.0,0.0,0.0,-0.001562,0,0,0,831,24,0,0,0
262106785,0.96423846,-0.065573506,-0.04953607,0.25197342,1.9553323,1.7191359,-1.055223,2.1319854,0.030375032,-15.117987,-1.8526145e-05,-6.725039e-06,6.902831e-05,0.00037861426,-0.0013189184,-0.00036707488,0.21822232,0.118168265,0.5151249,0.18857306,-0.033750698,-0.013258801,0.0,0.0,6.3222797e-07,0.00036350428,0.016660009,1.8237391e-06,5.771244e-06,5.771528e-06,2.5871817e-05,0.01854979,0.018398892,0.011195294,0.05717026,0.057321556,0.057305746,1.2268459e-11,1.2260598e-11,1.9872905e-11,5.000001e-08,5.00001e-08,5.000007e-08,9.215819e-05,5.4353623e-05,0.00060230034,0.00010008589,6.8029614e-05,0.0005855821,0.0,0.0,743,0.3383664,0.23938619,0.30132926,0.2902978,0.018233696,0.051145773,0.0,0.0,0.0,-0.001578,0,0,0,831,24,0,0,0
262308454,0.97096556,-0.0745825,-0.032428194,0.22497082,1.9353845,1.6049198,-1.0387717,2.5714042,0.29341516,-15.320077,-1.848537e-05,-6.6621024e-06,6.90469e-05,0.00036504038,-0.0012983883,-0.00036585215,0.21469808,0.121008925,0.5019261,0.1956848,-0.035209935,-0.0017821833,0.0,0.0,5.2962645e-07,0.00031009235,0.016650958,1.4817238e-06,5.6147524e-06,5.6818267e-06,2.6357735e-05,0.018475268,0.018329961,0.0112490645,0.057819,0.05794764,0.05777237,1.2367862e-11,1.2359859e-11,1.9972819e-11,5e-08,5.0000057e-08,5e-08,8.4125815e-05,5.1146115e-05,0.00057785894,8.958726e-05,6.299935e-05,0.00056490506,0.0,0.0,743,0.34024498,0.24035883,0.31383038,0.22576052,0.03972717,0.02945794,0.0,0.0,0.0,-0.001511,0,0,0,831,24,0,0,0
262513204,0.9788753,-0.07881632,0.01364125,0.18816249,1.7723427,1.3476068,-1.1784942,3.0027823,0.510875,-15.555621,-1.8424022e-05,-6.598121e-06,6.9037225e-05,0.00035779687,-0.0012731238,-0.00035794373,0.21477857,0.1275332,0.47224444,0.20465915,-0.041667625,0.02625901,0.0,0.0,4.2279302e-07,0.00029965903,0.01693319,1.0660542e-06,5.527261e-06,5.5995824e-06,2.6902379e-05,0.018541515,0.01842574,0.011312359,0.058875956,0.05897797,0.05847518,1.2469918e-11,1.2461851e-11,2.0074054e-11,5.0000036e-08,5.0000036e-08,5.000007e-08,7.64931e-05,4.7915095e-05,0.00053340895,7.908065e-05,5.781229e-05,0.00052493636,0.0,0.0,743,0.34329858,0.24181642,0.5374404,0.28379214,0.054421,0.029419014,0.0,0.0,0.0,-0.001568,0,0,0,831,24,0,0,0
262714790,0.98221606,-0.07489043,0.002618517,0.17215209,1.5236819,1.1038592,-1.261811,3.3774204,0.68690825,-15.827032,-1.83854e-05,-6.53286e-06,6.901812e-05,0.00034928866,-0.0012562829,-0.00034498156,0.21547452,0.13159898,0.4493667,0.2104397,-0.0460646,0.048127357,0.0,0.0,3.5186395e-07,0.00030714794,0.016441748,9.029595e-07,5.411111e-06,5.490665e-06,2.7262566e-05,0.018392405,0.018309306,0.011323368,0.059392802,0.059466157,0.05871367,1.2564577e-11,1.25563605e-11,2.0166868e-11,5e-08,5.000001e-08,5.000007e-08,7.173255e-05,4.5943587e-05,0.0004970123,7.28416e-05,5.4529046e-05,0.0004913345,0.0,0.0,743,0.3447593,0.24230903,0.39118588,0.16349679,0.055600584,0.03863469,0.0,0.0,0.0,-0.001587,0,0,0,831,24,0,0,0
262916411,0.9847118,-0.06675426,-0.012360454,0.16041787,1.3556585,0.95033073,-1.3417531,3.743031,0.8297967,-16.11214,-1.8357747e-05,-6.444593e-06,6.900391e-05,0.00033640367,-0.0012411483,-0.00033364046,0.21622327,0.13469566,0.43566582,0.21410051,-0.04932111,0.061166108,0.0,0.0,2.8495705e-07,0.00027529593,0.015731514,7.884442e-07,5.082079e-06,5.155985e-06,2.758816e-05,0.015996184,0.015954098,0.011120511,0.05135349,0.051396415,0.058338385,1.2657043e-11,1.264811e-11,2.0256198e-11,5e-08,5e-08,5e-08,6.77527e-05,4.417698e-05,0.00047664664,6.833282e-05,5.1763458e-05,0.00047270386,0.0,0.0,743,0.32054627,0.2415334,0.34567454,0.08739282,0.052532297,0.0006361231,0.0,0.0,0.0,-0.001555,0,0,0,831,24,0,0,0
263121192,0.9869388,-0.061923932,-0.03071681,0.1455126,1.2631052,0.8211995,-1.509239,4.0627627,0.9970056,-16.435566,-1.8348004e-05,-6.1528326e-06,6.8891226e-05,0.0003283708,-0.001228255,-0.00031782885,0.21974963,0.13946095,0.4247213,0.21628508,-0.054967515,0.07251498,0.0,0.0,2.1989334e-07,0.00025001122,0.015301318,6.6103604e-07,5.011856e-06,5.0778426e-06,2.7947743e-05,0.015966704,0.015949,0.011091115,0.052013658,0.052035037,0.05809643,1.2756671e-11,1.2744396e-11,2.034949e-11,5e-08,5e-08,5e-08,6.4923865e-05,4.277121e-05,0.00046552677,6.5245455e-05,4.9702816e-05,0.00046263382,0.0,0.0,743,0.3225658,0.24103202,0.77832556,0.116710305,0.058977857,0.019650947,0.0,0.0,0.0,-0.001583,0,0,0,831,24,0,0,0
263322802,0.988568,-0.05286989,-0.037270334,0.1361945,1.220846,0.7147762,-1.8332365,4.33917,1.131891,-16.77511,-1.8346018e-05,-5.8491387e-06,6.877812e-05,0.00032375316,-0.0012179557,-0.00031155007,0.22211623,0.1425693,0.4200604,0.21741702,-0.05849652,0.07750961,0.0,0.0,1.8229603e-07,0.00025361893,0.015707955,5.835325e-07,4.949405e-06,4.989436e-06,2.8247621e-05,0.015891427,0.015888087,0.011116298,0.052056294,0.05206035,0.058240436,1.284216e-11,1.2825119e-11,2.0427745e-11,5.0000036e-08,5.0000036e-08,5.0000036e-08,6.3191415e-05,4.1845702e-05,0.00046157846,6.356397e-05,4.8433038e-05,0.0004591046,0.0,0.0,743,0.32267112,0.24133055,0.4019486,0.03817723,0.06789156,0.03422447,0.0,0.0,0.0,-0.001562,0,0,0,831,24,0,0,0
263523560,0.9879097,-0.058104344,-0.026841696,0.14120159,1.1896544,0.67611593,-1.9727309,4.6139345,1.2777375,-17.16792,-1.8402297e-05,-5.6145486e-06,6.8736874e-05,0.00031837192,-0.0012153187,-0.00030375982,0.22319615,0.14428683,0.41626477,0.21852913,-0.060392197,0.08129958,0.0,0.0,1.543937e-07,0.00029028422,0.01667671,6.2998765e-07,4.8867287e-06,4.952379e-06,2.8402774e-05,0.015670067,0.01567446,0.0111452,0.052132607,0.05212281,0.058553226,1.293292e-11,1.2909984e-11,2.0510534e-11,5e-08,5e-08,5e-08,6.145397e-05,4.0915766e-05,0.00045724164,6.190909e-05,4.715216e-05,0.0004551709,0.0,0.0,743,0.32288608,0.24197774,0.25907347,0.056860626,0.068570144,0.021938305,0.0,0.0,0.0,-0.001603,0,0,0,831,24,0,0,0
263729177,0.9873036,-0.06316113,-0.023946332,0.14376661,1.1079049,0.61440504,-2.021773,4.884747,1.4168925,-17.584755,-1.8474238e-05,-5.363436e-06,6.872671e-05,0.0003142463,-0.001211073,-0.00030121108,0.22385997,0.14571068,0.41150567,0.21990877,-0.061893847,0.08575426,0.0,0.0,1.2706647e-07,0.00028865723,0.016740575,6.5989894e-07,4.8446586e-06,4.930764e-06,2.858358e-05,0.0154321985,0.015450657,0.0111231655,0.05237368,0.052352406,0.058332834,1.3024208e-11,1.2993929e-11,2.0592862e-11,5.0000036e-08,5.0000036e-08,5.0000036e-08,5.9628674e-05,3.9947463e-05,0.00045070576,6.0089817e-05,4.579238e-05,0.00044915522,0.0,0.0,743,0.32361412,0.24152191,0.26587752,0.032187577,0.07025685,0.0063640163,0.0,0.0,0.0,-0.001597,0,0,0,831,24,0,0,0
263930032,0.98824096,-0.060264695,-0.026191223,0.13806568,1.0700431,0.5527532,-2.038342,5.1368775,1.5326612,-18.010809,-1.8527064e-05,-5.118914e-06,6.8695175e-05,0.00031065143,-0.0012059399,-0.00029147248,0.22433044,0.14677666,0.4078259,0.2209955,-0.062998645,0.08911592,0.0,0.0,9.541064e-08,0.0002758758,0.015474111,6.1373527e-07,4.8124275e-06,4.890123e-06,2.8852635e-05,0.015063672,0.015089794,0.011058272,0.052008405,0.05198009,0.057702355,1.3106647e-11,1.306855e-11,2.06666e-11,5.0000036e-08,5.0000036e-08,5.0000036e-08,5.807319e-05,3.908086e-05,0.00044492958,5.8555455e-05,4.4608576e-05,0.0004438027,0.0,0.0,743,0.32247248,0.24021314,0.20019461,0.033080406,0.07392117,0.026164517,0.0,0.0,0.0,-0.001532,0,0,0,831,24,0,0,0
264131584,0.98821163,-0.056628775,-0.030952314,0.13882728,1.0370107,0.52838016,-2.0413916,5.378202,1.6489031,-18.418026,-1.857522e-05,-4.8994184e-06,6.867679e-05,0.00030622224,-0.0012029812,-0.00029222213,0.22505249,0.14791816,0.40466717,0.22184712,-0.06426532,0.092159905,0.0,0.0,1.3194793e-07,0.00028138017,0.015568436,6.2276064e-07,4.7978483e-06,4.8612565e-06,2.9074406e-05,0.014737868,0.01477001,0.011096161,0.05180213,0.05176929,0.05806505,1.31910064e-11,1.3144942e-11,2.0743497e-11,5.0000036e-08,5.0000036e-08,5.0000036e-08,5.670269e-05,3.8300754e-05,0.00044066386,5.7279034e-05,4.3560085e-05,0.00043982608,0.0,0.0,743,0.32182512,0.2409669,0.18392883,0.036428094,0.0694631,0.009053678,0.0,0.0,0.0,-0.001581,0,0,0,831,24,0,0,0
264340385,0.9898116,-0.06486056,-0.034867536,0.121862486,1.026352,0.48988757,-2.067729,5.6244993,1.7617369,-18.849367,-1.8604096e-05,-4.70125e-06,6.864398e-05,0.00030245254,-0.0011997715,-0.00029056103,0.22564116,0.14883366,0.402733,0.2224475,-0.065243654,0.09402336,0.0,0.0,2.9843292e-07,0.000310732,0.016402898,4.975638e-07,4.7949734e-06,4.884493e-06,2.9416351e-05,0.014505221,0.014538471,0.011168048,0.051913634,0.05187764,0.058738403,1.32782925e-11,1.3222927e-11,2.0823685e-11,5e-08,5e-08,5.000003e-08,5.545129e-05,3.751568e-05,0.0004368934,5.6114073e-05,4.2566426e-05,0.00043628764,0.0,0.0,743,0.32216653,0.24236007,0.19227095,0.017356304,0.06857644,0.061890706,0.0,0.0,0.0,-0.00158,0,0,0,831,24,0,0,0
264537989,0.99420565,-0.059696257,-0.044618513,0.07746415,1.0040637,0.43720973,-2.0164216,5.8464255,1.8647909,-19.232193,-1.8611378e-05,-4.561994e-06,6.860545e-05,0.00029922192,-0.0011999777,-0.00030188236,0.22632891,0.14953889,0.4016258,0.22281076,-0.066051275,0.09524492,0.0,0.0,4.556046e-07,0.00031831872,0.01625208,2.2323613e-07,4.812387e-06,4.8751403e-06,2.993473e-05,0.014179716,0.014214816,0.011188177,0.05166504,0.051629346,0.059021883,1.3358837e-11,1.3295494e-11,2.0898885e-11,5.000007e-08,5.000007e-08,5.000007e-08,5.4755237e-05,3.7020076e-05,0.00043422735,5.5517645e-05,4.1981926e-05,0.00043371483,0.0,0.0,743,0.32139444,0.2429442,0.21903871,0.031058583,0.06434457,0.008963995,0.0,0.0,0.0,-0.001576,0,0,0,831,24,0,0,0
264746807,0.9969498,-0.058041636,-0.050098352,0.014573655,1.0258048,0.43021747,-2.0555048,6.0820518,1.95085,-19.62933,-1.8507222e-05,-4.400832e-06,6.8444264e-05,0.00029633395,-0.0011984293,-0.00031037934,0.22700088,0.15000361,0.40157267,0.22314048,-0.066622876,0.095696375,0.0,0.0,6.7604975e-07,0.0003248056,0.017072557,3.635749e-08,4.8358347e-06,4.8901034e-06,3.0368721e-05,0.013925301,0.013960134,0.011235601,0.05151368,0.05147968,0.05945778,1.34349415e-11,1.3363644e-11,2.0969592e-11,5.000007e-08,5.000007e-08,5.000007e-08,5.4342752e-05,3.66548e-05,0.000432652,5.5254644e-05,4.1609583e-05,0.0004320924,0.0,0.0,743,0.32092577,0.24383965,0.21964052,0.05198751,0.060341857,0.028260637,0.0,0.0,0.0,-0.001555,0,0,0,831,24,0,0,0
264948387,0.9942683,-0.06297955,-0.051265262,-0.06954107,1.0424984,0.3967977,-2.0967443,6.3038464,2.0345132,-20.05014,-1.8382301e-05,-4.3195196e-06,6.8230576e-05,0.0002966275,-0.0012013543,-0.0003118259,0.22705925,0.14984688,0.40206334,0.22363327,-0.06664014,0.09537737,0.0,0.0,7.675722e-07,0.00034151407,0.01697592,1.6782451e-07,4.8458623e-06,4.9256037e-06,3.0443307e-05,0.013620065,0.013653185,0.011238686,0.05111708,0.051085368,0.05968132,1.3504249e-11,1.3424484e-11,2.1030712e-11,5e-08,5e-08,5.0000047e-08,5.3886775e-05,3.6274883e-05,0.00043113652,5.4979348e-05,4.1252442e-05,0.00043040107,0.0,0.0,743,0.31969118,0.24429761,0.11436639,0.049022604,0.05680648,0.039552514,0.0,0.0,0.0,-0.001577,0,0,0,831,24,0,0,0
265145196,0.9863912,-0.060886115,-0.0627606,-0.13923566,1.0284628,0.25786096,-2.145618,6.5098066,2.1045856,-20.443102,-1.8178169e-05,-4.284657e-06,6.790986e-05,0.00029653413,-0.0012096863,-0.0003271697,0.22646537,0.149143,0.4034723,0.2248719,-0.066181816,0.09436037,0.0,0.0,7.4370826e-07,0.00033055188,0.01704841,6.177037e-07,4.8837537e-06,4.931431e-06,3.0172621e-05,0.0133262165,0.013353668,0.011136964,0.050648015,0.050618947,0.058960076,1.3566958e-11,1.3480126e-11,2.1085729e-11,5e-08,5e-08,5e-08,5.3131385e-05,3.5821406e-05,0.0004298759,5.439921e-05,4.076698e-05,0.00042891016,0.0,0.0,743,0.3182247,0.24281695,0.25290108,0.09773182,0.043916706,0.053110663,0.0,0.0,0.0,-0.001576,0,0,0,831,24,0,0,0
265354774,0.9764223,-0.05376281,-0.07434194,-0.19540298,1.0463066,0.13011202,-2.258183,6.7005124,2.1660554,-20.865631,-1.7981689e-05,-4.368717e-06,6.757184e-05,0.00029534826,-0.0012233983,-0.0003446234,0.2251018,0.14813603,0.40536845,0.22674455,-0.06562816,0.09299394,0.0,0.0,5.517134e-07,0.00033758566,0.016827796,1.2094829e-06,4.9351283e-06,4.921128e-06,2.9727831e-05,0.013119467,0.013131945,0.011088137,0.05035331,0.05032621,0.058521308,1.362113e-11,1.3527368e-11,2.1131591e-11,5.0000054e-08,5.0000054e-08,5.0000054e-08,5.1763094e-05,3.5124576e-05,0.00042875766,5.316064e-05,3.9928353e-05,0.00042758905,0.0,0.0,743,0.31730035,0.24191178,0.12858525,0.15124252,0.031776384,0.018872164,0.0,0.0,0.0,-0.00159,0,0,0,831,24,0,0,0
265555601,0.978567,-0.05542114,-0.06683502,-0.18673046,1.1481401,-0.0061041317,-2.263395,6.9353404,2.2032747,-21.290932,-1.7673367e-05,-4.2932807e-06,6.709247e-05,0.00028984595,-0.0012386267,-0.00035764664,0.22302835,0.1465297,0.40785214,0.22932893,-0.064450905,0.091308974,0.0,0.0,4.6432828e-07,0.00032314574,0.01631158,1.1151717e-06,4.931294e-06,4.9369555e-06,2.9981415e-05,0.012861155,0.012848321,0.011105136,0.04991866,0.049892895,0.05877886,1.3670706e-11,1.3570292e-11,2.117852e-11,5.0000036e-08,5.0000036e-08,5.0000036e-08,5.0264e-05,3.4377576e-05,0.00042766248,5.175664e-05,3.9012688e-05,0.0004263302,0.0,0.0,743,0.31592965,0.24244352,0.51638275,0.10559023,0.03024357,0.0049113706,0.0,0.0,0.0,-0.001564,0,0,0,831,24,0,0,0
265757185,0.98266923,-0.056419864,-0.05312167,-0.16839315,1.1350828,-0.07543046,-2.5000608,7.1643353,2.215844,-21.77043,-1.7373468e-05,-4.176441e-06,6.6529734e-05,0.0002897146,-0.0012555461,-0.00036219577,0.22149232,0.14486842,0.40957284,0.23172106,-0.06313057,0.09038363,0.0,0.0,3.8062072e-07,0.00030947002,0.01645267,9.1826166e-07,4.9279765e-06,4.963968e-06,3.0407948e-05,0.012770031,0.012759666,0.011120953,0.049576916,0.049552966,0.059046604,1.37232075e-11,1.3617385e-11,2.1240499e-11,5.000009e-08,5.000009e-08,5.000009e-08,4.938905e-05,3.3882905e-05,0.00042716035,5.0951254e-05,3.8475213e-05,0.00042567722,0.0,0.0,743,0.314849,0.24299507,0.26878694,0.082223244,0.042465694,0.0005339321,0.0,0.0,0.0,-0.001587,0,0,0,831,24,0,0,0
265962020,0.9783536,-0.050513376,-0.04821912,-0.1948015,1.0514715,-0.12536392,-2.490942,7.367961,2.2108512,-22.259748,-1.710375e-05,-4.193408e-06,6.6079985e-05,0.00029104346,-0.0012680265,-0.0003827562,0.22023635,0.14353508,0.40992767,0.2337774,-0.062232416,0.090619266,0.0,0.0,2.7973695e-07,0.00029467244,0.016365653,1.2291139e-06,4.953492e-06,4.981984e-06,3.0309602e-05,0.012632414,0.012636503,0.011085598,0.049539264,0.04951701,0.05875467,1.3768817e-11,1.3656263e-11,2.1294801e-11,5.000007e-08,5.000007e-08,5.000007e-08,4.8316375e-05,3.323666e-05,0.00042656137,4.990802e-05,3.7827784e-05,0.0004248769,0.0,0.0,743,0.31473207,0.24239363,0.2647545,0.14259753,0.039729305,0.021103503,0.0,0.0,0.0,-0.001577,0,0,0,831,24,0,0,0
266163573,0.9774778,-0.04675516,-0.052236743,-0.199054,0.9852133,-0.17161883,-2.5220823,7.541022,2.2051144,-22.720982,-1.689152e-05,-4.225246e-06,6.56666e-05,0.00029296157,-0.0012807394,-0.00040050084,0.21892394,0.14218216,0.4097423,0.23582347,-0.061366703,0.09136686,0.0,0.0,2.0941351e-07,0.000285727,0.016226815,1.2984382e-06,4.9918854e-06,4.9935497e-06,3.0430667e-05,0.01246084,0.012475635,0.011099963,0.04906059,0.049040888,0.058882263,1.3804159e-11,1.36860506e-11,2.1346204e-11,5e-08,5e-08,5.0000054e-08,4.729264e-05,3.2615895e-05,0.00042612618,4.8840582e-05,3.721044e-05,0.0004243218,0.0,0.0,743,0.31321156,0.24265668,0.17453763,0.13415466,0.044255655,0.021219043,0.0,0.0,0.0,-0.001591,0,0,0,831,24,0,0,0
266364389,0.97789544,-0.034733348,-0.038876604,-0.20249163,0.8985733,-0.17546856,-2.5381496,7.694128,2.2201183,-23.203505,-1.6850096e-05,-4.2702623e-06,6.5360065e-05,0.00029690514,-0.001292847,-0.000415143,0.21787444,0.14106953,0.40911776,0.23750067,-0.060844235,0.09240953,0.0,0.0,2.850234e-07,0.000303984,0.016571509,1.3425713e-06,5.003815e-06,5.0124513e-06,3.0618492e-05,0.012324333,0.012354166,0.011116041,0.048698373,0.048681866,0.059115235,1.3838222e-11,1.3714919e-11,2.1401419e-11,5.0000036e-08,5.0000036e-08,5.000005e-08,4.6353827e-05,3.201255e-05,0.00042546086,4.7787926e-05,3.6639623e-05,0.00042360168,0.0,0.0,743,0.31205806,0.24313624,0.210053,0.17488939,0.05849665,0.052388303,0.0,0.0,0.0,-0.001576,0,0,0,831,24,0,0,0
266570049,0.9792642,-0.027678775,-0.0046464517,-0.20063436,0.70069087,-0.102829576,-2.5943205,7.8272552,2.2381523,-23.739796,-1.680211e-05,-4.3374475e-06,6.5031876e-05,0.0003021834,-0.001303859,-0.0004176977,0.2170168,0.13997321,0.4064927,0.23910357,-0.060483277,0.0954109,0.0,0.0,3.172548e-07,0.00033595602,0.016575305,1.3123632e-06,5.0208782e-06,5.051873e-06,3.0871044e-05,0.012294072,0.012364862,0.011079033,0.048709102,0.048696734,0.05882403,1.38714795e-11,1.374356e-11,2.1455693e-11,5e-08,5e-08,5.0000015e-08,4.537474e-05,3.1282543e-05,0.00042056953,4.6470606e-05,3.608856e-05,0.00041869018,0.0,0.0,743,0.31209907,0.24253665,0.11524483,0.14781117,0.06647021,0.04150898,0.0,0.0,0.0,-0.001515,0,0,0,831,24,0,0,0
266770793,0.978757,-0.029197304,-0.035238173,-0.19985154,0.5491571,-0.015868533,-2.572194,7.900501,2.2886605,-24.217773,-1.7023056e-05,-4.603487e-06,6.516387e-05,0.00030489158,-0.0013039411,-0.00043396422,0.21700321,0.14021173,0.40694186,0.23900162,-0.061149515,0.0950543,0.0,0.0,3.4492155e-07,0.00042506197,0.015142705,1.3222457e-06,5.0742924e-06,5.072317e-06,3.1045387e-05,0.012154919,0.0122521045,0.011092263,0.048255883,0.0482505,0.058909975,1.3888894e-11,1.37562964e-11,2.1500758e-11,5e-08,5e-08,5.0000054e-08,4.4524768e-05,3.0637475e-05,0.00041653897,4.532846e-05,3.5604728e-05,0.00041465575,0.0,0.0,743,0.31065476,0.24271376,0.3697119,0.17103021,0.076268926,0.015383506,0.0,0.0,0.0,-0.001572,0,0,0,831,24,0,0,0
266968388,0.97510034,-0.043344848,-0.033590335,-0.21487707,0.50242037,0.041256733,-2.0504773,7.944503,2.3619368,-24.656609,-1.773664e-05,-5.2211276e-06,6.610576e-05,0.0003041982,-0.0012821006,-0.00044637808,0.21867083,0.14288747,0.41041937,0.23592484,-0.06380197,0.090734094,0.0,0.0,3.537117e-07,0.0005030085,0.015244405,1.5220726e-06,5.110063e-06,5.117491e-06,3.1072206e-05,0.011831943,0.011925626,0.011019894,0.04805401,0.048058,0.058327593,1.3915081e-11,1.37776015e-11,2.1558734e-11,5e-08,5e-08,5e-08,4.376061e-05,3.0123785e-05,0.00041567683,4.4442404e-05,3.5149977e-05,0.00041375638,0.0,0.0,743,0.31001937,0.24151106,0.38440034,0.17537697,0.07657944,0.03171203,0.0,0.0,0.0,-0.001577,0,0,0,831,24,0,0,0
267177988,0.9750782,-0.04868256,-0.01702235,-0.21578392,0.36589244,0.048201203,-1.7611059,7.9675155,2.425694,-25.023762,-1.8114151e-05,-5.6339104e-06,6.6453904e-05,0.00030807292,-0.001271291,-0.0004497318,0.21914643,0.14390282,0.41276515,0.23491889,-0.06494991,0.08802012,0.0,0.0,4.2211667e-07,0.0005418468,0.017285751,1.5309259e-06,5.1375137e-06,5.170464e-06,3.1309042e-05,0.01168732,0.011795996,0.010991856,0.047938183,0.047952227,0.057930745,1.3935944e-11,1.3794055e-11,2.1612911e-11,5.0000036e-08,5.0000036e-08,5.0000036e-08,4.2971147e-05,2.9602423e-05,0.00041369192,4.3556513e-05,3.4723915e-05,0.0004116377,0.0,0.0,743,0.30966178,0.24068807,0.1233196,0.20486483,0.07456977,0.0037954526,0.0,0.0,0.0,-0.001575,0,0,0,831,24,0,0,0
267378811,0.9747076,-0.016679851,-0.00036516544,-0.22286072,0.14989136,0.023955548,-1.7444798,7.97087,2.478558,-25.38735,-1.8142686e-05,-5.7567127e-06,6.620965e-05,0.0003170369,-0.0012785216,-0.00043680426,0.2189688,0.14320219,0.410011,0.23571236,-0.06472157,0.09132302,0.0,0.0,3.4010407e-07,0.00044850973,0.017348345,1.6251433e-06,5.182521e-06,5.2118503e-06,3.1420324e-05,0.011668393,0.011810851,0.011036651,0.04769759,0.047722388,0.058315895,1.3952876e-11,1.38069955e-11,2.166575e-11,5.000007e-08,5.000007e-08,5.000007e-08,4.2131756e-05,2.9022556e-05,0.00040916557,4.253498e-05,3.430163e-05,0.00040697484,0.0,0.0,743,0.30890122,0.24148685,0.54544723,0.12282611,0.080427155,0.027457882,0.0,0.0,0.0,-0.001553,0,0,0,831,24,0,0,0
267580399,0.97665393,-0.0068342565,-0.008003555,-0.21456096,-0.081530795,0.1733196,-2.2326024,7.9322166,2.548945,-25.776808,-1.7850423e-05,-5.6180947e-06,6.530955e-05,0.00033309104,-0.0013020587,-0.0004392015,0.21773873,0.14024296,0.39799303,0.2390947,-0.06306486,0.10449717,0.0,0.0,2.8268522e-07,0.00037599023,0.016046721,1.5340496e-06,5.2286955e-06,5.263474e-06,3.1716092e-05,0.011939958,0.012114045,0.011070632,0.04747967,0.047516417,0.058632832,1.3964443e-11,1.3816223e-11,2.1720672e-11,5.0000036e-08,5.0000036e-08,5.000005e-08,4.148967e-05,2.8494625e-05,0.00040155477,4.14896e-05,3.395584e-05,0.00039948212,0.0,0.0,743,0.30821437,0.24214217,0.31623775,0.17420503,0.095268525,0.038685802,0.0,0.0,0.0,-0.001565,0,0,0,831,24,0,0,0
267781194,0.97861165,-0.020757325,-0.023809388,-0.20327727,-0.23360963,0.25834474,-2.4103103,7.8426995,2.6659951,-26.223276,-1.79712e-05,-5.7879947e-06,6.510051e-05,0.00034384627,-0.0013071909,-0.00044710864,0.21750556,0.1394267,0.39598593,0.23988834,-0.062734574,0.10719981,0.0,0.0,2.2996879e-07,0.0003420835,0.015114054,1.4034763e-06,5.290563e-06,5.2797946e-06,3.2088526e-05,0.012050165,0.0122285,0.011105534,0.04731447,0.047365583,0.058968432,1.3972015e-11,1.3820498e-11,2.1778543e-11,5.000007e-08,5.000007e-08,5.000009e-08,4.0964973e-05,2.8062816e-05,0.00039780652,4.0706906e-05,3.364974e-05,0.00039581556,0.0,0.0,743,0.30770123,0.24283417,0.17685264,0.19401315,0.111083254,0.0375837,0.0,0.0,0.0,-0.001578,0,0,0,831,24,0,0,0
267978772,0.97989255,-0.02840436,-0.040843744,-0.19322458,-0.32193625,0.2181986,-2.4667718,7.727066,2.7849028,-26.681522,-1.8154615e-05,-5.9613917e-06,6.4991735e-05,0.00035312484,-0.0013065729,-0.00045643083,0.21718827,0.13898626,0.39533088,0.24051285,-0.06271671,0.108081244,0.0,0.0,1.790033e-07,0.0003019999,0.015911696,1.2957834e-06,5.375163e-06,5.301942e-06,3.2421776e-05,0.012075801,0.012248223,0.011042768,0.047142923,0.047208082,0.05840209,1.3972882e-11,1.3817203e-11,2.1835159e-11,5.000007e-08,5.000007e-08,5.000007e-08,4.050645e-05,2.7701211e-05,0.0003966254,4.0122348e-05,3.337379e-05,0.00039465254,0.0,0.0,743,0.3071661,0.24166524,0.09908127,0.15826432,0.11599972,0.023011591,0.0,0.0,0.0,-0.001591,0,0,0,831,24,0,0,0
268179579,0.9812859,-0.0323229,-0.053924844,-0.18200397,-0.32218352,0.20648763,-2.5289435,7.610445,2.9024186,-27.152948,-1.8376475e-05,-6.1223786e-06,6.4959946e-05,0.0003623453,-0.0013055294,-0.00046337428,0.21690525,0.13873693,0.39511156,0.24093415,-0.06286861,0.10842134,0.0,0.0,1.6454317e-07,0.0002866858,0.017562352,1.1746388e-06,5.461423e-06,5.3192634e-06,3.2766064e-05,0.0120658465,0.012210163,0.011066423,0.046840984,0.046917036,0.058567915,1.3961755e-11,1.3800508e-11,2.1884716e-11,5e-08,5e-08,5.000002e-08,4.00868e-05,2.7363245e-05,0.00039612182,3.9630144e-05,3.3092045e-05,0.0003941744,0.0,0.0,743,0.3061993,0.24200809,0.092878416,0.15871033,0.1235463,0.048646957,0.0,0.0,0.0,-0.001586,0,0,0,831,24,0,0,0
268385185,0.9826478,-0.04048773,-0.06296406,-0.1697043,-0.2677003,0.10602849,-2.5051205,7.495213,3.00241,-27.64072,-1.8547898e-05,-6.2614026e-06,6.488257e-05,0.00036971664,-0.0013031977,-0.0004786882,0.21662943,0.13846499,0.3952045,0.24137041,-0.062917605,0.10837473,0.0,0.0,2.2483574e-07,0.00035024923,0.018667553,1.0499981e-06,5.5524984e-06,5.3497533e-06,3.3162927e-05,0.012078519,0.012193505,0.011123212,0.046906423,0.046992075,0.059103426,1.3956447e-11,1.3790194e-11,2.1947267e-11,5.000007e-08,5.000007e-08,5.000007e-08,3.9756877e-05,2.7101441e-05,0.0003956548,3.929367e-05,3.2867756e-05,0.0003937031,0.0,0.0,743,0.3064286,0.24311197,0.04861122,0.10420575,0.13013995,0.015523241,0.0,0.0,0.0,-0.00159,0,0,0,831,24,0,0,0
268586016,0.98528683,-0.04190391,-0.0641677,-0.15276246,-0.18698944,0.02076173,-2.4846363,7.401091,3.0857053,-28.119896,-1.8728393e-05,-6.3265097e-06,6.47099e-05,0.00037983945,-0.0013025802,-0.00048366198,0.21631326,0.13810232,0.39587307,0.2419066,-0.062840864,0.1078681,0.0,0.0,2.173784e-07,0.00038038002,0.017958198,8.7135567e-07,5.6021972e-06,5.373317e-06,3.363181e-05,0.0120116025,0.012101228,0.011042629,0.046631545,0.046720184,0.05835801,1.3936929e-11,1.3765477e-11,2.1998169e-11,5e-08,5e-08,5e-08,3.9461807e-05,2.6848258e-05,0.0003949213,3.901511e-05,3.266276e-05,0.00039294854,0.0,0.0,743,0.30553514,0.24157402,0.10504227,0.13250595,0.13013962,0.015747653,0.0,0.0,0.0,-0.001551,0,0,0,831,24,0,0,0
268795571,0.98688513,-0.044114284,-0.065593734,-0.14074467,-0.08471097,-0.07236592,-2.503541,7.3193736,3.1425097,-28.657076,-1.887826e-05,-6.439596e-06,6.451242e-05,0.00038888666,-0.0013003609,-0.00047742334,0.21608827,0.13781133,0.39655742,0.24235167,-0.06279567,0.1073425,0.0,0.0,1.7624146e-07,0.00034586614,0.017745033,7.596215e-07,5.6647823e-06,5.412144e-06,3.408163e-05,0.012041785,0.012112615,0.011108745,0.046756458,0.046845753,0.058934864,1.3926122e-11,1.375175e-11,2.2066599e-11,5.000007e-08,5.000007e-08,5.000007e-08,3.9270628e-05,2.6668984e-05,0.00039428993,3.8844242e-05,3.2529002e-05,0.0003923012,0.0,0.0,743,0.30594477,0.24276504,0.13149755,0.107614346,0.12585557,0.0031975657,0.0,0.0,0.0,-0.001592,0,0,0,831,24,0,0,0
268996397,0.9879621,-0.045050964,-0.067812145,-0.13154073,0.0059806304,-0.19138026,-2.5000627,7.263161,3.1776462,-29.172255,-1.9016965e-05,-6.496918e-06,6.428011e-05,0.00039831072,-0.001299118,-0.0004754434,0.21585307,0.13752581,0.39761823,0.24280238,-0.062743634,0.10645712,0.0,0.0,1.9442845e-07,0.0003734159,0.019073876,6.8183937e-07,5.7187226e-06,5.438086e-06,3.4479395e-05,0.01201778,0.01208195,0.011045121,0.046692334,0.046778575,0.05838264,1.3904003e-11,1.3726029e-11,2.2123574e-11,5.0000036e-08,5.0000036e-08,5.0000036e-08,3.9060975e-05,2.6458743e-05,0.00039326865,3.8669186e-05,3.2380092e-05,0.00039124477,0.0,0.0,743,0.30573013,0.241625,0.091200665,0.102226436,0.12656865,0.011831049,0.0,0.0,0.0,-0.0015669999,0,0,0,831,24,0,0,0
269201999,0.99005497,-0.03733282,-0.06514381,-0.11897021,0.089767575,-0.28347707,-2.4905365,7.2150764,3.173015,-29.684053,-1.9057432e-05,-6.622946e-06,6.403012e-05,0.00040422942,-0.0012953139,-0.0004806739,0.2157209,0.13728231,0.39837638,0.24320948,-0.062719606,0.10582922,0.0,0.0,1.6467104e-07,0.0003421536,0.019191362,5.677392e-07,5.757668e-06,5.4730963e-06,3.4960136e-05,0.012047124,0.012113408,0.011032099,0.046921562,0.047003765,0.058199465,1.38818046e-11,1.37012745e-11,2.218441e-11,5e-08,5.0000033e-08,5e-08,3.8884475e-05,2.625962e-05,0.00039245642,3.8515478e-05,3.2246917e-05,0.00039041272,0.0,0.0,743,0.3064724,0.24124566,0.099985555,0.13185224,0.11976438,0.016716644,0.0,0.0,0.0,-0.001564,0,0,0,831,24,0,0,0
269402777,0.99113005,-0.038929682,-0.06087701,-0.111533955,0.13744912,-0.35922223,-2.4471285,7.169675,3.157517,-30.194254,-1.9119934e-05,-6.8422237e-06,6.379546e-05,0.00041045155,-0.0012897814,-0.00047446304,0.21565914,0.13708606,0.3987418,0.24353708,-0.06276254,0.10558489,0.0,0.0,1.14731556e-07,0.00029182038,0.017810173,5.086569e-07,5.7684247e-06,5.4989077e-06,3.5392546e-05,0.0119443815,0.012017348,0.011059609,0.046647448,0.046723448,0.058345575,1.3846024e-11,1.3664773e-11,2.2238074e-11,5.0000036e-08,5.0000036e-08,5.0000036e-08,3.8746166e-05,2.6090136e-05,0.00039198666,3.839634e-05,3.214091e-05,0.00038992558,0.0,0.0,743,0.30556652,0.24154828,0.16454683,0.16290428,0.11571029,0.009191619,0.0,0.0,0.0,-0.001586,0,0,0,831,24,0,0,0
269604372,0.99120027,-0.03660404,-0.061002366,-0.11162829,0.17702375,-0.41493446,-2.444543,7.117662,3.1119697,-30.708483,-1.9093115e-05,-7.060135e-06,6.342143e-05,0.0004161748,-0.0012816446,-0.0004658978,0.2156703,0.13685961,0.39928618,0.24396798,-0.06278148,0.10512036,0.0,0.0,1.12770124e-07,0.00029002124,0.016017351,5.162424e-07,5.802373e-06,5.5241367e-06,3.574121e-05,0.011902235,0.01198852,0.011091776,0.046536334,0.046607655,0.05866761,1.38118275e-11,1.3629925e-11,2.2293122e-11,5e-08,5.000005e-08,5e-08,3.8603073e-05,2.5906706e-05,0.00039156716,3.82728e-05,3.2028453e-05,0.00038948428,0.0,0.0,743,0.305195,0.24221398,0.18135418,0.22791864,0.11856422,0.03633564,0.0,0.0,0.0,-0.001591,0,0,0,831,24,0,0,0
269805210,0.99019694,-0.032785412,-0.06268748,-0.12043898,0.21801838,-0.44309357,-2.4524484,7.0791535,3.061217,-31.218868,-1.910636e-05,-7.271402e-06,6.3086976e-05,0.00042249178,-0.0012752705,-0.0004576689,0.21562889,0.13662711,0.39965284,0.2443844,-0.06277432,0.10488275,0.0,0.0,1.18196816e-07,0.0003078453,0.015569397,6.0140064e-07,5.8431046e-06,5.5533087e-06,3.6014593e-05,0.011875711,0.011979265,0.011027128,0.046420924,0.046489272,0.058103222,1.3776847e-11,1.3595662e-11,2.2350595e-11,5e-08,5.0000107e-08,5e-08,3.8473503e-05,2.5744268e-05,0.00039119917,3.8155562e-05,3.1928157e-05,0.00038910375,0.0,0.0,743,0.30481175,0.2410461,0.13081239,0.18207943,0.124276206,0.0041686087,0.0,0.0,0.0,-0.001564,0,0,0,831,24,0,0,0
270010797,0.9890081,-0.029617483,-0.061629023,-0.13110137,0.27308682,-0.47493663,-2.40241,7.0708222,2.9838314,-31.721394,-1.8965899e-05,-7.3594606e-06,6.2768835e-05,0.00042565117,-0.0012734775,-0.00045755264,0.21551259,0.13638474,0.39987403,0.24481177,-0.06273579,0.104787566,0.0,0.0,1.08767004e-07,0.00033941187,0.016479293,7.102745e-07,5.8653636e-06,5.585723e-06,3.6289475e-05,0.01183637,0.011960532,0.011092301,0.04639502,0.04646332,0.058580175,1.3734909e-11,1.3554357e-11,2.240249e-11,5.000004e-08,5.000004e-08,5.000004e-08,3.832053e-05,2.5559695e-05,0.0003905995,3.8004415e-05,3.1808075e-05,0.00038850575,0.0,0.0,743,0.30472666,0.24203342,0.13762869,0.08272824,0.121822044,0.00686262,0.0,0.0,0.0,-0.001568,0,0,0,831,24,0,0,0
270211587,0.9886233,-0.026998982,-0.059595436,-0.13543819,0.33192474,-0.4727071,-2.3964784,7.0757008,2.9021363,-32.238426,-1.8787874e-05,-7.4166173e-06,6.234967e-05,0.00043007254,-0.0012729133,-0.0004453386,0.21531689,0.13604486,0.39995897,0.24538717,-0.062617324,0.1049003,0.0,0.0,9.02988e-08,0.00032721335,0.016462505,7.6228537e-07,5.8766764e-06,5.6127396e-06,3.6610854e-05,0.011793933,0.01194095,0.011037855,0.04619439,0.046264935,0.05808313,1.3690691e-11,1.3511381e-11,2.245237e-11,5e-08,5e-08,5.0000043e-08,3.8160946e-05,2.5372743e-05,0.0003899819,3.783415e-05,3.168442e-05,0.0003878998,0.0,0.0,743,0.30407125,0.24100442,0.15917642,0.083844855,0.11785732,0.04284076,0.0,0.0,0.0,-0.001578,0,0,0,831,24,0,0,0
270409209,0.9891579,-0.02474455,-0.057321362,-0.1329231,0.3652225,-0.4344537,-2.3783681,7.0862904,2.8205311,-32.700188,-1.8585884e-05,-7.502246e-06,6.195584e-05,0.00043334227,-0.0012717013,-0.00044813493,0.21516268,0.13571596,0.39971605,0.24593878,-0.06249992,0.10532167,0.0,0.0,8.5790695e-08,0.00031259225,0.01575349,7.433951e-07,5.8871587e-06,5.6383615e-06,3.70091e-05,0.011732785,0.011895378,0.011076612,0.045859333,0.045933798,0.05834348,1.3643207e-11,1.3466316e-11,2.2502649e-11,5.000004e-08,5.000004e-08,5.000004e-08,3.8023172e-05,2.5207877e-05,0.0003893687,3.7679427e-05,3.157669e-05,0.00038730286,0.0,0.0,743,0.3029738,0.24154395,0.1850465,0.10256418,0.114729054,0.060271908,0.0,0.0,0.0,-0.001563,0,0,0,831,24,0,0,0
