timestamp,states[0],states[1],states[2],states[3],states[4],states[5],states[6],states[7],states[8],states[9],states[10],states[11],states[12],states[13],states[14],states[15],states[16],states[17],states[18],states[19],states[20],states[21],states[22],states[23],vibe[0],vibe[1],vibe[2],covariances[0],covariances[1],covariances[2],covariances[3],covariances[4],covariances[5],covariances[6],covariances[7],covariances[8],covariances[9],covariances[10],covariances[11],covariances[12],covariances[13],covariances[14],covariances[15],covariances[16],covariances[17],covariances[18],covariances[19],covariances[20],covariances[21],covariances[22],covariances[23],control_mode_flags,pos_horiz_accuracy,pos_vert_accuracy,mag_test_ratio,vel_test_ratio,pos_test_ratio,hgt_test_ratio,tas_test_ratio,hagl_test_ratio,beta_test_ratio,time_slip,gps_check_fail_flags,filter_fault_flags,innovation_check_flags,solution_status_flags,n_states,pre_flt_fail,health_flags,timeout_flags
1072678434,-0.9798681,0.021337641,0.025029026,-0.19691795,0.005546004,0.053715434,-0.023734914,6.6817107,-0.267379,-2.6709714,-2.2069331e-05,1.4087062e-06,1.5193269e-06,-0.0003113589,0.00014411898,-0.00023493037,0.23801823,0.03843363,0.38005507,-0.0040722145,0.0031466503,8.76275e-06,0.0,0.0,4.4822857e-09,5.8988757e-05,0.0011711817,1.4921312e-06,5.797717e-06,5.7834077e-06,3.366654e-05,0.011815354,0.011811885,0.010955991,0.044757634,0.044754833,0.056420628,1.06410184e-11,1.0646566e-11,1.7857632e-11,5.000073e-08,5.000073e-08,5.000009e-08,0.0,0.0,0.0,0.0,0.0,0.0,0.0,0.0,663,0.29918635,0.23753026,0.016539177,0.008170967,0.02449663,0.028461171,0.0,0.0,0.0,-0.004949,0,0,0,831,24,0,0,0
1072879197,-0.97989285,0.021183575,0.024804605,-0.19684032,0.0058074957,0.05045192,-0.025326045,6.6796427,-0.26103425,-2.6701725,-2.2037628e-05,1.407959e-06,1.5261313e-06,-0.00031137816,0.00014388846,-0.00023626156,0.23801823,0.03843363,0.38005507,-0.0040722145,0.0031466503,8.76275e-06,0.0,0.0,8.846012e-09,0.0001254689,0.0026225306,1.4903192e-06,5.794074e-06,5.7800685e-06,3.36647e-05,0.011819903,0.011816475,0.010936442,0.044750225,0.04474739,0.056267824,1.0635724e-11,1.0641425e-11,1.7857608e-11,5.000071e-08,5.000071e-08,5.0000036e-08,0.0,0.0,0.0,0.0,0.0,0.0,0.0,0.0,663,0.29916152,0.2372084,0.02967269,0.02718806,0.021515965,0.011903532,0.0,0.0,0.0,-0.0049839998,0,0,0,831,24,0,0,0
1073087214,-0.9798967,0.021121154,0.024745964,-0.19683522,0.0017435363,0.051096477,-0.025684293,6.671235,-0.25316164,-2.6764438,-2.203591e-05,1.3696393e-06,1.4994964e-06,-0.00031168788,0.00014386304,-0.00023543225,0.23801823,0.03843363,0.38005507,-0.0040722145,0.0031466503,8.76275e-06,0.0,0.0,3.8091862e-08,0.00023110858,0.006021895,1.487173e-06,5.798381e-06,5.7843845e-06,3.362936e-05,0.011882718,0.011879294,0.010955628,0.045057245,0.04505433,0.056435015,1.06363356e-11,1.0642168e-11,1.785225e-11,5.0000764e-08,5.0000764e-08,5e-08,0.0,0.0,0.0,0.0,0.0,0.0,0.0,0.0,663,0.3001859,0.23756056,0.03511761,0.01373054,0.017183512,0.01255506,0.0,0.0,0.0,-0.004966,0,0,0,831,24,0,0,0
1073287998,-0.98059696,0.016371708,0.013399329,-0.19488999,-0.04405228,0.0042865714,-0.1801736,6.656198,-0.24537596,-2.7196274,-2.2053435e-05,1.3091517e-06,1.5486705e-06,-0.00031215666,0.0001440173,-0.0002240581,0.23801823,0.03843363,0.38005507,-0.0040722145,0.0031466503,8.76275e-06,0.0,0.0,1.0993792e-06,0.0005774773,0.012947786,1.4572322e-06,5.780432e-06,5.7781162e-06,3.3672673e-05,0.011974275,0.011970965,0.011014242,0.04507752,0.045074604,0.057009954,1.0630917e-11,1.0636905e-11,1.785225e-11,5.0000747e-08,5.0000747e-08,5.0000008e-08,0.0,0.0,0.0,0.0,0.0,0.0,0.0,0.0,663,0.30025345,0.23876758,0.030254314,0.03134711,0.017995415,0.083291925,0.0,0.0,0.0,-0.0049839998,0,0,0,831,24,0,0,0
1073492812,-0.98233414,0.011931646,-0.021378571,-0.1855269,-0.44072118,-0.20055887,-1.6576033,6.603941,-0.26752123,-3.0025685,-2.20419e-05,1.2770232e-06,1.5978106e-06,-0.00031241387,0.00014387038,-0.00018544207,0.23801823,0.03843363,0.38005507,-0.0040722145,0.0031466503,8.76275e-06,0.0,0.0,2.9433534e-06,0.0009550484,0.020779436,1.3313861e-06,5.784291e-06,5.777489e-06,3.3828248e-05,0.013016499,0.013028245,0.011014632,0.045564372,0.045561474,0.057066977,1.0631048e-11,1.063709e-11,1.7858284e-11,5.0000818e-08,5.0000786e-08,5.0000036e-08,0.0,0.0,0.0,0.0,0.0,0.0,0.0,0.0,663,0.30187058,0.23888695,0.0019743904,0.024396049,0.019852888,0.030949848,0.0,0.0,0.0,-0.004969,0,0,0,831,24,0,0,0
1073692818,-0.98075986,-0.008341175,0.066394925,-0.18339087,-0.5924052,-0.2857435,-2.3759432,6.4870095,-0.3221649,-3.3712695,-2.198587e-05,1.2774746e-06,1.5461815e-06,-0.0003121845,0.0001428705,-0.00020227599,0.23801823,0.03843363,0.38005507,-0.0040722145,0.0031466503,8.76275e-06,0.0,0.0,2.2489503e-06,0.0009771077,0.020270597,1.3245791e-06,5.896434e-06,5.722488e-06,3.3721208e-05,0.013440757,0.013462964,0.0110593205,0.045649476,0.04564736,0.05744988,1.0611795e-11,1.061721e-11,1.7853231e-11,5.0000786e-08,5.0000757e-08,5e-08,0.0,0.0,0.0,0.0,0.0,0.0,0.0,0.0,663,0.30215368,0.23968706,0.0316519,0.046757612,0.04456466,0.07801943,0.0,0.0,0.0,-0.004964,0,0,0,831,24,0,0,0
1073893688,-0.9772978,-0.017355774,0.10098055,-0.18544741,-0.5012622,-0.25453332,-2.2190194,6.355158,-0.37487498,-3.7744772,-2.2012922e-05,1.2142007e-06,1.477071e-06,-0.0003130995,0.00014316548,-0.00022545028,0.23801823,0.03843363,0.38005507,-0.0040722145,0.0031466503,8.76275e-06,0.0,0.0,1.4387709e-06,0.0008927653,0.018527566,1.3835617e-06,6.0376897e-06,5.657205e-06,3.3495387e-05,0.013215484,0.013222442,0.010999022,0.045815077,0.045813844,0.057110667,1.0591898e-11,1.0596325e-11,1.7851113e-11,5.0000782e-08,5.0000754e-08,5e-08,0.0,0.0,0.0,0.0,0.0,0.0,0.0,0.0,663,0.3027027,0.23897839,0.037162207,0.024723079,0.04036002,0.03958442,0.0,0.0,0.0,-0.004895,0,0,0,831,24,0,0,0
1074102396,-0.9767175,-0.018335307,0.10044203,-0.18867473,-0.3501382,-0.19670068,-1.9692825,6.2516003,-0.42237338,-4.1806936,-2.2017228e-05,1.173594e-06,1.4116091e-06,-0.00031367768,0.00014312848,-0.00023544749,0.23801823,0.03843363,0.38005507,-0.0040722145,0.0031466503,8.76275e-06,0.0,0.0,9.334607e-07,0.000921595,0.017336825,1.4244312e-06,6.0066072e-06,5.632054e-06,3.346363e-05,0.012995864,0.012989233,0.011066087,0.046286896,0.046285648,0.057899397,1.0580862e-11,1.05844925e-11,1.785594e-11,5.000081e-08,5.000079e-08,5.0000036e-08,0.0,0.0,0.0,0.0,0.0,0.0,0.0,0.0,663,0.30425736,0.24062294,0.017727556,0.017002707,0.03064236,0.028876167,0.0,0.0,0.0,-0.004986,0,0,0,831,24,0,0,0
1074302438,-0.9769886,-0.016986605,0.094264254,-0.19057529,-0.2231441,-0.14393541,-1.8620135,6.184275,-0.45473292,-4.527175,-2.2033902e-05,1.1523952e-06,1.3448195e-06,-0.0003140257,0.00014329865,-0.0002483948,0.23801823,0.03843363,0.38005507,-0.0040722145,0.0031466503,8.76275e-06,0.0,0.0,5.9077473e-07,0.0007159635,0.015425831,1.4402852e-06,5.939559e-06,5.609233e-06,3.3471646e-05,0.012836894,0.012825011,0.0110953,0.04646481,0.046462532,0.058362056,1.0568746e-11,1.05718845e-11,1.7857419e-11,5.0000782e-08,5.0000782e-08,5.000008e-08,0.0,0.0,0.0,0.0,0.0,0.0,0.0,0.0,663,0.30483985,0.2415824,0.0019800793,0.013513467,0.024200333,0.019174293,0.0,0.0,0.0,-0.004943,0,0,0,831,24,0,0,0
1074503194,-0.9773227,-0.0167679,0.08942147,-0.19121462,-0.116103895,-0.10387906,-1.7658713,6.132901,-0.4714642,-4.877893,-2.2114604e-05,1.0852234e-06,1.2665383e-06,-0.00031477818,0.0001444526,-0.00024965277,0.23801823,0.03843363,0.38005507,-0.0040722145,0.0031466503,8.76275e-06,0.0,0.0,4.1295021e-07,0.00083591935,0.017393654,1.4409109e-06,5.8822447e-06,5.586507e-06,3.348759e-05,0.012668727,0.012656316,0.011020757,0.046560757,0.046556946,0.057889104,1.0555527e-11,1.0558442e-11,1.7857466e-11,5.0000672e-08,5.00007e-08,5e-08,0.0,0.0,0.0,0.0,0.0,0.0,0.0,0.0,663,0.30515194,0.24060154,0.036808033,0.05572285,0.020515975,0.017388357,0.0,0.0,0.0,-0.004986,0,0,0,831,24,0,0,0
1074712027,-0.97749025,-0.01758628,0.087850325,-0.19101274,-0.037308548,-0.064107664,-1.6907132,6.0945344,-0.48432758,-5.235445,-2.2168484e-05,1.0004212e-06,1.2006154e-06,-0.0003152415,0.00014551905,-0.00024231273,0.23801823,0.03843363,0.38005507,-0.0040722145,0.0031466503,8.76275e-06,0.0,0.0,2.9527416e-07,0.00076793943,0.017175743,1.4333153e-06,5.669757e-06,5.3892013e-06,3.3514378e-05,0.011189988,0.011181131,0.010870815,0.04043016,0.040426936,0.057909377,1.044327e-11,1.0446207e-11,1.7863452e-11,5e-08,5e-08,5e-08,0.0,0.0,0.0,0.0,0.0,0.0,0.0,0.0,663,0.28435382,0.24064367,0.051126756,0.08166601,0.015378893,0.042209443,0.0,0.0,0.0,-0.0049529998,0,0,0,831,24,0,0,0
1074911998,-0.97792315,-0.015553153,0.08674178,-0.1894741,0.044281147,-0.05486037,-1.616667,6.096443,-0.49390024,-5.5600114,-2.2173734e-05,1.0250046e-06,1.1394884e-06,-0.00031471462,0.00014574004,-0.00024031871,0.23801823,0.03843363,0.38005507,-0.0040722145,0.0031466503,8.76275e-06,0.0,0.0,2.1569579e-07,0.0006952977,0.016319167,1.4082152e-06,5.6477843e-06,5.3775584e-06,3.3543572e-05,0.011120834,0.01111434,0.01080968,0.040757682,0.04075328,0.057471737,1.04403266e-11,1.0443512e-11,1.7865926e-11,5e-08,5e-08,5e-08,0.0,0.0,0.0,0.0,0.0,0.0,0.0,0.0,663,0.28550124,0.23973264,0.042124923,0.06904025,0.011267885,0.004976723,0.0,0.0,0.0,-0.004983,0,0,0,831,24,0,0,0
1075112797,-0.9784053,-0.017856669,0.08284911,-0.18852168,0.12990862,-0.051463068,-1.51515,6.1197376,-0.50811785,-5.87948,-2.2139691e-05,1.0633034e-06,1.0573465e-06,-0.00031404616,0.0001456141,-0.00023372965,0.23801823,0.03843363,0.38005507,-0.0040722145,0.0031466503,8.76275e-06,0.0,0.0,2.0228049e-07,0.0007784281,0.017620932,1.3890054e-06,5.6134104e-06,5.3756044e-06,3.357493e-05,0.011041597,0.011038528,0.010757087,0.041111134,0.041105703,0.057042465,1.0437338e-11,1.0440845e-11,1.786652e-11,5e-08,5e-08,5e-08,0.0,0.0,0.0,0.0,0.0,0.0,0.0,0.0,663,0.2867348,0.23883565,0.012775487,0.06110187,0.006380924,0.042135864,0.0,0.0,0.0,-0.004985,0,0,0,831,24,0,0,0
1075320821,-0.978616,-0.022489961,0.07835018,-0.18885505,0.16797253,-0.03581078,-1.4140863,6.1427026,-0.5156786,-6.1755075,-2.2179793e-05,1.0309527e-06,9.92509e-07,-0.00031414442,0.00014612086,-0.00023440504,0.23801823,0.03843363,0.38005507,-0.0040722145,0.0031466503,8.76275e-06,0.0,0.0,1.6208305e-07,0.0007233101,0.017171923,1.3888725e-06,5.5885166e-06,5.3876515e-06,3.360557e-05,0.011037977,0.011035797,0.010745284,0.041801047,0.041794717,0.056933414,1.0441996e-11,1.0445821e-11,1.787298e-11,5e-08,5e-08,5e-08,0.0,0.0,0.0,0.0,0.0,0.0,0.0,0.0,663,0.28912932,0.23860724,0.011237243,0.055595428,0.010719377,0.022732666,0.0,0.0,0.0,-0.00496,0,0,0,831,24,0,0,0
1075521597,-0.97843254,-0.022174219,0.076430686,-0.1906212,0.18233716,-0.016305044,-1.3126659,6.181763,-0.53055495,-6.445874,-2.2118475e-05,1.0354341e-06,9.101396e-07,-0.00031396915,0.0001457903,-0.00023281258,0.23801823,0.03843363,0.38005507,-0.0040722145,0.0031466503,8.76275e-06,0.0,0.0,1.5832623e-07,0.0007908256,0.017583596,1.4080944e-06,5.5742494e-06,5.388648e-06,3.3591103e-05,0.010994282,0.010990278,0.010780761,0.04228124,0.042274434,0.057308193,1.0444102e-11,1.0448277e-11,1.7875415e-11,5e-08,5e-08,5e-08,0.0,0.0,0.0,0.0,0.0,0.0,0.0,0.0,663,0.29078457,0.2393913,0.0315379,0.04619381,0.0052140583,0.00844751,0.0,0.0,0.0,-0.0049839998,0,0,0,831,24,0,0,0
1075726383,-0.9786693,-0.020391071,0.070764504,-0.19178905,0.22337884,0.0056398814,-1.2258677,6.2332935,-0.5421656,-6.7035685,-2.203734e-05,1.070243e-06,8.5482765e-07,-0.00031360923,0.00014533721,-0.00023169328,0.23801823,0.03843363,0.38005507,-0.0040722145,0.0031466503,8.76275e-06,0.0,0.0,1.5406796e-07,0.00081911613,0.018245954,1.4174898e-06,5.553522e-06,5.399494e-06,3.3619126e-05,0.011012361,0.0110085225,0.010767046,0.043008436,0.043001246,0.057144277,1.0449439e-11,1.045398e-11,1.7880064e-11,5e-08,5.0000008e-08,5e-08,0.0,0.0,0.0,0.0,0.0,0.0,0.0,0.0,663,0.29327407,0.23904869,0.018557059,0.052166328,0.0069381446,0.000869197,0.0,0.0,0.0,-0.004997,0,0,0,831,24,0,0,0
1075926418,-0.9790291,-0.019929934,0.06540035,-0.19190553,0.23781271,0.018339152,-1.171875,6.276059,-0.5405546,-6.9336543,-2.2046495e-05,1.0643217e-06,8.102191e-07,-0.00031348303,0.00014548376,-0.00023120381,0.23801823,0.03843363,0.38005507,-0.0040722145,0.0031466503,8.76275e-06,0.0,0.0,1.375546e-07,0.0007449806,0.017559998,1.4149208e-06,5.529075e-06,5.4032225e-06,3.368749e-05,0.010973299,0.010968557,0.01080411,0.043348268,0.043341003,0.057391047,1.0447315e-11,1.0452178e-11,1.7888283e-11,5.0000036e-08,5.0000036e-08,5.0000036e-08,0.0,0.0,0.0,0.0,0.0,0.0,0.0,0.0,663,0.2944304,0.23956428,0.028770156,0.041207954,0.0070730234,0.0051252344,0.0,0.0,0.0,-0.004963,0,0,0,831,24,0,0,0
1076127195,-0.97936505,-0.020076277,0.060978215,-0.19163227,0.21878865,0.01918518,-1.1667967,6.3317447,-0.5490089,-7.1725907,-2.1957196e-05,1.0975683e-06,7.499638e-07,-0.000312958,0.00014520985,-0.00022545097,0.23801823,0.03843363,0.38005507,-0.0040722145,0.0031466503,8.76275e-06,0.0,0.0,1.350104e-07,0.00077347195,0.017961506,1.4056952e-06,5.5143255e-06,5.4112293e-06,3.3705597e-05,0.010990048,0.010981704,0.010764865,0.043780353,0.043773044,0.056984484,1.0449852e-11,1.0454943e-11,1.7888687e-11,5.0000036e-08,5.0000036e-08,5.0000036e-08,0.0,0.0,0.0,0.0,0.0,0.0,0.0,0.0,663,0.29589424,0.23871423,0.033584747,0.051920526,0.011059186,0.0028611324,0.0,0.0,0.0,-0.004986,0,0,0,831,24,0,0,0
1076336026,-0.97943527,-0.021014078,0.060530152,-0.19131415,0.20114768,0.020437388,-1.1524855,6.3914146,-0.5625044,-7.4066596,-2.1844706e-05,1.1496811e-06,6.9292105e-07,-0.00031258567,0.00014465307,-0.00022453086,0.23801823,0.03843363,0.38005507,-0.0040722145,0.0031466503,8.76275e-06,0.0,0.0,1.1827023e-07,0.0007628202,0.018316433,1.39774e-06,5.519383e-06,5.4231223e-06,3.36762e-05,0.011042552,0.011031483,0.010852588,0.044385556,0.044377886,0.057708073,1.0457001e-11,1.046224e-11,1.7883754e-11,5.0000068e-08,5.0000068e-08,5.0000047e-08,0.0,0.0,0.0,0.0,0.0,0.0,0.0,0.0,663,0.29793194,0.24022505,0.027632985,0.065415494,0.022446532,0.019181453,0.0,0.0,0.0,-0.004956,0,0,0,831,24,0,0,0
1076536001,-0.9795466,-0.019852666,0.058681525,-0.19144374,0.17503765,0.017798772,-1.1550257,6.444769,-0.5832056,-7.628964,-2.1705042e-05,1.1806753e-06,6.331061e-07,-0.00031258154,0.00014382,-0.00022659113,0.23801823,0.03843363,0.38005507,-0.0040722145,0.0031466503,8.76275e-06,0.0,0.0,1.388169e-07,0.00079475006,0.01886682,1.3959582e-06,5.516044e-06,5.428703e-06,3.3681063e-05,0.011062029,0.011049141,0.010800944,0.044713706,0.044705685,0.057251185,1.0461064e-11,1.046629e-11,1.7885991e-11,5e-08,5e-08,5e-08,0.0,0.0,0.0,0.0,0.0,0.0,0.0,0.0,663,0.29903075,0.23927219,0.026532346,0.07451294,0.02943251,0.031009272,0.0,0.0,0.0,-0.004981,0,0,0,831,24,0,0,0
1076740795,-0.9794165,-0.02309148,0.05607284,-0.19252546,0.15769535,0.004562227,-1.1971282,6.4970584,-0.5998976,-7.8766303,-2.161742e-05,1.2219016e-06,5.779625e-07,-0.00031193192,0.00014352442,-0.00022125825,0.23801823,0.03843363,0.38005507,-0.0040722145,0.0031466503,8.76275e-06,0.0,0.0,1.2869542e-07,0.0007509835,0.019369045,1.4083198e-06,5.5135033e-06,5.442626e-06,3.3688855e-05,0.011122689,0.01110975,0.01079092,0.045121416,0.045112804,0.057085246,1.0465647e-11,1.0470725e-11,1.7890254e-11,5e-08,5e-08,5e-08,0.0,0.0,0.0,0.0,0.0,0.0,0.0,0.0,663,0.30039012,0.23892519,0.020438854,0.06450571,0.03984897,0.006444983,0.0,0.0,0.0,-0.004992,0,0,0,831,24,0,0,0
1076941606,-0.9789641,-0.026580468,0.057047863,-0.19408351,0.1391929,0.023491455,-1.2356278,6.546313,-0.61344355,-8.121268,-2.1552776e-05,1.2698487e-06,5.1959887e-07,-0.00031106322,0.00014342136,-0.00021401746,0.23801823,0.03843363,0.38005507,-0.0040722145,0.0031466503,8.76275e-06,0.0,0.0,1.1530443e-07,0.0007241081,0.018798707,1.4289085e-06,5.5127243e-06,5.4460475e-06,3.3657172e-05,0.011100661,0.011088189,0.010746664,0.04505326,0.045044277,0.05655839,1.0462543e-11,1.0467351e-11,1.7886637e-11,5e-08,5e-08,5e-08,0.0,0.0,0.0,0.0,0.0,0.0,0.0,0.0,663,0.3001625,0.23782007,0.014603536,0.07543438,0.04520937,0.010592113,0.0,0.0,0.0,-0.004975,0,0,0,831,24,0,0,0
1077141630,-0.9788751,-0.027176116,0.056212783,-0.19469215,0.12469123,0.045219123,-1.2737532,6.6004715,-0.6315286,-8.358226,-2.1439182e-05,1.3309275e-06,4.5163247e-07,-0.00031103898,0.00014249154,-0.00021897258,0.23801823,0.03843363,0.38005507,-0.0040722145,0.0031466503,8.76275e-06,0.0,0.0,9.49537e-08,0.0006207826,0.01729758,1.4345874e-06,5.5098544e-06,5.449354e-06,3.365019e-05,0.01110281,0.011091516,0.010801263,0.045002382,0.044993013,0.05700928,1.04643655e-11,1.0468843e-11,1.7888328e-11,5e-08,5e-08,5e-08,0.0,0.0,0.0,0.0,0.0,0.0,0.0,0.0,663,0.29999232,0.23876616,0.015109781,0.02746864,0.06190952,0.017426278,0.0,0.0,0.0,-0.004952,0,0,0,831,24,0,0,0
1077350401,-0.9789988,-0.02574667,0.054522295,-0.19474599,0.09947143,0.06955452,-1.3147928,6.6525097,-0.64840144,-8.626407,-2.1295678e-05,1.3797893e-06,3.8261933e-07,-0.00031060225,0.00014180173,-0.00021676943,0.23801823,0.03843363,0.38005507,-0.0040722145,0.0031466503,8.76275e-06,0.0,0.0,1.2187705e-07,0.0007819405,0.018600745,1.4324727e-06,5.512635e-06,5.457547e-06,3.3673336e-05,0.011159219,0.011149564,0.010884054,0.04521307,0.045203228,0.057687365,1.0468833e-11,1.0472904e-11,1.7891964e-11,5.0000068e-08,5.0000068e-08,5.0000047e-08,0.0,0.0,0.0,0.0,0.0,0.0,0.0,0.0,663,0.30069304,0.24018194,0.028392036,0.051220033,0.059533816,0.017310616,0.0,0.0,0.0,-0.00498,0,0,0,831,24,0,0,0
1077550441,-0.9790504,-0.02595255,0.05286251,-0.19491641,0.079158954,0.09665805,-1.339387,6.6888924,-0.64328533,-8.893594,-2.1272457e-05,1.4195003e-06,3.3493131e-07,-0.000310131,0.00014170325,-0.00021393415,0.23801823,0.03843363,0.38005507,-0.0040722145,0.0031466503,8.76275e-06,0.0,0.0,9.9102095e-08,0.0006768116,0.017693106,1.4342212e-06,5.5110027e-06,5.4628026e-06,3.3726203e-05,0.01117537,0.011167791,0.010841206,0.045263786,0.045253757,0.057286873,1.0471814e-11,1.04753645e-11,1.7904365e-11,5.000007e-08,5.000007e-08,5.000007e-08,0.0,0.0,0.0,0.0,0.0,0.0,0.0,0.0,663,0.30086133,0.23934676,0.010282514,0.034896407,0.05156097,0.010632478,0.0,0.0,0.0,-0.004941,0,0,0,831,24,0,0,0
1077751189,-0.9790026,-0.02591978,0.051865403,-0.19542795,0.03927378,0.1237039,-1.3731487,6.7267,-0.6468331,-9.178587,-2.1141557e-05,1.470556e-06,2.7782835e-07,-0.00030929912,0.00014141711,-0.00020583675,0.23801823,0.03843363,0.38005507,-0.0040722145,0.0031466503,8.76275e-06,0.0,0.0,1.0029803e-07,0.0006812227,0.017158594,1.4389739e-06,5.511239e-06,5.467388e-06,3.3719356e-05,0.011202104,0.011197663,0.010805719,0.045386728,0.0453767,0.056935135,1.0474511e-11,1.0477448e-11,1.7905068e-11,5.000007e-08,5.000007e-08,5.000007e-08,0.0,0.0,0.0,0.0,0.0,0.0,0.0,0.0,663,0.30126968,0.23861085,0.013765938,0.056961372,0.048160225,0.002232873,0.0,0.0,0.0,-0.004993,0,0,0,831,24,0,0,0
1077955990,-0.97889197,-0.02398333,0.052581746,-0.19603756,0.013037214,0.14115438,-1.3653468,6.7452354,-0.64346856,-9.431936,-2.104563e-05,1.4661081e-06,2.2852942e-07,-0.00030996974,0.00014046225,-0.00021664561,0.23801823,0.03843363,0.38005507,-0.0040722145,0.0031466503,8.76275e-06,0.0,0.0,1.11697105e-07,0.0007521702,0.017694077,1.4447085e-06,5.5251835e-06,5.4772645e-06,3.3673154e-05,0.011278622,0.01127696,0.010813575,0.04582968,0.045819692,0.05688657,1.0480716e-11,1.0482981e-11,1.7896375e-11,5.0000033e-08,5.0000033e-08,5.0000015e-08,0.0,0.0,0.0,0.0,0.0,0.0,0.0,0.0,663,0.30273646,0.23850906,0.0056702364,0.03902506,0.046080846,0.01606178,0.0,0.0,0.0,-0.00499,0,0,0,831,24,0,0,0
1078156008,-0.97896254,-0.023060555,0.053697076,-0.1954927,-0.030760579,0.14810833,-1.3764133,6.7599196,-0.6339858,-9.68511,-2.0971991e-05,1.5044167e-06,1.8261326e-07,-0.0003101275,0.00013985904,-0.0002214037,0.23801823,0.03843363,0.38005507,-0.0040722145,0.0031466503,8.76275e-06,0.0,0.0,1.0339124e-07,0.00069527555,0.017781835,1.4362093e-06,5.5314567e-06,5.4795505e-06,3.3671797e-05,0.011290144,0.01129285,0.010860498,0.045894664,0.045885235,0.057196297,1.04794905e-11,1.0480947e-11,1.7891013e-11,5.0000068e-08,5.0000068e-08,5.000005e-08,0.0,0.0,0.0,0.0,0.0,0.0,0.0,0.0,663,0.302952,0.23915747,0.015030254,0.023488391,0.047119226,0.011268918,0.0,0.0,0.0,-0.004972,0,0,0,831,24,0,0,0
1078356816,-0.97929525,-0.022069437,0.05425094,-0.19377968,-0.04834357,0.13918373,-1.4224184,6.7666,-0.6297369,-9.961469,-2.086587e-05,1.5174543e-06,1.2944841e-07,-0.00031005993,0.00013936592,-0.00022149655,0.23801823,0.03843363,0.38005507,-0.0040722145,0.0031466503,8.76275e-06,0.0,0.0,1.17631075e-07,0.00078602135,0.019847061,1.4113134e-06,5.537285e-06,5.483005e-06,3.3690343e-05,0.011335168,0.011340686,0.010740483,0.04603599,0.04602744,0.0560877,1.0482269e-11,1.0482776e-11,1.789082e-11,5e-08,5e-08,5e-08,0.0,0.0,0.0,0.0,0.0,0.0,0.0,0.0,663,0.30341956,0.23682842,0.015944589,0.0390777,0.047789384,0.016968088,0.0,0.0,0.0,-0.004964,0,0,0,831,24,0,0,0
1078557577,-0.97947294,-0.020841561,0.053975493,-0.19309331,-0.056828212,0.14686199,-1.4357027,6.7730894,-0.6141616,-10.217354,-2.0816402e-05,1.5760851e-06,9.269916e-08,-0.00031049913,0.0001386581,-0.00023066172,0.23801823,0.03843363,0.38005507,-0.0040722145,0.0031466503,8.76275e-06,0.0,0.0,1.2272716e-07,0.0008477812,0.01969452,1.4024464e-06,5.5414853e-06,5.4872094e-06,3.3748547e-05,0.011370874,0.011377889,0.010805521,0.046193663,0.046186242,0.056598373,1.0483898e-11,1.04833755e-11,1.789994e-11,5.000007e-08,5.000007e-08,5.000007e-08,0.0,0.0,0.0,0.0,0.0,0.0,0.0,0.0,663,0.30394062,0.23790413,0.014838408,0.028661931,0.042917088,0.031226702,0.0,0.0,0.0,-0.005003,0,0,0,831,24,0,0,0
1078765661,-0.9793081,-0.020673027,0.053995337,-0.19394,-0.053326167,0.16088957,-1.4394438,6.7651534,-0.60240364,-10.49035,-2.0759368e-05,1.5428044e-06,4.889638e-08,-0.0003110508,0.00013809366,-0.00023729973,0.23801823,0.03843363,0.38005507,-0.0040722145,0.0031466503,8.76275e-06,0.0,0.0,1.0203036e-07,0.00074071274,0.017809406,1.4115085e-06,5.553587e-06,5.4993284e-06,3.3698256e-05,0.011459893,0.01146616,0.010737867,0.04666064,0.04665458,0.055881653,1.0491194e-11,1.0489593e-11,1.7892299e-11,5e-08,5e-08,5e-08,0.0,0.0,0.0,0.0,0.0,0.0,0.0,0.0,663,0.30547538,0.236393,0.009693007,0.062995456,0.045003735,0.0012257829,0.0,0.0,0.0,-0.004965,0,0,0,831,24,0,0,0
1078966392,-0.9791817,-0.021010073,0.051791288,-0.19514008,-0.07287389,0.15798354,-1.5028386,6.7541814,-0.5879851,-10.787906,-2.0721556e-05,1.5023453e-06,1.1925646e-08,-0.00031082905,0.00013817416,-0.00023230117,0.23801823,0.03843363,0.38005507,-0.0040722145,0.0031466503,8.76275e-06,0.0,0.0,1.18331975e-07,0.00073872873,0.016590688,1.4254992e-06,5.5505543e-06,5.5035744e-06,3.3681572e-05,0.01150952,0.011517005,0.010808346,0.046816494,0.04681184,0.056441188,1.04913465e-11,1.0488565e-11,1.7889886e-11,5.0000068e-08,5.0000068e-08,5.000005e-08,0.0,0.0,0.0,0.0,0.0,0.0,0.0,0.0,663,0.30598748,0.23757355,0.0072544846,0.06008225,0.042919062,0.01144272,0.0,0.0,0.0,-0.004989,0,0,0,831,24,0,0,0
1079167202,-0.9786758,-0.021382967,0.054197557,-0.19697498,-0.07404028,0.15639876,-1.5554763,6.749388,-0.5756763,-11.09824,-2.0647587e-05,1.5153925e-06,-2.3550761e-08,-0.00031053144,0.00013803688,-0.00022856788,0.23801823,0.03843363,0.38005507,-0.0040722145,0.0031466503,8.76275e-06,0.0,0.0,1.18868854e-07,0.0006892912,0.016123394,1.4539319e-06,5.5610985e-06,5.5067744e-06,3.369625e-05,0.011570012,0.011577305,0.010792256,0.04705828,0.047055136,0.05624853,1.0494076e-11,1.0489976e-11,1.7900481e-11,5.000007e-08,5.000007e-08,5.000007e-08,0.0,0.0,0.0,0.0,0.0,0.0,0.0,0.0,663,0.3067791,0.23716773,0.0057852687,0.056647,0.041044917,0.023685656,0.0,0.0,0.0,-0.004978,0,0,0,831,24,0,0,0
1079375208,-0.978292,-0.019519484,0.05641659,-0.19844638,-0.09856913,0.16359171,-1.5596658,6.728144,-0.55716693,-11.420765,-2.0625726e-05,1.4578906e-06,-5.8718907e-08,-0.0003106135,0.00013803957,-0.00022646811,0.23801823,0.03843363,0.38005507,-0.0040722145,0.0031466503,8.76275e-06,0.0,0.0,1.5366379e-07,0.00087827304,0.018912824,1.4734051e-06,5.5787336e-06,5.515189e-06,3.3630604e-05,0.011656545,0.01166429,0.010730454,0.047594536,0.04759289,0.055601038,1.0500664e-11,1.04952245e-11,1.7892498e-11,5e-08,5e-08,5e-08,0.0,0.0,0.0,0.0,0.0,0.0,0.0,0.0,663,0.3085246,0.23579872,0.012161004,0.053117063,0.03919657,0.007845895,0.0,0.0,0.0,-0.004974,0,0,0,831,24,0,0,0
1079579988,-0.97811323,-0.018166702,0.0575233,-0.19913678,-0.09654724,0.16881749,-1.5350548,6.7042985,-0.53494185,-11.75307,-2.06176e-05,1.4099951e-06,-8.185534e-08,-0.00031046636,0.0001382143,-0.00022173779,0.23801823,0.03843363,0.38005507,-0.0040722145,0.0031466503,8.76275e-06,0.0,0.0,1.210959e-07,0.00075960543,0.017273374,1.4837875e-06,5.592789e-06,5.5241712e-06,3.3630127e-05,0.011717093,0.011722661,0.010755387,0.04810405,0.04810378,0.05571926,1.0505421e-11,1.0498588e-11,1.7893954e-11,5e-08,5e-08,5e-08,0.0,0.0,0.0,0.0,0.0,0.0,0.0,0.0,663,0.31017387,0.23604928,0.011679998,0.036732066,0.038832713,0.024407068,0.0,0.0,0.0,-0.004992,0,0,0,831,24,0,0,0
1079780820,-0.9781015,-0.015839525,0.059422277,-0.1988359,-0.107457794,0.17878391,-1.5098747,6.6832066,-0.50684947,-12.03978,-2.0632948e-05,1.4017185e-06,-1.0376741e-07,-0.00031078016,0.0001380689,-0.00022502021,0.23801823,0.03843363,0.38005507,-0.0040722145,0.0031466503,8.76275e-06,0.0,0.0,1.1719719e-07,0.0007216482,0.017860059,1.4797585e-06,5.6013923e-06,5.5244877e-06,3.36204e-05,0.011709477,0.011713803,0.010813739,0.04824261,0.048243385,0.056159057,1.050306e-11,1.04948e-11,1.7887757e-11,5e-08,5e-08,5e-08,0.0,0.0,0.0,0.0,0.0,0.0,0.0,0.0,663,0.31062195,0.23697902,0.007261054,0.032902557,0.033932533,0.020964848,0.0,0.0,0.0,-0.004962,0,0,0,831,24,0,0,0
1079980837,-0.9782291,-0.013973286,0.060971376,-0.19787644,-0.08061237,0.16549763,-1.5051752,6.6663074,-0.48711422,-12.337183,-2.0583439e-05,1.3909024e-06,-1.2562016e-07,-0.00031083054,0.00013786592,-0.0002250701,0.23801823,0.03843363,0.38005507,-0.0040722145,0.0031466503,8.76275e-06,0.0,0.0,1.2512125e-07,0.0007817116,0.018474784,1.4666219e-06,5.6102062e-06,5.5268374e-06,3.3623484e-05,0.011728636,0.011728736,0.010790448,0.048462234,0.048463788,0.05597444,1.0505001e-11,1.0495219e-11,1.7887008e-11,5.0000036e-08,5.0000036e-08,5.0000036e-08,0.0,0.0,0.0,0.0,0.0,0.0,0.0,0.0,663,0.31132942,0.23658918,0.013734759,0.02304428,0.03178238,0.008189779,0.0,0.0,0.0,-0.004943,0,0,0,831,24,0,0,0
1080181617,-0.97841924,-0.01241039,0.061562426,-0.19685492,-0.086820565,0.15610105,-1.4660921,6.6299486,-0.46282768,-12.60918,-2.062229e-05,1.2746432e-06,-1.408453e-07,-0.00031178488,0.00013747893,-0.00023413304,0.23801823,0.03843363,0.38005507,-0.0040722145,0.0031466503,8.76275e-06,0.0,0.0,1.13391174e-07,0.00073505775,0.017345406,1.4519527e-06,5.617976e-06,5.5315068e-06,3.362938e-05,0.01174077,0.011737886,0.010768601,0.048720732,0.048722662,0.055780258,1.0506392e-11,1.0495075e-11,1.7884463e-11,5e-08,5e-08,5e-08,0.0,0.0,0.0,0.0,0.0,0.0,0.0,0.0,663,0.31215924,0.23617844,0.010191929,0.097332895,0.028290797,0.0032663974,0.0,0.0,0.0,-0.004965,0,0,0,831,24,0,0,0
1080389660,-0.9785733,-0.012734579,0.061201222,-0.19617979,-0.07833164,0.1469339,-1.4782507,6.5959435,-0.42932802,-12.915613,-2.0707463e-05,1.1904075e-06,-1.4493743e-07,-0.0003119941,0.00013780515,-0.00023176831,0.23801823,0.03843363,0.38005507,-0.0040722145,0.0031466503,8.76275e-06,0.0,0.0,1.0349233e-07,0.0006697848,0.017220123,1.4425749e-06,5.630118e-06,5.544863e-06,3.3653214e-05,0.011846723,0.011839851,0.010789583,0.049364556,0.04936648,0.055929493,1.0513902e-11,1.0500998e-11,1.7887983e-11,5.0000036e-08,5.0000036e-08,5.0000036e-08,0.0,0.0,0.0,0.0,0.0,0.0,0.0,0.0,663,0.31421497,0.23649417,0.013558564,0.08320994,0.02109468,0.0003303204,0.0,0.0,0.0,-0.004968,0,0,0,831,24,0,0,0
1080590412,-0.97888595,-0.011957557,0.05930237,-0.19524981,-0.08507958,0.12806764,-1.680672,6.5406103,-0.3948524,-13.219983,-2.0861424e-05,9.997501e-07,-1.3467728e-07,-0.0003127773,0.00013821937,-0.00023267086,0.23801823,0.03843363,0.38005507,-0.0040722145,0.0031466503,8.76275e-06,0.0,0.0,1.3384256e-07,0.00078778894,0.018121427,1.4277229e-06,5.628445e-06,5.549602e-06,3.3665587e-05,0.012005547,0.0119946385,0.010853183,0.049742475,0.04974403,0.056516886,1.0514283e-11,1.0499708e-11,1.7885499e-11,5e-08,5e-08,5e-08,0.0,0.0,0.0,0.0,0.0,0.0,0.0,0.0,663,0.31541482,0.2377328,0.012412034,0.17547369,0.013861542,0.018777665,0.0,0.0,0.0,-0.004969,0,0,0,831,24,0,0,0
1080791210,-0.97898054,-0.010970208,0.057406772,-0.19540063,-0.10324953,0.11416693,-2.117377,6.513983,-0.37649065,-13.60081,-2.0861571e-05,9.68589e-07,-1.5595774e-07,-0.0003127974,0.00013832151,-0.00023015095,0.23801823,0.03843363,0.38005507,-0.0040722145,0.0031466503,8.76275e-06,0.0,0.0,1.3537839e-07,0.0007542044,0.01717788,1.4272155e-06,5.6236354e-06,5.5519185e-06,3.3664393e-05,0.012317578,0.0123047335,0.010817748,0.050243717,0.05024467,0.056282386,1.0515356e-11,1.0498981e-11,1.7884732e-11,5e-08,5e-08,5e-08,0.0,0.0,0.0,0.0,0.0,0.0,0.0,0.0,663,0.31699905,0.2372391,0.0030150162,0.03335807,0.012839909,0.0073350063,0.0,0.0,0.0,-0.00497,0,0,0,831,24,0,0,0
1080999207,-0.97869855,-0.008508497,0.06134453,-0.19573864,-0.10505004,0.09561296,-2.651017,6.459763,-0.34692037,-14.07405,-2.0995076e-05,8.1793905e-07,-1.2449492e-07,-0.00031450173,0.00013881926,-0.00023985856,0.23801823,0.03843363,0.38005507,-0.0040722145,0.0031466503,8.76275e-06,0.0,0.0,1.2368932e-07,0.00069659174,0.017119644,1.4358137e-06,5.637655e-06,5.5501914e-06,3.3657972e-05,0.012748056,0.012730554,0.010910787,0.051140696,0.051140714,0.05714149,1.0517348e-11,1.0499045e-11,1.7887967e-11,5.0000036e-08,5.0000036e-08,5.0000036e-08,0.0,0.0,0.0,0.0,0.0,0.0,0.0,0.0,663,0.31981465,0.23904286,0.0013358975,0.13417687,0.0143208355,0.08213912,0.0,0.0,0.0,-0.004973,0,0,0,831,24,0,0,0
1081199999,-0.97816867,-0.009852734,0.0678394,-0.19618088,-0.06036166,0.078003414,-2.9019604,6.4320908,-0.32443035,-14.604892,-2.10556e-05,7.958583e-07,-1.320282e-07,-0.00031535025,0.00013885231,-0.00025035546,0.23801823,0.03843363,0.38005507,-0.0040722145,0.0031466503,8.76275e-06,0.0,0.0,1.5937201e-07,0.00081280916,0.018815931,1.4467479e-06,5.6479917e-06,5.5330156e-06,3.3622397e-05,0.012920494,0.012897667,0.010955952,0.05179855,0.051797178,0.057633024,1.0511347e-11,1.0491043e-11,1.788526e-11,5.0000107e-08,5.0000104e-08,5.0000093e-08,0.0,0.0,0.0,0.0,0.0,0.0,0.0,0.0,663,0.3218629,0.2400688,0.0074208733,0.03667622,0.014878626,0.050003722,0.0,0.0,0.0,-0.004981,0,0,0,831,24,0,0,0
1081404798,-0.97791034,-0.0078061507,0.0726953,-0.19582121,-0.01424067,0.07349632,-2.9664652,6.4110203,-0.29721382,-15.187164,-2.1145572e-05,7.612905e-07,-1.3601064e-07,-0.00031624097,0.00013922443,-0.00025808104,0.23801823,0.03843363,0.38005507,-0.0040722145,0.0031466503,8.76275e-06,0.0,0.0,1.3261648e-07,0.00073351414,0.017474169,1.4437768e-06,5.6583676e-06,5.5219393e-06,3.3569162e-05,0.0130014615,0.012974709,0.010939719,0.05269583,0.052692417,0.057589516,1.0509786e-11,1.0487586e-11,1.7877547e-11,5.0000036e-08,5.0000033e-08,5.0000022e-08,0.0,0.0,0.0,0.0,0.0,0.0,0.0,0.0,663,0.32463557,0.23997816,0.0014429499,0.06095762,0.011769644,0.0018538759,0.0,0.0,0.0,-0.004987,0,0,0,831,24,0,0,0
1081604831,-0.9779752,-0.0061692707,0.07203624,-0.19579908,0.046117358,0.07191752,-2.9381669,6.3958316,-0.26886982,-15.722677,-2.125414e-05,7.0791947e-07,-1.2782196e-07,-0.0003176512,0.00013942338,-0.00027326806,0.23801823,0.03843363,0.38005507,-0.0040722145,0.0031466503,8.76275e-06,0.0,0.0,1.17116265e-07,0.0007135623,0.01834238,1.4419289e-06,5.640107e-06,5.508175e-06,3.356435e-05,0.012939797,0.012910467,0.010966461,0.05309856,0.053092726,0.057875864,1.0500822e-11,1.04768295e-11,1.787185e-11,5.000007e-08,5.0000068e-08,5.0000057e-08,0.0,0.0,0.0,0.0,0.0,0.0,0.0,0.0,663,0.32587004,0.24057403,0.011820432,0.05936572,0.016839884,0.007420449,0.0,0.0,0.0,-0.004958,0,0,0,831,24,0,0,0
1081805604,-0.97807384,-0.0059973495,0.069819376,-0.19611438,0.09239783,0.035287656,-2.9617808,6.393421,-0.2647681,-16.284504,-2.1240776e-05,6.285248e-07,-1.382555e-07,-0.00031875182,0.00013885589,-0.00028123774,0.23801823,0.03843363,0.38005507,-0.0040722145,0.0031466503,8.76275e-06,0.0,0.0,1.0206317e-07,0.0006446876,0.018077591,1.4431606e-06,5.615485e-06,5.4949937e-06,3.3564225e-05,0.012905595,0.01287315,0.010819918,0.053468566,0.05346003,0.056672946,1.0494093e-11,1.0468278e-11,1.7869753e-11,5e-08,5e-08,5e-08,0.0,0.0,0.0,0.0,0.0,0.0,0.0,0.0,663,0.3269994,0.2380608,0.008916474,0.05854988,0.020690499,0.018687906,0.0,0.0,0.0,-0.004977,0,0,0,831,24,0,0,0
1082014435,-0.97815806,-0.0074336017,0.06782604,-0.19634494,0.119112566,-0.0053526387,-3.0347166,6.391881,-0.251817,-16.88713,-2.1338461e-05,5.4883714e-07,-1.3243864e-07,-0.00031983957,0.00013927442,-0.00028760737,0.23801823,0.03843363,0.38005507,-0.0040722145,0.0031466503,8.76275e-06,0.0,0.0,1.0603084e-07,0.0006773185,0.018703533,1.4445407e-06,5.6010485e-06,5.4903544e-06,3.3583703e-05,0.012969616,0.012932565,0.010820062,0.05414447,0.05413263,0.056687318,1.0494665e-11,1.0467094e-11,1.7873708e-11,5.0000036e-08,5.0000036e-08,5.0000036e-08,0.0,0.0,0.0,0.0,0.0,0.0,0.0,0.0,663,0.32905486,0.23809099,0.0012556475,0.06714603,0.024224501,0.055910848,0.0,0.0,0.0,-0.004947,0,0,0,831,24,0,0,0
1082214398,-0.9781684,-0.010052847,0.06691556,-0.196489,0.14244324,-0.02341877,-2.993663,6.395518,-0.23947914,-17.460014,-2.1454005e-05,4.9112884e-07,-1.4212773e-07,-0.00032086772,0.00013967839,-0.00029802008,0.23801823,0.03843363,0.38005507,-0.0040722145,0.0031466503,8.76275e-06,0.0,0.0,1.2333022e-07,0.00078947353,0.018847615,1.4444563e-06,5.58476e-06,5.479393e-06,3.358131e-05,0.01289334,0.012854306,0.010862612,0.054409377,0.054394532,0.057155337,1.0491918e-11,1.0462646e-11,1.7873567e-11,5e-08,5e-08,5e-08,0.0,0.0,0.0,0.0,0.0,0.0,0.0,0.0,663,0.32985437,0.23907183,0.027294718,0.056354582,0.027484467,0.0537875,0.0,0.0,0.0,-0.004982,0,0,0,831,24,0,0,0
1082415206,-0.97826314,-0.010814771,0.06471728,-0.19671294,0.1728851,-0.032652054,-2.9671743,6.4267106,-0.23324022,-18.038763,-2.1492455e-05,5.442371e-07,-1.936425e-07,-0.0003208009,0.00013974772,-0.00030218498,0.23801823,0.03843363,0.38005507,-0.0040722145,0.0031466503,8.76275e-06,0.0,0.0,1.01341165e-07,0.00070084597,0.017153105,1.4431126e-06,5.564236e-06,5.470596e-06,3.3582506e-05,0.012812929,0.012773461,0.0108149415,0.054569744,0.05455214,0.05678726,1.0488139e-11,1.0457201e-11,1.7871519e-11,5e-08,5e-08,5e-08,0.0,0.0,0.0,0.0,0.0,0.0,0.0,0.0,663,0.33033603,0.23830077,0.015710574,0.043938413,0.026125532,0.041284747,0.0,0.0,0.0,-0.004975,0,0,0,831,24,0,0,0
1082623181,-0.9782524,-0.012481344,0.06426895,-0.1968144,0.1707387,-0.04456355,-2.9613435,6.4407988,-0.22526841,-18.629297,-2.1597956e-05,4.839445e-07,-2.1412677e-07,-0.00032172733,0.00014005303,-0.00031109608,0.23801823,0.03843363,0.38005507,-0.0040722145,0.0031466503,8.76275e-06,0.0,0.0,8.8265125e-08,0.00065759517,0.016862309,1.4432943e-06,5.559527e-06,5.469631e-06,3.3597007e-05,0.012812323,0.012771094,0.010815781,0.055021595,0.055000912,0.056790456,1.0491241e-11,1.0458685e-11,1.7875519e-11,5.0000036e-08,5.0000036e-08,5.0000036e-08,0.0,0.0,0.0,0.0,0.0,0.0,0.0,0.0,663,0.33169642,0.23830748,0.007533311,0.05418891,0.029442022,0.018801596,0.0,0.0,0.0,-0.004999,0,0,0,831,24,0,0,0
1082824000,-0.9783392,-0.011238338,0.062067896,-0.19716403,0.16787651,-0.043474548,-2.935064,6.441087,-0.23103908,-19.21707,-2.1647533e-05,3.311518e-07,-2.2733155e-07,-0.00032254466,0.00014040146,-0.00030563498,0.23801823,0.03843363,0.38005507,-0.0040722145,0.0031466503,8.76275e-06,0.0,0.0,1.0226677e-07,0.00076693186,0.01774812,1.4448306e-06,5.54446e-06,5.464326e-06,3.359427e-05,0.012726838,0.012687102,0.010784552,0.05505322,0.05503029,0.056504697,1.0489581e-11,1.0455443e-11,1.787358e-11,5.0000036e-08,5.0000036e-08,5.0000036e-08,0.0,0.0,0.0,0.0,0.0,0.0,0.0,0.0,663,0.33178833,0.23770717,0.014974768,0.09693715,0.03279066,0.0069680414,0.0,0.0,0.0,-0.00498,0,0,0,831,24,0,0,0
1083028814,-0.97853255,-0.009919161,0.06040871,-0.19679007,0.16018784,-0.044580188,-2.9330642,6.4639993,-0.2282276,-19.821941,-2.1705015e-05,3.2142725e-07,-2.5664576e-07,-0.00032270036,0.0001407373,-0.00030209246,0.23801823,0.03843363,0.38005507,-0.0040722145,0.0031466503,8.76275e-06,0.0,0.0,9.137536e-08,0.0006555766,0.01604704,1.4371038e-06,5.5410705e-06,5.468764e-06,3.362e-05,0.012735239,0.012695425,0.010800058,0.055432446,0.055407062,0.056579743,1.0495416e-11,1.0459733e-11,1.787766e-11,5.000007e-08,5.000007e-08,5.000007e-08,0.0,0.0,0.0,0.0,0.0,0.0,0.0,0.0,663,0.33292568,0.23786497,0.011939553,0.10593927,0.032567035,0.0052572424,0.0,0.0,0.0,-0.004974,0,0,0,831,24,0,0,0
1083228816,-0.9783104,-0.011625403,0.063479826,-0.19683497,0.1689936,-0.06846947,-2.8981926,6.498978,-0.24530919,-20.398296,-2.1642385e-05,3.5747976e-07,-3.0875637e-07,-0.00032248851,0.00014045273,-0.0003006546,0.23801823,0.03843363,0.38005507,-0.0040722145,0.0031466503,8.76275e-06,0.0,0.0,8.051519e-08,0.0006315459,0.015738996,1.4378506e-06,5.544218e-06,5.4621496e-06,3.360227e-05,0.012641551,0.012600954,0.010855842,0.055313177,0.05528625,0.05698752,1.0492463e-11,1.045526e-11,1.7872058e-11,5.000007e-08,5.000007e-08,5.0000065e-08,0.0,0.0,0.0,0.0,0.0,0.0,0.0,0.0,663,0.33256492,0.2387206,0.018477773,0.06664532,0.029082313,0.007059548,0.0,0.0,0.0,-0.004964,0,0,0,831,24,0,0,0
1083429595,-0.9783616,-0.012136283,0.062692724,-0.1968021,0.1515678,-0.07800993,-2.8576195,6.5171294,-0.26073283,-20.960382,-2.1642421e-05,3.1650933e-07,-3.3609405e-07,-0.00032286078,0.00014033762,-0.00030461993,0.23801823,0.03843363,0.38005507,-0.0040722145,0.0031466503,8.76275e-06,0.0,0.0,1.2226559e-07,0.00076767575,0.016626643,1.4372224e-06,5.539403e-06,5.462072e-06,3.3652213e-05,0.012573576,0.012533153,0.010826032,0.055281773,0.05525337,0.056719013,1.0493744e-11,1.0454957e-11,1.7881158e-11,5.000007e-08,5.000007e-08,5.000007e-08,0.0,0.0,0.0,0.0,0.0,0.0,0.0,0.0,663,0.33246827,0.23815754,0.004251079,0.021720318,0.03292321,0.0049268506,0.0,0.0,0.0,-0.004986,0,0,0,831,24,0,0,0
1083638439,-0.9783372,-0.0134910615,0.06211924,-0.19701675,0.14540985,-0.08712333,-2.8371212,6.538866,-0.28224364,-21.557863,-2.1614169e-05,2.900449e-07,-3.9088127e-07,-0.0003229298,0.00014031307,-0.00030268167,0.23801823,0.03843363,0.38005507,-0.0040722145,0.0031466503,8.76275e-06,0.0,0.0,9.968822e-08,0.0006799087,0.015104325,1.4361515e-06,5.5456003e-06,5.4729044e-06,3.3613433e-05,0.012594845,0.012555235,0.01075265,0.055625547,0.05559525,0.056011487,1.0502522e-11,1.0462318e-11,1.787377e-11,5e-08,5.000002e-08,5e-08,0.0,0.0,0.0,0.0,0.0,0.0,0.0,0.0,663,0.33349782,0.23666745,0.01099169,0.036352087,0.031179374,0.009592086,0.0,0.0,0.0,-0.004941,0,0,0,831,24,0,0,0
1083838408,-0.97836,-0.015140848,0.059887554,-0.19747405,0.1467676,-0.069679424,-2.7786252,6.5617676,-0.30764073,-22.128538,-2.1560232e-05,2.6490963e-07,-4.270435e-07,-0.0003229335,0.00014023129,-0.00029848766,0.23801823,0.03843363,0.38005507,-0.0040722145,0.0031466503,8.76275e-06,0.0,0.0,8.209006e-08,0.00060136337,0.014688276,1.4413733e-06,5.538463e-06,5.4769075e-06,3.366158e-05,0.01251716,0.012481772,0.010817426,0.055560496,0.05552943,0.056591034,1.0505992e-11,1.0464265e-11,1.788476e-11,5.000009e-08,5.0000136e-08,5.000007e-08,0.0,0.0,0.0,0.0,0.0,0.0,0.0,0.0,663,0.33330157,0.2378887,0.004175638,0.04989861,0.028132707,0.0026382767,0.0,0.0,0.0,-0.004974,0,0,0,831,24,0,0,0
1084039206,-0.97835714,-0.012536612,0.059353366,-0.19783174,0.105821304,-0.048950423,-2.7625709,6.57382,-0.3233506,-22.677128,-2.15514e-05,2.097853e-07,-4.7409748e-07,-0.0003231637,0.00014018134,-0.0002973539,0.23801823,0.03843363,0.38005507,-0.0040722145,0.0031466503,8.76275e-06,0.0,0.0,1.1037799e-07,0.0007021184,0.01480066,1.4436418e-06,5.541497e-06,5.481497e-06,3.3654887e-05,0.012489665,0.012457868,0.010793115,0.055519473,0.05548811,0.056354277,1.0509974e-11,1.0466898e-11,1.788278e-11,5.00001e-08,5.0000157e-08,5.0000036e-08,0.0,0.0,0.0,0.0,0.0,0.0,0.0,0.0,663,0.333178,0.23739056,0.027416179,0.044177298,0.027845375,0.021338994,0.0,0.0,0.0,-0.004976,0,0,0,831,24,0,0,0
1084247193,-0.9780812,-0.014332787,0.062751636,-0.19802533,0.069643855,-0.04412701,-2.8018298,6.5914936,-0.33823067,-23.251848,-2.1512567e-05,2.2344524e-07,-5.130346e-07,-0.00032320886,0.00014004105,-0.00029656597,0.23801823,0.03843363,0.38005507,-0.0040722145,0.0031466503,8.76275e-06,0.0,0.0,1.0183243e-07,0.00064757664,0.014888666,1.4481235e-06,5.563851e-06,5.493153e-06,3.3655455e-05,0.012564296,0.012534858,0.01081291,0.05582491,0.055793118,0.056472052,1.051986e-11,1.0475354e-11,1.7886644e-11,5.0000185e-08,5.000025e-08,5.000007e-08,0.0,0.0,0.0,0.0,0.0,0.0,0.0,0.0,663,0.33409286,0.23763849,0.011763231,0.05195415,0.02713536,0.010413867,0.0,0.0,0.0,-0.004988,0,0,0,831,24,0,0,0
1084451990,-0.9778201,-0.017515127,0.06549627,-0.19816983,0.08867894,-0.058861922,-2.8282015,6.6047072,-0.36171034,-23.835035,-2.144085e-05,2.1614248e-07,-5.688683e-07,-0.00032315546,0.00013990571,-0.0002906287,0.23801823,0.03843363,0.38005507,-0.0040722145,0.0031466503,8.76275e-06,0.0,0.0,1.010927e-07,0.0006962703,0.016330983,1.4490614e-06,5.581475e-06,5.5037026e-06,3.3602166e-05,0.012600728,0.012571931,0.010741853,0.05596049,0.055928696,0.055677466,1.05241866e-11,1.04782944e-11,1.787374e-11,5.0000164e-08,5.0000253e-08,5e-08,0.0,0.0,0.0,0.0,0.0,0.0,0.0,0.0,663,0.3344984,0.23596074,0.0043530143,0.062491793,0.02516256,0.04769389,0.0,0.0,0.0,-0.00499,0,0,0,831,24,0,0,0
1084652812,-0.97788197,-0.019258955,0.063029826,-0.19850221,0.098275445,-0.036695495,-2.803404,6.608921,-0.38354754,-24.39653,-2.1410271e-05,1.4670776e-07,-6.0883553e-07,-0.0003233633,0.00013975166,-0.0002895734,0.23801823,0.03843363,0.38005507,-0.0040722145,0.0031466503,8.76275e-06,0.0,0.0,8.846655e-08,0.00070078473,0.018417975,1.4503569e-06,5.5769747e-06,5.51209e-06,3.360014e-05,0.0125688175,0.0125432145,0.010728507,0.055867296,0.055836067,0.055518936,1.0527247e-11,1.0479972e-11,1.7871683e-11,5.000021e-08,5.00003e-08,5e-08,0.0,0.0,0.0,0.0,0.0,0.0,0.0,0.0,663,0.33422053,0.23562457,0.029408064,0.059127312,0.022918694,0.038119588,0.0,0.0,0.0,-0.00497,0,0,0,831,24,0,0,0
1084853665,-0.977863,-0.018474638,0.06322794,-0.19860739,0.06995205,-0.029423798,-2.7843323,6.6124334,-0.40923533,-24.966583,-2.133777e-05,6.950749e-08,-6.48651e-07,-0.00032339786,0.00013963059,-0.0002833126,0.23801823,0.03843363,0.38005507,-0.0040722145,0.0031466503,8.76275e-06,0.0,0.0,8.8583796e-08,0.0006385833,0.016886681,1.4504446e-06,5.582577e-06,5.5168994e-06,3.3594977e-05,0.012541262,0.012518478,0.010719578,0.05577137,0.05574113,0.055417757,1.05316415e-11,1.0483003e-11,1.7871598e-11,5.0000267e-08,5.0000363e-08,5e-08,0.0,0.0,0.0,0.0,0.0,0.0,0.0,0.0,663,0.33393487,0.23540977,0.015547049,0.069952026,0.021195011,0.00053148164,0.0,0.0,0.0,-0.004916,0,0,0,831,24,0,0,0
1085053652,-0.9779275,-0.020767158,0.060798068,-0.19882183,0.09597341,-0.026320819,-2.814423,6.6281776,-0.42369807,-25.521444,-2.1292914e-05,7.809084e-08,-6.933375e-07,-0.0003234434,0.00013950383,-0.0002826311,0.23801823,0.03843363,0.38005507,-0.0040722145,0.0031466503,8.76275e-06,0.0,0.0,9.736997e-08,0.00074020965,0.020979213,1.4503545e-06,5.5793503e-06,5.527046e-06,3.359528e-05,0.012552059,0.012530681,0.010792314,0.05566911,0.055640087,0.05606035,1.0536128e-11,1.0486213e-11,1.7871692e-11,5.0000313e-08,5.00004e-08,5e-08,0.0,0.0,0.0,0.0,0.0,0.0,0.0,0.0,663,0.33363032,0.23677067,0.02391589,0.052484658,0.01884702,0.034325313,0.0,0.0,0.0,-0.004929,0,0,0,831,24,0,0,0
1085262403,-0.9778529,-0.02106515,0.0620182,-0.198781,0.07208765,0.0009265153,-2.839192,6.6469054,-0.43782866,-26.11492,-2.1245987e-05,7.8200344e-08,-7.48373e-07,-0.00032339295,0.00013943206,-0.00027996735,0.23801823,0.03843363,0.38005507,-0.0040722145,0.0031466503,8.76275e-06,0.0,0.0,9.4255164e-08,0.000699493,0.017821375,1.4496588e-06,5.595415e-06,5.5396613e-06,3.3607383e-05,0.01262007,0.012601771,0.01080683,0.055905156,0.055877198,0.056157954,1.0543311e-11,1.0492127e-11,1.7874013e-11,5.000039e-08,5.000049e-08,5.0000036e-08,0.0,0.0,0.0,0.0,0.0,0.0,0.0,0.0,663,0.3343387,0.2369767,0.021628324,0.026166948,0.014921694,0.012239686,0.0,0.0,0.0,-0.004977,0,0,0,831,24,0,0,0
1085462388,-0.97793037,-0.019896446,0.061587907,-0.19865343,0.09728951,0.015140319,-2.8558285,6.678172,-0.4578645,-26.7124,-2.1124204e-05,1.1686172e-07,-8.032646e-07,-0.00032308794,0.0001393589,-0.00026848482,0.23801823,0.03843363,0.38005507,-0.0040722145,0.0031466503,8.76275e-06,0.0,0.0,8.4765595e-08,0.0006789901,0.016846236,1.4457888e-06,5.600345e-06,5.545987e-06,3.3609496e-05,0.012628593,0.012611739,0.0108718155,0.055833463,0.05580713,0.056766257,1.0548096e-11,1.0495692e-11,1.7874202e-11,5.0000438e-08,5.000056e-08,5.0000036e-08,0.0,0.0,0.0,0.0,0.0,0.0,0.0,0.0,663,0.3341266,0.23825671,0.01772654,0.07131955,0.01919913,0.015154881,0.0,0.0,0.0,-0.004992,0,0,0,831,24,0,0,0
1085663213,-0.97805315,-0.02052609,0.059952818,-0.19848521,0.09135251,0.032847576,-2.8078063,6.699237,-0.47353697,-27.281593,-2.1037687e-05,1.0155651e-07,-8.517552e-07,-0.0003230595,0.00013916117,-0.00026383594,0.23801823,0.03843363,0.38005507,-0.0040722145,0.0031466503,8.76275e-06,0.0,0.0,7.959353e-08,0.00069483503,0.016852837,1.4409596e-06,5.600339e-06,5.553756e-06,3.3613476e-05,0.01259444,0.012579275,0.010919832,0.055720665,0.05569605,0.05726834,1.0550622e-11,1.0497028e-11,1.787259e-11,5.0000498e-08,5.000071e-08,5e-08,0.0,0.0,0.0,0.0,0.0,0.0,0.0,0.0,663,0.33379143,0.23930804,0.019721625,0.08047805,0.019103695,0.00821577,0.0,0.0,0.0,-0.004968,0,0,0,831,24,0,0,0
1085867998,-0.9782689,-0.019887766,0.05736462,-0.19825178,0.082118675,0.055350583,-2.7873614,6.720026,-0.49018,-27.862078,-2.0923797e-05,7.742506e-08,-8.998058e-07,-0.0003230387,0.00013893565,-0.00026161576,0.23801823,0.03843363,0.38005507,-0.0040722145,0.0031466503,8.76275e-06,0.0,0.0,6.3866054e-08,0.00063824555,0.018568434,1.4332917e-06,5.6061153e-06,5.568833e-06,3.358959e-05,0.012644892,0.012631309,0.010903311,0.05594881,0.055925794,0.05721064,1.05591326e-11,1.050444e-11,1.7865837e-11,5.0000725e-08,5.0001056e-08,5e-08,0.0,0.0,0.0,0.0,0.0,0.0,0.0,0.0,663,0.33447662,0.23918745,0.006902339,0.07512124,0.022879846,0.007137202,0.0,0.0,0.0,-0.0049839998,0,0,0,831,24,0,0,0
1086076001,-0.9784088,-0.01953318,0.056028757,-0.1979786,0.069570094,0.05289465,-2.823256,6.7965417,-0.5147288,-28.445063,-2.0636679e-05,3.157991e-07,-9.556744e-07,-0.00032258488,0.00013875442,-0.00025133917,0.23801823,0.03843363,0.38005507,-0.0040722145,0.0031466503,8.76275e-06,0.0,0.0,8.875694e-08,0.00069671444,0.017255414,1.4282044e-06,5.6129356e-06,5.581669e-06,3.3612294e-05,0.012707079,0.012696363,0.010887829,0.056091078,0.05606981,0.057034165,1.0562569e-11,1.0506777e-11,1.7865024e-11,5.0001024e-08,5.000146e-08,5.0000036e-08,0.0,0.0,0.0,0.0,0.0,0.0,0.0,0.0,663,0.3349043,0.23881827,0.0064671068,0.24754801,0.028798634,0.040740788,0.0,0.0,0.0,-0.004979,0,0,0,831,24,0,0,0
1086276810,-0.97840333,-0.021309264,0.056787428,-0.19760612,0.058528803,0.057823576,-2.8498583,6.8209553,-0.5280562,-29.0196,-2.0526673e-05,3.1323825e-07,-1.0007956e-06,-0.00032246622,0.00013858748,-0.0002441166,0.23801823,0.03843363,0.38005507,-0.0040722145,0.0031466503,8.76275e-06,0.0,0.0,9.492524e-08,0.0006488216,0.01742591,1.4228302e-06,5.623198e-06,5.5918e-06,3.3610584e-05,0.012749243,0.012740098,0.010935575,0.056174457,0.05615502,0.057514537,1.0566081e-11,1.0509138e-11,1.7863456e-11,5.000143e-08,5.0001958e-08,5.000007e-08,0.0,0.0,0.0,0.0,0.0,0.0,0.0,0.0,663,0.3351559,0.23982188,0.017509462,0.07247683,0.03204191,0.011788494,0.0,0.0,0.0,-0.004971,0,0,0,831,24,0,0,0
1086476812,-0.9783306,-0.026144108,0.05570135,-0.19769478,0.04933962,0.04663731,-2.9023166,6.8391047,-0.5380904,-29.60825,-2.0450485e-05,3.0495656e-07,-1.0389379e-06,-0.00032238645,0.00013843134,-0.0002367808,0.23801823,0.03843363,0.38005507,-0.0040722145,0.0031466503,8.76275e-06,0.0,0.0,9.8948675e-08,0.00062087754,0.016631162,1.4234955e-06,5.6267304e-06,5.6064073e-06,3.3604105e-05,0.012816431,0.012808942,0.010886304,0.056401078,0.056383364,0.057170227,1.05705176e-11,1.0512311e-11,1.7863686e-11,5.0001855e-08,5.000249e-08,5.0000036e-08,0.0,0.0,0.0,0.0,0.0,0.0,0.0,0.0,663,0.33583397,0.23910296,0.00846101,0.084123865,0.030684082,0.00076166325,0.0,0.0,0.0,-0.004968,0,0,0,831,24,0,0,0
1086677589,-0.97831553,-0.026798733,0.052643567,-0.19851805,0.03077638,0.08640867,-2.8280258,6.862749,-0.54176646,-30.200703,-2.036978e-05,3.4761845e-07,-1.0739808e-06,-0.0003222054,0.00013836246,-0.00022968955,0.23801823,0.03843363,0.38005507,-0.0040722145,0.0031466503,8.76275e-06,0.0,0.0,1.3982549e-07,0.0008001182,0.018072717,1.4344898e-06,5.626567e-06,5.617341e-06,3.3649238e-05,0.012811632,0.012806181,0.0109253405,0.056728356,0.056712396,0.057615057,1.0575217e-11,1.0515634e-11,1.7874835e-11,5.000233e-08,5.0003088e-08,5.0000054e-08,0.0,0.0,0.0,0.0,0.0,0.0,0.0,0.0,663,0.33680966,0.24003136,0.014374057,0.042469554,0.030213438,0.010234387,0.0,0.0,0.0,-0.004991,0,0,0,831,24,0,0,0
1086886409,-0.97844774,-0.024433883,0.050669916,-0.19868481,-0.013331489,0.11667169,-2.7942965,6.870419,-0.534046,-30.79525,-2.0335025e-05,3.4098784e-07,-1.0977137e-06,-0.00032213767,0.00013830056,-0.00022522277,0.23801823,0.03843363,0.38005507,-0.0040722145,0.0031466503,8.76275e-06,0.0,0.0,1.1497732e-07,0.000678957,0.016377274,1.4353728e-06,5.6408876e-06,5.6331955e-06,3.3669177e-05,0.012916486,0.012914278,0.010909719,0.057527013,0.05751283,0.05749675,1.05842704e-11,1.0523431e-11,1.7876855e-11,5.000291e-08,5.000376e-08,5e-08,0.0,0.0,0.0,0.0,0.0,0.0,0.0,0.0,663,0.33917522,0.23978479,0.003491558,0.017141648,0.028930027,0.019457782,0.0,0.0,0.0,-0.004972,0,0,0,831,24,0,0,0
1087086388,-0.9786321,-0.020642288,0.050246462,-0.19831404,-0.050968084,0.15416834,-2.745142,6.876296,-0.5326144,-31.358109,-2.0218855e-05,3.3830312e-07,-1.1351572e-06,-0.00032204262,0.00013819388,-0.00022265001,0.23801823,0.03843363,0.38005507,-0.0040722145,0.0031466503,8.76275e-06,0.0,0.0,1.0916499e-07,0.0006073318,0.014764584,1.4286072e-06,5.6522977e-06,5.6396125e-06,3.367473e-05,0.012956604,0.012956657,0.010859337,0.058077365,0.058065187,0.05711036,1.0590143e-11,1.0528e-11,1.7876402e-11,5.0003543e-08,5.0004456e-08,5e-08,0.0,0.0,0.0,0.0,0.0,0.0,0.0,0.0,663,0.34079695,0.23897775,0.0016189502,0.06372729,0.030916594,0.0037013937,0.0,0.0,0.0,-0.004993,0,0,0,831,24,0,0,0
1087287215,-0.9786092,-0.01722796,0.053447455,-0.19791593,-0.095508434,0.16215824,-2.7713392,6.870945,-0.522031,-31.921776,-2.0129943e-05,3.3339722e-07,-1.1600507e-06,-0.0003219466,0.00013812302,-0.00021487229,0.23801823,0.03843363,0.38005507,-0.0040722145,0.0031466503,8.76275e-06,0.0,0.0,1.2249198e-07,0.0007110588,0.016457152,1.4241779e-06,5.6733097e-06,5.6450313e-06,3.3668235e-05,0.013038628,0.01304222,0.010904953,0.058651067,0.058640998,0.05754086,1.05943015e-11,1.0530872e-11,1.7873956e-11,5.0004232e-08,5.0005195e-08,5e-08,0.0,0.0,0.0,0.0,0.0,0.0,0.0,0.0,663,0.3424793,0.23987676,0.01856011,0.043076314,0.031237787,0.018958524,0.0,0.0,0.0,-0.004966,0,0,0,831,24,0,0,0
1087496014,-0.9785622,-0.0180816,0.056689944,-0.19716875,-0.093343236,0.14117837,-2.8179286,6.853729,-0.50561255,-32.49896,-2.0085809e-05,3.1821597e-07,-1.1798386e-06,-0.00032195324,0.00013802413,-0.00021361787,0.23801823,0.03843363,0.38005507,-0.0040722145,0.0031466503,8.76275e-06,0.0,0.0,1.12409374e-07,0.00073522684,0.017257895,1.4166799e-06,5.699361e-06,5.6590593e-06,3.3681004e-05,0.0131873945,0.013190526,0.010893003,0.05958083,0.059572775,0.057450224,1.0602903e-11,1.0538038e-11,1.7877293e-11,5.0004974e-08,5.0005994e-08,5e-08,0.0,0.0,0.0,0.0,0.0,0.0,0.0,0.0,663,0.34518632,0.23968776,0.0048809806,0.054355808,0.02927045,0.027059194,0.0,0.0,0.0,-0.004967,0,0,0,831,24,0,0,0
1087696008,-0.9785943,-0.018546164,0.057715103,-0.19666804,-0.10040949,0.13827579,-2.8246076,6.8479095,-0.48918504,-33.07315,-2.0038555e-05,3.6378938e-07,-1.2016235e-06,-0.00032188147,0.0001379756,-0.0002094563,0.23801823,0.03843363,0.38005507,-0.0040722145,0.0031466503,8.76275e-06,0.0,0.0,1.1947492e-07,0.00081422576,0.018923301,1.4102536e-06,5.7105517e-06,5.6657154e-06,3.3678683e-05,0.013241497,0.013244737,0.010932194,0.06015131,0.060145013,0.057864208,1.0606617e-11,1.0540321e-11,1.7876645e-11,5.0005692e-08,5.000675e-08,5.000007e-08,0.0,0.0,0.0,0.0,0.0,0.0,0.0,0.0,663,0.3468376,0.2405498,0.0047940128,0.035330776,0.028036963,0.03677128,0.0,0.0,0.0,-0.004973,0,0,0,831,24,0,0,0
1087900823,-0.9785572,-0.016993951,0.059358783,-0.19650371,-0.11404544,0.13875097,-2.8190007,6.8073845,-0.45841786,-33.67235,-2.0120071e-05,2.6923314e-07,-1.208286e-06,-0.00032199817,0.00013796487,-0.00020021935,0.23801823,0.03843363,0.38005507,-0.0040722145,0.0031466503,8.76275e-06,0.0,0.0,1.0737085e-07,0.0007528603,0.018116964,1.4073754e-06,5.7300836e-06,5.6752724e-06,3.3636465e-05,0.013330892,0.013332915,0.010918949,0.061000176,0.060995437,0.057732925,1.0612022e-11,1.0544358e-11,1.786697e-11,5.0006427e-08,5.000753e-08,5e-08,0.0,0.0,0.0,0.0,0.0,0.0,0.0,0.0,663,0.34927872,0.24027677,0.00043977602,0.09515081,0.020069264,0.05542866,0.0,0.0,0.0,-0.004959,0,0,0,831,24,0,0,0
1088100819,-0.97824585,-0.017337304,0.062116764,-0.19717005,-0.12912121,0.12123352,-2.8752072,6.7764344,-0.44735307,-34.23453,-2.0087806e-05,2.0068761e-07,-1.2164315e-06,-0.0003220748,0.00013786052,-0.0001944178,0.23801823,0.03843363,0.38005507,-0.0040722145,0.0031466503,8.76275e-06,0.0,0.0,9.488444e-08,0.0006503317,0.016507735,1.4185943e-06,5.7452016e-06,5.677946e-06,3.3608976e-05,0.013385146,0.013386635,0.010950839,0.06138732,0.06138384,0.05798072,1.0610677e-11,1.054165e-11,1.7861086e-11,5.000712e-08,5.0008257e-08,5.0000036e-08,0.0,0.0,0.0,0.0,0.0,0.0,0.0,0.0,663,0.35038716,0.24079186,0.006965215,0.09813227,0.022523608,0.031889256,0.0,0.0,0.0,-0.004961,0,0,0,831,24,0,0,0
1088309606,-0.9781902,-0.015242081,0.062314317,-0.19755682,-0.11536854,0.1332601,-2.8408809,6.747987,-0.44043255,-34.829678,-2.002572e-05,1.4625755e-07,-1.2332342e-06,-0.0003221355,0.00013774534,-0.00018933883,0.23801823,0.03843363,0.38005507,-0.0040722145,0.0031466503,8.76275e-06,0.0,0.0,1.209931e-07,0.00075017096,0.017443676,1.4243948e-06,5.761892e-06,5.69035e-06,3.3617765e-05,0.013472765,0.013470917,0.010927596,0.06230491,0.06230231,0.057801966,1.0618784e-11,1.0548388e-11,1.7864814e-11,5.000789e-08,5.000907e-08,5e-08,0.0,0.0,0.0,0.0,0.0,0.0,0.0,0.0,663,0.35299748,0.24042039,0.0011736394,0.092338584,0.025143685,0.052631453,0.0,0.0,0.0,-0.004975,0,0,0,831,24,0,0,0
1088510430,-0.97825325,-0.013974524,0.06539196,-0.19633974,-0.08839536,0.11843945,-2.797623,6.7353363,-0.43325165,-35.39661,-1.99542e-05,1.6592584e-07,-1.2532743e-06,-0.00032210632,0.0001376647,-0.00018652856,0.23801823,0.03843363,0.38005507,-0.0040722145,0.0031466503,8.76275e-06,0.0,0.0,1.0401648e-07,0.0007297302,0.019359594,1.4095923e-06,5.778899e-06,5.692078e-06,3.3618602e-05,0.013474271,0.01346934,0.010964122,0.062781,0.06277887,0.05815875,1.0619733e-11,1.0548046e-11,1.786267e-11,5.0008648e-08,5.0009838e-08,5.000007e-08,0.0,0.0,0.0,0.0,0.0,0.0,0.0,0.0,663,0.35434428,0.24116126,0.003539168,0.043523826,0.026754186,0.013119861,0.0,0.0,0.0,-0.004952,0,0,0,831,24,0,0,0
1088710394,-0.9784281,-0.012426504,0.06497794,-0.19570859,-0.09518059,0.11223081,-2.8408613,6.706486,-0.42304504,-35.967266,-1.9935276e-05,1.0296785e-07,-1.2593559e-06,-0.00032217137,0.00013759454,-0.00018052304,0.23801823,0.03843363,0.38005507,-0.0040722145,0.0031466503,8.76275e-06,0.0,0.0,1.0093621e-07,0.00070901867,0.017597958,1.4025443e-06,5.7850484e-06,5.6973367e-06,3.3676748e-05,0.013537617,0.013531088,0.010913003,0.063270144,0.063268155,0.057729296,1.062284e-11,1.0549829e-11,1.7873808e-11,5.0009444e-08,5.001064e-08,5.0000036e-08,0.0,0.0,0.0,0.0,0.0,0.0,0.0,0.0,663,0.35572222,0.24026921,0.0048939222,0.07147901,0.026060903,0.011441562,0.0,0.0,0.0,-0.004988,0,0,0,831,24,0,0,0
1088911182,-0.97822356,-0.014010207,0.064574994,-0.19675513,-0.054719143,0.100790024,-2.833112,6.695,-0.41886964,-36.537483,-1.9878356e-05,9.818999e-08,-1.2640173e-06,-0.00032217405,0.00013751075,-0.00017727003,0.23801823,0.03843363,0.38005507,-0.0040722145,0.0031466503,8.76275e-06,0.0,0.0,9.967046e-08,0.0007617665,0.016420454,1.4190321e-06,5.788741e-06,5.702743e-06,3.370966e-05,0.01355884,0.0135489255,0.0109514175,0.06371961,0.0637172,0.058085933,1.06237154e-11,1.0549433e-11,1.7882957e-11,5.0010183e-08,5.0011398e-08,5.0000036e-08,0.0,0.0,0.0,0.0,0.0,0.0,0.0,0.0,663,0.35698295,0.24101023,0.00077345344,0.051785834,0.028431995,0.011846262,0.0,0.0,0.0,-0.004998,0,0,0,831,24,0,0,0
1089119990,-0.9779909,-0.013629433,0.064574614,-0.19793455,-0.046309505,0.09078943,-2.879212,6.680657,-0.4213036,-37.1324,-1.9809317e-05,5.820273e-08,-1.2818884e-06,-0.00032221686,0.0001374188,-0.0001758101,0.23801823,0.03843363,0.38005507,-0.0040722145,0.0031466503,8.76275e-06,0.0,0.0,8.0012555e-08,0.0006843387,0.01743903,1.433697e-06,5.7999146e-06,5.7130283e-06,3.3655375e-05,0.01367123,0.013659557,0.011021683,0.064502366,0.06449929,0.058737297,1.0629341e-11,1.0554143e-11,1.7875786e-11,5.0010968e-08,5.0012208e-08,5.000007e-08,0.0,0.0,0.0,0.0,0.0,0.0,0.0,0.0,663,0.359168,0.24235779,0.0029944752,0.0385916,0.03189562,0.0121854395,0.0,0.0,0.0,-0.00499,0,0,0,831,24,0,0,0
1089320014,-0.97774506,-0.01362156,0.06742959,-0.19819766,-0.061718732,0.06383219,-2.9076335,6.6536274,-0.44100988,-37.715923,-1.9722736e-05,-7.0721256e-08,-1.2958519e-06,-0.0003224201,0.0001372385,-0.0001685253,0.23801823,0.03843363,0.38005507,-0.0040722145,0.0031466503,8.76275e-06,0.0,0.0,9.701633e-08,0.00074595894,0.017716045,1.4388285e-06,5.65341e-06,5.5511023e-06,3.3633703e-05,0.012307271,0.012296299,0.0107423095,0.057006426,0.057004306,0.05752725,1.053256e-11,1.0454526e-11,1.7873604e-11,5.001139e-08,5.00127e-08,5e-08,0.0,0.0,0.0,0.0,0.0,0.0,0.0,0.0,663,0.33765477,0.23984839,0.004914881,0.06324827,0.03110487,0.025566027,0.0,0.0,0.0,-0.004969,0,0,0,831,24,0,0,0
1089520841,-0.97764784,-0.014532818,0.06880049,-0.19814126,-0.03373276,0.068858415,-2.9157243,6.644535,-0.42770898,-38.287327,-1.9723368e-05,-6.8918276e-08,-1.2991081e-06,-0.00032242396,0.00013724813,-0.00017275402,0.23801823,0.03843363,0.38005507,-0.0040722145,0.0031466503,8.76275e-06,0.0,0.0,9.070466e-08,0.00066399144,0.015876975,1.4401132e-06,5.8279147e-06,5.7206776e-06,3.362677e-05,0.013771356,0.01375658,0.010976326,0.06547249,0.06546762,0.05844967,1.0633844e-11,1.0556732e-11,1.7874464e-11,5.001228e-08,5.001359e-08,5.0000036e-08,0.0,0.0,0.0,0.0,0.0,0.0,0.0,0.0,663,0.3618565,0.24176367,0.004983259,0.06324827,0.03110487,0.0113166915,0.0,0.0,0.0,-0.004942,0,0,0,831,24,0,0,0
1089729581,-0.9775222,-0.019562854,0.069145575,-0.1982085,0.005365099,0.05594809,-2.9105086,6.6464405,-0.4334078,-38.88971,-1.9662251e-05,-5.97575e-08,-1.3157802e-06,-0.00032240042,0.00013715384,-0.00017445057,0.23801823,0.03843363,0.38005507,-0.0040722145,0.0031466503,8.76275e-06,0.0,0.0,8.259481e-08,0.0006647772,0.016906012,1.4408139e-06,5.836805e-06,5.7325983e-06,3.3584478e-05,0.013845007,0.0138285635,0.011048119,0.06623235,0.06622609,0.05909191,1.0638707e-11,1.05608725e-11,1.7867832e-11,5.0012925e-08,5.0014282e-08,5.0000107e-08,0.0,0.0,0.0,0.0,0.0,0.0,0.0,0.0,663,0.3639484,0.24308828,0.0025560753,0.03696615,0.03357452,0.005442862,0.0,0.0,0.0,-0.005,0,0,0,831,24,0,0,0
1089929606,-0.9775553,-0.0178179,0.06793155,-0.19862914,0.008266205,0.081978686,-2.8853395,6.626924,-0.4470952,-39.455673,-1.9636038e-05,-1.750919e-07,-1.3342117e-06,-0.00032260135,0.00013712008,-0.00017833646,0.23801823,0.03843363,0.38005507,-0.0040722145,0.0031466503,8.76275e-06,0.0,0.0,1.1114372e-07,0.0007430427,0.016501416,1.446158e-06,5.6690496e-06,5.5673413e-06,3.363254e-05,0.012401923,0.012387548,0.010770831,0.058317166,0.0583128,0.057869934,1.0539234e-11,1.0458954e-11,1.7877838e-11,5.001317e-08,5.001463e-08,5.0000036e-08,0.0,0.0,0.0,0.0,0.0,0.0,0.0,0.0,663,0.3415113,0.24056171,0.0067936354,0.054958347,0.035736103,0.003270059,0.0,0.0,0.0,-0.004974,0,0,0,831,24,0,0,0
1090134424,-0.97800183,-0.015616768,0.062429234,-0.1984214,0.016672587,0.10095661,-2.9077697,6.6145515,-0.4463757,-40.03772,-1.9610696e-05,-2.7214242e-07,-1.3404767e-06,-0.0003227904,0.00013708275,-0.00018459056,0.23801823,0.03843363,0.38005507,-0.0040722145,0.0031466503,8.76275e-06,0.0,0.0,1.01670814e-07,0.00068462297,0.016397022,1.4371298e-06,5.65728e-06,5.5782793e-06,3.362085e-05,0.012481891,0.012467213,0.010757013,0.05886268,0.058857217,0.057662666,1.054275e-11,1.0462083e-11,1.7869756e-11,5.001372e-08,5.001523e-08,5.0000036e-08,0.0,0.0,0.0,0.0,0.0,0.0,0.0,0.0,663,0.34310332,0.24013051,0.01648802,0.053257294,0.03552589,0.019952623,0.0,0.0,0.0,-0.004958,0,0,0,831,24,0,0,0
