timestamp,magnetometer_ga[0],magnetometer_ga[1],magnetometer_ga[2]
1072655432,0.21939182,-0.096041374,0.4295078
1072677471,0.21939182,-0.10766416,0.413527
1072700537,0.21939182,-0.104758464,0.413527
1072723431,0.22830161,-0.104758464,0.40393853
1072745433,0.22533168,-0.104758464,0.413527
1072768441,0.23127154,-0.096041374,0.4231155
1072791432,0.23127154,-0.096041374,0.43270397
1072812433,0.23127154,-0.09894708,0.42631164
1072833435,0.21939182,-0.11056985,0.40713468
1072855895,0.22533168,-0.101852775,0.4295078
1072878433,0.22236176,-0.09894708,0.42631164
1072900432,0.21345197,-0.104758464,0.42631164
1072922432,0.21642189,-0.104758464,0.41033086
1072944532,0.22533168,-0.093135685,0.4295078
1072967915,0.22236176,-0.093135685,0.4295078
1072990439,0.22533168,-0.09022999,0.42631164
1073013431,0.22533168,-0.09022999,0.4295078
1073035433,0.21642189,-0.101852775,0.41672316
1073057440,0.21939182,-0.096041374,0.42631164
1073078431,0.21939182,-0.09894708,0.42631164
1073101444,0.21642189,-0.096041374,0.43270397
1073123488,0.21048203,-0.0873243,0.43590012
1073145444,0.21345197,-0.09022999,0.413527
1073166432,0.20157225,-0.07860721,0.4295078
1073187432,0.19860232,-0.069890134,0.4454886
1073209443,0.18969253,-0.07279582,0.42631164
1073231469,0.1867226,-0.06698443,0.44868475
1073254431,0.17484288,-0.069890134,0.4454886
1073276430,0.15999323,-0.07570152,0.44868475
1073299433,0.18078274,-0.07860721,0.4518809
1073320542,0.18375267,-0.081512906,0.44229245
1073343430,0.18969253,-0.07570152,0.44229245
1073366432,0.20454217,-0.07279582,0.43909627
1073387431,0.21939182,-0.07860721,0.42631164
1073408691,0.22236176,-0.081512906,0.4231155
1073431433,0.23127154,-0.0844186,0.41672316
1073454432,0.24315126,-0.081512906,0.41033086
1073475431,0.24315126,-0.081512906,0.3975462
1073497447,0.25206104,-0.07860721,0.40713468
1073520789,0.24612118,-0.07860721,0.3975462
1073544432,0.26394075,-0.07860721,0.3975462
1073566433,0.26691067,-0.07860721,0.3975462
1073588431,0.26097083,-0.07860721,0.39435005
1073611440,0.26097083,-0.07860721,0.38795778
1073633450,0.27582046,-0.07860721,0.38795778
1073656432,0.27582046,-0.07279582,0.3911539
1073678432,0.27582046,-0.07570152,0.3847616
1073700430,0.27879038,-0.0844186,0.37197697
1073723432,0.28473026,-0.081512906,0.37197697
1073744431,0.27879038,-0.07860721,0.37197697
1073766440,0.28770018,-0.081512906,0.38156545
1073788514,0.28473026,-0.07279582,0.3911539
1073811434,0.27879038,-0.07570152,0.3847616
1073833810,0.28176033,-0.081512906,0.36558464
1073856431,0.28176033,-0.07570152,0.3847616
1073879432,0.28473026,-0.0844186,0.36878082
1073902204,0.28473026,-0.07860721,0.3847616
1073924519,0.28473026,-0.07860721,0.3783693
1073947440,0.28176033,-0.07860721,0.38795778
1073969755,0.27582046,-0.081512906,0.3783693
1073993817,0.27879038,-0.07570152,0.3911539
1074017801,0.28176033,-0.081512906,0.3847616
1074040431,0.26988062,-0.07860721,0.38156545
1074063489,0.27879038,-0.0873243,0.38156545
1074085431,0.27582046,-0.07570152,0.3975462
1074107433,0.26691067,-0.07860721,0.38156545
1074128531,0.27582046,-0.07570152,0.3847616
1074151430,0.27285054,-0.07860721,0.38156545
1074173440,0.27582046,-0.0873243,0.3783693
1074196431,0.27285054,-0.0844186,0.37517312
1074218617,0.27582046,-0.07570152,0.3975462
1074242603,0.27879038,-0.081512906,0.3847616
1074266558,0.26691067,-0.07860721,0.38156545
1074288431,0.27285054,-0.0844186,0.38156545
1074309432,0.27582046,-0.07860721,0.40074238
1074332431,0.26988062,-0.081512906,0.3847616
1074354530,0.27879038,-0.07860721,0.38795778
1074376431,0.26691067,-0.07860721,0.38156545
1074397443,0.27285054,-0.07860721,0.39435005
1074419431,0.26691067,-0.081512906,0.3911539
1074441436,0.27879038,-0.081512906,0.3847616
1074463895,0.26988062,-0.07860721,0.3847616
1074486432,0.26691067,-0.07860721,0.3847616
1074509509,0.26988062,-0.07860721,0.3847616
1074530509,0.27285054,-0.0844186,0.38156545
1074551932,0.26691067,-0.081512906,0.38156545
1074574432,0.27879038,-0.07860721,0.38795778
1074597440,0.28176033,-0.07860721,0.38795778
1074619431,0.26988062,-0.07860721,0.38795778
1074641440,0.27285054,-0.0844186,0.3847616
1074663900,0.26988062,-0.07570152,0.39435005
1074686440,0.26988062,-0.07570152,0.3975462
1074709442,0.27285054,-0.07570152,0.40074238
1074731432,0.26691067,-0.081512906,0.38795778
1074753449,0.27879038,-0.07860721,0.38795778
1074775470,0.26691067,-0.07860721,0.38156545
1074798431,0.26691067,-0.07860721,0.38156545
1074820439,0.26988062,-0.0844186,0.38795778
1074843488,0.26691067,-0.081512906,0.38156545
1074867432,0.26988062,-0.0844186,0.38795778
1074889445,0.26988062,-0.081512906,0.3847616
1074910480,0.26394075,-0.07860721,0.3847616
1074930434,0.26988062,-0.07570152,0.3975462
1074952698,0.26988062,-0.07279582,0.40393853
1074974438,0.26988062,-0.07279582,0.40074238
1074995431,0.27285054,-0.07570152,0.39435005
1075017574,0.26988062,-0.07860721,0.38156545
1075039436,0.26988062,-0.07570152,0.3911539
1075061345,0.27285054,-0.07570152,0.39435005
1075084749,0.27285054,-0.07570152,0.3911539
1075107431,0.26097083,-0.07570152,0.3911539
1075129557,0.27285054,-0.07570152,0.3911539
1075151473,0.26691067,-0.069890134,0.3975462
1075172282,0.26988062,-0.07279582,0.3975462
1075193611,0.26691067,-0.07570152,0.39435005
1075216354,0.26988062,-0.069890134,0.40393853
1075239480,0.26691067,-0.07570152,0.3975462
1075261564,0.26394075,-0.07860721,0.3783693
1075285439,0.26394075,-0.069890134,0.40074238
1075307274,0.26394075,-0.07570152,0.3847616
1075330291,0.26394075,-0.07279582,0.39435005
1075351310,0.26988062,-0.07570152,0.3975462
1075374654,0.25800088,-0.07279582,0.39435005
1075397793,0.27285054,-0.07570152,0.36558464
1075420517,0.26988062,-0.07570152,0.37517312
1075443435,0.26988062,-0.07570152,0.37197697
1075466149,0.27285054,-0.07570152,0.37197697
1075488515,0.26988062,-0.07570152,0.36878082
1075510625,0.26691067,-0.07860721,0.37517312
1075533796,0.26988062,-0.07860721,0.37197697
1075557757,0.26691067,-0.07570152,0.3783693
1075581720,0.26691067,-0.07570152,0.36558464
1075605799,0.26988062,-0.07570152,0.37517312
1075629800,0.26394075,-0.07570152,0.37517312
1075653432,0.26691067,-0.07860721,0.38156545
1075676439,0.26394075,-0.07570152,0.3783693
1075699472,0.26097083,-0.07570152,0.3783693
1075722537,0.26394075,-0.07570152,0.37197697
1075744431,0.26691067,-0.07860721,0.3783693
1075767186,0.26394075,-0.07860721,0.38156545
1075789439,0.26394075,-0.07570152,0.3783693
1075812432,0.26394075,-0.07570152,0.38156545
1075833441,0.26097083,-0.07570152,0.3783693
1075856432,0.26097083,-0.07570152,0.3783693
1075879050,0.26097083,-0.07570152,0.37517312
1075901441,0.26097083,-0.07570152,0.3783693
1075924432,0.26097083,-0.07570152,0.38156545
1075946583,0.26394075,-0.07860721,0.3783693
1075970525,0.26097083,-0.07570152,0.38156545
1075991748,0.26097083,-0.07279582,0.38156545
1076014439,0.26394075,-0.07279582,0.3783693
1076037480,0.25800088,-0.07570152,0.3783693
1076059433,0.26097083,-0.07570152,0.37517312
1076081454,0.26097083,-0.07570152,0.3783693
1076102438,0.25800088,-0.07570152,0.38156545
1076125433,0.26097083,-0.07279582,0.38156545
1076147438,0.26394075,-0.07279582,0.3847616
1076169443,0.26097083,-0.07570152,0.38156545
1076190439,0.25800088,-0.07570152,0.38156545
1076213573,0.25800088,-0.07279582,0.37517312
1076234478,0.26097083,-0.07570152,0.38156545
1076255893,0.25800088,-0.07279582,0.38156545
1076278438,0.26097083,-0.07279582,0.38156545
1076301480,0.26097083,-0.07279582,0.38156545
1076323522,0.26097083,-0.07570152,0.38156545
1076347471,0.26097083,-0.07570152,0.3847616
1076371471,0.25800088,-0.07570152,0.3847616
1076393442,0.25503096,-0.07279582,0.3783693
1076415432,0.26097083,-0.07570152,0.3783693
1076437479,0.25800088,-0.07570152,0.37517312
1076459480,0.25800088,-0.07279582,0.38795778
1076483533,0.26097083,-0.07279582,0.38156545
1076507439,0.25800088,-0.07279582,0.38156545
1076529446,0.25800088,-0.07279582,0.38156545
1076551432,0.25503096,-0.07570152,0.3783693
1076574435,0.25800088,-0.07279582,0.38156545
1076595432,0.25800088,-0.07279582,0.3847616
1076617450,0.25800088,-0.07279582,0.3783693
1076640431,0.25800088,-0.07279582,0.38156545
1076662431,0.25800088,-0.07279582,0.38156545
1076684750,0.25800088,-0.07279582,0.38156545
1076707440,0.26097083,-0.069890134,0.38156545
1076729448,0.26097083,-0.07279582,0.38156545
1076752431,0.25800088,-0.07279582,0.38156545
1076773537,0.25800088,-0.069890134,0.3783693
1076795439,0.26097083,-0.069890134,0.38156545
1076817457,0.25800088,-0.07279582,0.38156545
1076840440,0.25503096,-0.07279582,0.38156545
1076864431,0.25800088,-0.07279582,0.38156545
1076885486,0.25800088,-0.07279582,0.3847616
1076907438,0.25800088,-0.07279582,0.38156545
1076929736,0.25800088,-0.069890134,0.38156545
1076953795,0.25800088,-0.07279582,0.3847616
1076977732,0.25800088,-0.069890134,0.3783693
1077001786,0.25800088,-0.069890134,0.38156545
1077023435,0.25503096,-0.069890134,0.38156545
1077044432,0.25503096,-0.069890134,0.38156545
1077067431,0.25800088,-0.07279582,0.38156545
1077089733,0.25503096,-0.07279582,0.38156545
1077113857,0.25800088,-0.07279582,0.3847616
1077137845,0.25503096,-0.07279582,0.3847616
1077161808,0.25800088,-0.07279582,0.3847616
1077185800,0.25503096,-0.07279582,0.38156545
1077209744,0.25800088,-0.07279582,0.3783693
1077233775,0.25800088,-0.07279582,0.38156545
1077257432,0.25503096,-0.069890134,0.38156545
1077279432,0.25800088,-0.07279582,0.3783693
1077301471,0.25503096,-0.07279582,0.3847616
1077323523,0.25206104,-0.069890134,0.3847616
1077346561,0.25503096,-0.07279582,0.3847616
1077368438,0.25800088,-0.069890134,0.38156545
1077391431,0.25503096,-0.069890134,0.38795778
1077413431,0.25503096,-0.07279582,0.3847616
1077436432,0.25503096,-0.069890134,0.38156545
1077458528,0.25800088,-0.069890134,0.38795778
1077480438,0.25503096,-0.069890134,0.38156545
1077503432,0.25503096,-0.069890134,0.3847616
1077525432,0.25503096,-0.069890134,0.38795778
1077548533,0.25206104,-0.07279582,0.3847616
1077571433,0.25503096,-0.069890134,0.38795778
1077593432,0.25206104,-0.069890134,0.3847616
1077615873,0.25503096,-0.069890134,0.3847616
1077638439,0.25206104,-0.069890134,0.38156545
1077661439,0.25503096,-0.069890134,0.38156545
1077682433,0.25503096,-0.07279582,0.3911539
1077703887,0.25206104,-0.069890134,0.38156545
1077726431,0.25503096,-0.069890134,0.38156545
1077749475,0.25503096,-0.07279582,0.38156545
1077770432,0.25503096,-0.07279582,0.3847616
1077791868,0.25206104,-0.069890134,0.38156545
1077814473,0.25503096,-0.07279582,0.38156545
1077837440,0.25503096,-0.07570152,0.38156545
1077859438,0.25800088,-0.07279582,0.38156545
1077881438,0.25503096,-0.07279582,0.3847616
1077902434,0.25503096,-0.069890134,0.38156545
1077924713,0.25503096,-0.07279582,0.38156545
1077947432,0.25503096,-0.07279582,0.3847616
1077970438,0.25800088,-0.07279582,0.38795778
1077992517,0.25503096,-0.07279582,0.38156545
1078015432,0.25503096,-0.07279582,0.3847616
1078037520,0.25800088,-0.07279582,0.3847616
1078059478,0.25503096,-0.07279582,0.39435005
1078082471,0.25206104,-0.07279582,0.3847616
1078104431,0.25503096,-0.07279582,0.38156545
1078127432,0.25503096,-0.07279582,0.38156545
1078149452,0.25503096,-0.07279582,0.3847616
1078170440,0.25800088,-0.07279582,0.38156545
1078192432,0.25503096,-0.07279582,0.38156545
1078214470,0.25503096,-0.07279582,0.3847616
1078236431,0.25503096,-0.069890134,0.3847616
1078259431,0.25800088,-0.07279582,0.3847616
1078281452,0.25503096,-0.07279582,0.38795778
1078304432,0.25206104,-0.07279582,0.38795778
1078326433,0.25503096,-0.07279582,0.38795778
1078348743,0.25206104,-0.07279582,0.3847616
1078371478,0.25503096,-0.07279582,0.38795778
1078393459,0.25503096,-0.07279582,0.38156545
1078416734,0.25503096,-0.07279582,0.38156545
1078440741,0.25800088,-0.07279582,0.3847616
1078462433,0.25800088,-0.07279582,0.3847616
1078483432,0.25503096,-0.07279582,0.3847616
1078505449,0.25800088,-0.07279582,0.3847616
1078528432,0.25503096,-0.07570152,0.3847616
1078551432,0.25503096,-0.07279582,0.3847616
1078574391,0.25206104,-0.07279582,0.38156545
1078595442,0.25503096,-0.07279582,0.38156545
1078617748,0.25206104,-0.07279582,0.3847616
1078640439,0.25206104,-0.07279582,0.38156545
1078663521,0.25503096,-0.07279582,0.38795778
1078686312,0.25206104,-0.07279582,0.38795778
1078707434,0.25503096,-0.07279582,0.38156545
1078729830,0.25503096,-0.07279582,0.38156545
1078753866,0.25206104,-0.07570152,0.3847616
1078777873,0.25503096,-0.07279582,0.38156545
1078801817,0.25503096,-0.07279582,0.38156545
1078824431,0.25800088,-0.07570152,0.3847616
1078846954,0.25206104,-0.07279582,0.38156545
1078869434,0.25206104,-0.07279582,0.3847616
1078892440,0.25206104,-0.07279582,0.3847616
1078915431,0.25206104,-0.07279582,0.38795778
1078938525,0.25503096,-0.07570152,0.3847616
1078960432,0.25503096,-0.07279582,0.38156545
1078983067,0.25503096,-0.07279582,0.38795778
1079005431,0.25503096,-0.07570152,0.3847616
1079028432,0.25800088,-0.07279582,0.3847616
1079049431,0.25503096,-0.07279582,0.38156545
1079072431,0.25800088,-0.07570152,0.38156545
1079095042,0.25503096,-0.07570152,0.38795778
1079116439,0.25800088,-0.07570152,0.3847616
1079139433,0.25503096,-0.07279582,0.3847616
1079161437,0.25503096,-0.07860721,0.38156545
1079183871,0.25503096,-0.07570152,0.3847616
1079206431,0.25206104,-0.07570152,0.3847616
1079228528,0.25503096,-0.07570152,0.3847616
1079251435,0.25800088,-0.07570152,0.38156545
1079273447,0.25503096,-0.07860721,0.38156545
1079295859,0.25503096,-0.07860721,0.3847616
1079318431,0.25503096,-0.07570152,0.38156545
1079341439,0.25800088,-0.07570152,0.38156545
1079362431,0.25800088,-0.07860721,0.3847616
1079383872,0.25503096,-0.07570152,0.3847616
1079405490,0.25800088,-0.07860721,0.38156545
1079427439,0.25800088,-0.07860721,0.3847616
1079449445,0.25503096,-0.07860721,0.3847616
1079471822,0.25800088,-0.07860721,0.38156545
1079493442,0.25503096,-0.07860721,0.3847616
1079515440,0.25503096,-0.07860721,0.38156545
1079537483,0.25503096,-0.07860721,0.3783693
1079559471,0.25800088,-0.07860721,0.38156545
1079583524,0.25800088,-0.07860721,0.3847616
1079607438,0.25503096,-0.07860721,0.38156545
1079628672,0.25800088,-0.07860721,0.37517312
1079651439,0.26097083,-0.081512906,0.3783693
1079674432,0.26097083,-0.081512906,0.3783693
1079696527,0.25800088,-0.07860721,0.3847616
1079719432,0.25800088,-0.07860721,0.38156545
1079740697,0.25800088,-0.07860721,0.38156545
1079763520,0.25800088,-0.07860721,0.3847616
1079784738,0.25800088,-0.07860721,0.38156545
1079808431,0.25800088,-0.081512906,0.38156545
1079830471,0.25800088,-0.081512906,0.38156545
1079852432,0.25800088,-0.081512906,0.3783693
1079875439,0.26097083,-0.081512906,0.3783693
1079897432,0.25800088,-0.081512906,0.38795778
1079920431,0.25800088,-0.081512906,0.3847616
1079942432,0.26097083,-0.081512906,0.38156545
1079964432,0.26097083,-0.081512906,0.3783693
1079987432,0.25800088,-0.081512906,0.38156545
1080008438,0.25800088,-0.081512906,0.38156545
1080032747,0.25800088,-0.07860721,0.38156545
1080056431,0.26097083,-0.081512906,0.3783693
1080078470,0.25503096,-0.081512906,0.3847616
1080100432,0.25800088,-0.081512906,0.38156545
1080123434,0.26097083,-0.081512906,0.38156545
1080145797,0.25800088,-0.081512906,0.3783693
1080167436,0.25800088,-0.081512906,0.3783693
1080188441,0.26097083,-0.081512906,0.38156545
1080211435,0.25800088,-0.081512906,0.38156545
1080233806,0.25800088,-0.07860721,0.3847616
1080255432,0.25800088,-0.081512906,0.3783693
1080276440,0.25800088,-0.081512906,0.3847616
1080298440,0.25800088,-0.07860721,0.3783693
1080321787,0.25800088,-0.081512906,0.38156545
1080345718,0.25503096,-0.081512906,0.3847616
1080369738,0.25800088,-0.081512906,0.3847616
1080393828,0.25503096,-0.081512906,0.38156545
1080417739,0.25800088,-0.081512906,0.3847616
1080441432,0.25800088,-0.081512906,0.38156545
1080464538,0.25503096,-0.07860721,0.3847616
1080487434,0.25503096,-0.07860721,0.38156545
1080509438,0.25800088,-0.07860721,0.38156545
1080531439,0.25800088,-0.07860721,0.38156545
1080553439,0.25503096,-0.07860721,0.38156545
1080576432,0.25503096,-0.081512906,0.38156545
1080599080,0.25206104,-0.081512906,0.3847616
1080620431,0.25503096,-0.07860721,0.38795778
1080642549,0.25503096,-0.07860721,0.38795778
1080664438,0.25503096,-0.081512906,0.38795778
1080687438,0.25503096,-0.081512906,0.3847616
1080708505,0.25800088,-0.081512906,0.38795778
1080730525,0.25800088,-0.081512906,0.38156545
1080752439,0.25503096,-0.081512906,0.38156545
1080774477,0.25800088,-0.081512906,0.3847616
1080797449,0.25800088,-0.081512906,0.3783693
1080819439,0.25800088,-0.081512906,0.38156545
1080841442,0.25800088,-0.0844186,0.38156545
1080862439,0.25800088,-0.0844186,0.3847616
1080885440,0.25503096,-0.0844186,0.38156545
1080907438,0.26097083,-0.081512906,0.3847616
1080929441,0.25800088,-0.0844186,0.38156545
1080950443,0.25800088,-0.081512906,0.38156545
1080973432,0.26097083,-0.0844186,0.3783693
1080995438,0.26097083,-0.0844186,0.3783693
1081017450,0.26394075,-0.0844186,0.37517312
1081038441,0.26097083,-0.0844186,0.38156545
1081061487,0.26394075,-0.0844186,0.3783693
1081084439,0.26394075,-0.0844186,0.38156545
1081107439,0.26691067,-0.0844186,0.3847616
1081128746,0.26394075,-0.0844186,0.37517312
1081151431,0.26394075,-0.0844186,0.37517312
1081174432,0.26394075,-0.0844186,0.36878082
1081195433,0.26691067,-0.0873243,0.3783693
1081216709,0.26691067,-0.0844186,0.38156545
1081239431,0.26691067,-0.0844186,0.37197697
1081262475,0.26691067,-0.0844186,0.37197697
1081283431,0.26988062,-0.0873243,0.3783693
1081304727,0.26691067,-0.0873243,0.3783693
1081327476,0.26691067,-0.0873243,0.38156545
1081350472,0.26691067,-0.0844186,0.3783693
1081372431,0.26691067,-0.0844186,0.37517312
1081395432,0.26691067,-0.0873243,0.37197697
1081417445,0.26691067,-0.0873243,0.3783693
1081440432,0.26394075,-0.0873243,0.3847616
1081462432,0.26691067,-0.0873243,0.38156545
1081483431,0.26394075,-0.0844186,0.3783693
1081505435,0.26394075,-0.0873243,0.38156545
1081528431,0.26394075,-0.0873243,0.3783693
1081549439,0.26394075,-0.0873243,0.3783693
1081570432,0.26691067,-0.0844186,0.3847616
1081592440,0.26394075,-0.0873243,0.3783693
1081616431,0.26691067,-0.0873243,0.37197697
1081638433,0.26394075,-0.0873243,0.37517312
1081660434,0.26394075,-0.0873243,0.3783693
1081682432,0.26394075,-0.0873243,0.38156545
1081704437,0.26097083,-0.0873243,0.3783693
1081726563,0.26097083,-0.0844186,0.3783693
1081748440,0.26394075,-0.0873243,0.3783693
1081771432,0.26394075,-0.0873243,0.3783693
1081793795,0.26394075,-0.0844186,0.38156545
1081816495,0.26097083,-0.0844186,0.3847616
1081839432,0.26097083,-0.0844186,0.37197697
1081860439,0.26394075,-0.0873243,0.37517312
1081881763,0.26394075,-0.0873243,0.38156545
1081905804,0.26394075,-0.0844186,0.38156545
1081929746,0.26394075,-0.0844186,0.38156545
1081953809,0.26097083,-0.0844186,0.38156545
1081977759,0.26097083,-0.081512906,0.3783693
1082001765,0.26097083,-0.0844186,0.37197697
1082023431,0.26394075,-0.0873243,0.37197697
1082045432,0.26097083,-0.0873243,0.37197697
1082067470,0.26097083,-0.0873243,0.3783693
1082088533,0.26097083,-0.0844186,0.38156545
1082111431,0.26097083,-0.0873243,0.37517312
1082133439,0.26394075,-0.0873243,0.38156545
1082155432,0.26097083,-0.0844186,0.38156545
1082178515,0.25800088,-0.081512906,0.37517312
1082200438,0.26097083,-0.0844186,0.38156545
1082223431,0.25800088,-0.0844186,0.37517312
1082245432,0.26097083,-0.0844186,0.38156545
1082268431,0.26097083,-0.0844186,0.38156545
1082290552,0.26097083,-0.0844186,0.3783693
1082312432,0.26097083,-0.0844186,0.3783693
1082335130,0.26097083,-0.0844186,0.38156545
1082357432,0.26097083,-0.0844186,0.38795778
1082379431,0.26394075,-0.0844186,0.38156545
1082401444,0.25800088,-0.0844186,0.37517312
1082423892,0.26097083,-0.0844186,0.3783693
1082446439,0.26097083,-0.081512906,0.3847616
1082469433,0.26097083,-0.0844186,0.3847616
1082491439,0.26097083,-0.081512906,0.3783693
1082513444,0.26097083,-0.081512906,0.38156545
1082535830,0.26097083,-0.0844186,0.37517312
1082558435,0.26097083,-0.0844186,0.3847616
1082581509,0.25800088,-0.081512906,0.38156545
1082602509,0.26097083,-0.081512906,0.38156545
1082623960,0.25800088,-0.0844186,0.3847616
1082646431,0.26097083,-0.0844186,0.38156545
1082669478,0.25800088,-0.0844186,0.38156545
1082691471,0.26097083,-0.081512906,0.37517312
1082715474,0.25800088,-0.0844186,0.3783693
1082739440,0.25800088,-0.0844186,0.3783693
1082761449,0.25800088,-0.0844186,0.38156545
1082783488,0.25800088,-0.0844186,0.3847616
1082805483,0.25503096,-0.0844186,0.3847616
1082826470,0.25800088,-0.081512906,0.3783693
1082847470,0.26097083,-0.0844186,0.38156545
1082870469,0.25800088,-0.0844186,0.38795778
1082892431,0.25800088,-0.0844186,0.3847616
1082913445,0.25800088,-0.0844186,0.38156545
1082934432,0.26097083,-0.0873243,0.3847616
1082956431,0.26097083,-0.0844186,0.38156545
1082976849,0.26097083,-0.081512906,0.3783693
1082998432,0.26097083,-0.0844186,0.3783693
1083020431,0.25800088,-0.0844186,0.38156545
1083042432,0.26097083,-0.081512906,0.3783693
1083064750,0.26097083,-0.0844186,0.38156545
1083087431,0.25800088,-0.0844186,0.38156545
1083109821,0.26097083,-0.0844186,0.3847616
1083132432,0.26097083,-0.081512906,0.3847616
1083154468,0.26097083,-0.081512906,0.3783693
1083176440,0.25800088,-0.0844186,0.3783693
1083199431,0.25800088,-0.0844186,0.3783693
1083221496,0.25800088,-0.0844186,0.38156545
1083243531,0.26097083,-0.081512906,0.38156545
1083265343,0.26097083,-0.0844186,0.37517312
1083287273,0.26097083,-0.0844186,0.38156545
1083310356,0.25800088,-0.081512906,0.3783693
1083332283,0.25800088,-0.081512906,0.3783693
1083354634,0.26097083,-0.0844186,0.37517312
1083378575,0.26097083,-0.0844186,0.38156545
1083402657,0.26097083,-0.0844186,0.38156545
1083426620,0.26097083,-0.0844186,0.38156545
1083449758,0.26097083,-0.0844186,0.38156545
1083472277,0.26097083,-0.081512906,0.3847616
1083495137,0.26097083,-0.081512906,0.38156545
1083518332,0.26097083,-0.07860721,0.37197697
1083540276,0.25800088,-0.0844186,0.38156545
1083562590,0.25800088,-0.081512906,0.38795778
1083586608,0.25800088,-0.07860721,0.38156545
1083610682,0.26097083,-0.081512906,0.38156545
1083634635,0.25800088,-0.081512906,0.38156545
1083657314,0.25800088,-0.07860721,0.3783693
1083679938,0.25800088,-0.081512906,0.38156545
1083703048,0.25800088,-0.081512906,0.38156545
1083725312,0.25800088,-0.0844186,0.38156545
1083748434,0.25800088,-0.081512906,0.3847616
1083770544,0.25800088,-0.081512906,0.38795778
1083791920,0.25800088,-0.081512906,0.38156545
1083815112,0.25503096,-0.081512906,0.3847616
1083837312,0.25503096,-0.0844186,0.38156545
1083860440,0.25503096,-0.0844186,0.3847616
1083883488,0.25503096,-0.081512906,0.3847616
1083905439,0.25503096,-0.081512906,0.38156545
1083928506,0.25800088,-0.081512906,0.38156545
1083950439,0.25800088,-0.081512906,0.3783693
1083973520,0.25800088,-0.0844186,0.38156545
1083995432,0.26097083,-0.081512906,0.38156545
1084016658,0.26097083,-0.081512906,0.38156545
1084039855,0.26097083,-0.081512906,0.3783693
1084062330,0.26097083,-0.081512906,0.38156545
1084084529,0.25800088,-0.0844186,0.38156545
1084107431,0.26097083,-0.0844186,0.38156545
1084128652,0.26097083,-0.07860721,0.37517312
1084151854,0.26097083,-0.081512906,0.3783693
1084174362,0.25800088,-0.081512906,0.38156545
1084197438,0.26097083,-0.081512906,0.38156545
1084219432,0.26097083,-0.081512906,0.37517312
1084241432,0.26394075,-0.081512906,0.37197697
1084263908,0.26097083,-0.081512906,0.37197697
1084286432,0.26394075,-0.07860721,0.37517312
1084308973,0.26394075,-0.081512906,0.3783693
1084331441,0.26394075,-0.081512906,0.3783693
1084353442,0.26394075,-0.07860721,0.3783693
1084375431,0.26394075,-0.07860721,0.37517312
1084396655,0.26097083,-0.07860721,0.37517312
1084418439,0.26394075,-0.07860721,0.38156545
1084439431,0.26097083,-0.07860721,0.3783693
1084461444,0.26097083,-0.07860721,0.3783693
1084483487,0.26097083,-0.081512906,0.3783693
1084504611,0.26097083,-0.07860721,0.38156545
1084528273,0.26097083,-0.07570152,0.38156545
1084550323,0.25800088,-0.07570152,0.38156545
1084572732,0.26097083,-0.07860721,0.38156545
1084595279,0.25800088,-0.081512906,0.38156545
1084617343,0.25800088,-0.07860721,0.38156545
1084639275,0.25800088,-0.07570152,0.38156545
1084661612,0.25800088,-0.07860721,0.38156545
1084684270,0.25800088,-0.07860721,0.38156545
1084707431,0.26097083,-0.07860721,0.37517312
1084729342,0.26394075,-0.07860721,0.37517312
1084750326,0.25800088,-0.07570152,0.38156545
1084771274,0.26097083,-0.07860721,0.38156545
1084792272,0.25800088,-0.07860721,0.38156545
1084813585,0.26097083,-0.07860721,0.38156545
1084836280,0.26097083,-0.07860721,0.3783693
1084858624,0.25800088,-0.07860721,0.3783693
1084882620,0.25800088,-0.07860721,0.38156545
1084906666,0.25800088,-0.07860721,0.38156545
1084930559,0.26097083,-0.07860721,0.38156545
1084952355,0.26097083,-0.07860721,0.3847616
1084975442,0.26097083,-0.07860721,0.3783693
1084998269,0.26097083,-0.07570152,0.3783693
1085020439,0.25800088,-0.07570152,0.3783693
1085043431,0.25800088,-0.07860721,0.3783693
1085065735,0.26097083,-0.07860721,0.38156545
1085088432,0.26097083,-0.07860721,0.38156545
1085111434,0.26097083,-0.07570152,0.3847616
1085132432,0.25800088,-0.07570152,0.37517312
1085155470,0.25800088,-0.07860721,0.38156545
1085176522,0.26394075,-0.07860721,0.38156545
1085198433,0.26097083,-0.07860721,0.38156545
1085220439,0.26097083,-0.07860721,0.37197697
1085242542,0.26097083,-0.07570152,0.37517312
1085263434,0.25800088,-0.07860721,0.3783693
1085285432,0.26097083,-0.07860721,0.38156545
1085308504,0.25800088,-0.07570152,0.3847616
1085331432,0.25503096,-0.07570152,0.38156545
1085352438,0.25800088,-0.07860721,0.38156545
1085375014,0.26097083,-0.07860721,0.38156545
1085397439,0.26097083,-0.07860721,0.3783693
1085420432,0.26097083,-0.07570152,0.38156545
1085442549,0.25800088,-0.07570152,0.3783693
1085464431,0.25800088,-0.07860721,0.38156545
1085485434,0.26097083,-0.07860721,0.38156545
1085506574,0.25800088,-0.07570152,0.3783693
1085527478,0.25800088,-0.07570152,0.3783693
1085548657,0.25800088,-0.07570152,0.38156545
1085571431,0.25800088,-0.07570152,0.38156545
1085593440,0.25800088,-0.07570152,0.3783693
1085615880,0.25800088,-0.07860721,0.3783693
1085638448,0.26097083,-0.07860721,0.38795778
1085661444,0.25800088,-0.07860721,0.38156545
1085683431,0.25800088,-0.07570152,0.3847616
1085705442,0.25800088,-0.07570152,0.3847616
1085726438,0.25503096,-0.07570152,0.3783693
1085749444,0.25503096,-0.07570152,0.3847616
1085771431,0.25503096,-0.07570152,0.38795778
1085793442,0.25503096,-0.07279582,0.3847616
1085815857,0.25503096,-0.07570152,0.3783693
1085837483,0.25800088,-0.07570152,0.38156545
1085858475,0.25503096,-0.07570152,0.38156545
1085879470,0.25503096,-0.07570152,0.3911539
1085903432,0.25503096,-0.07279582,0.38156545
1085927472,0.25503096,-0.07279582,0.3847616
1085951439,0.25800088,-0.07570152,0.3847616
1085973439,0.25503096,-0.07570152,0.3783693
1085994432,0.25800088,-0.07860721,0.3847616
1086015431,0.25800088,-0.07570152,0.38156545
1086037444,0.25503096,-0.07570152,0.38156545
1086059432,0.25800088,-0.07570152,0.38156545
1086082433,0.25503096,-0.07570152,0.3847616
1086104431,0.25503096,-0.07570152,0.38156545
1086125447,0.25503096,-0.07279582,0.3847616
1086147439,0.25503096,-0.07279582,0.3783693
1086169475,0.25503096,-0.07279582,0.3847616
1086191432,0.25800088,-0.07279582,0.38795778
1086212432,0.25503096,-0.07279582,0.38156545
1086235432,0.25503096,-0.07279582,0.38156545
1086257454,0.25503096,-0.069890134,0.38156545
1086279431,0.25800088,-0.07279582,0.38156545
1086301455,0.25503096,-0.069890134,0.3847616
1086321433,0.25800088,-0.069890134,0.38156545
1086344439,0.25800088,-0.07279582,0.3847616
1086368440,0.25503096,-0.069890134,0.3847616
1086392729,0.25503096,-0.069890134,0.3847616
1086414433,0.25503096,-0.069890134,0.38156545
1086435471,0.25503096,-0.069890134,0.3783693
1086457453,0.25800088,-0.069890134,0.38156545
1086480755,0.25503096,-0.069890134,0.38795778
1086504432,0.25206104,-0.069890134,0.3911539
1086526627,0.25206104,-0.069890134,0.38156545
1086550325,0.25503096,-0.069890134,0.38156545
1086572433,0.25503096,-0.07279582,0.3783693
1086596432,0.25206104,-0.07279582,0.38156545
1086619440,0.25503096,-0.069890134,0.38795778
1086641717,0.25503096,-0.069890134,0.3911539
1086665772,0.24909113,-0.069890134,0.3847616
1086689806,0.25206104,-0.069890134,0.3847616
1086713794,0.25503096,-0.069890134,0.38156545
1086737803,0.25206104,-0.069890134,0.3783693
1086761724,0.25206104,-0.07279582,0.38156545
1086785724,0.25206104,-0.07279582,0.38156545
1086807433,0.25206104,-0.07279582,0.38156545
1086828437,0.25503096,-0.07279582,0.38795778
1086850579,0.25206104,-0.069890134,0.3847616
1086872527,0.25206104,-0.07570152,0.38795778
1086895431,0.25206104,-0.07570152,0.38156545
1086917432,0.25206104,-0.07279582,0.38795778
1086939438,0.25206104,-0.07279582,0.3911539
1086962533,0.25206104,-0.07279582,0.38156545
1086984432,0.25206104,-0.07279582,0.38156545
1087005432,0.25206104,-0.07570152,0.38156545
1087028431,0.25206104,-0.07570152,0.38795778
1087050530,0.25206104,-0.07570152,0.38795778
1087071431,0.25206104,-0.07570152,0.38156545
1087093432,0.25206104,-0.07570152,0.3847616
1087115432,0.25206104,-0.07860721,0.3847616
1087138586,0.25503096,-0.07570152,0.38156545
1087161435,0.25503096,-0.07570152,0.38156545
1087183947,0.25503096,-0.07570152,0.38156545
1087206431,0.25503096,-0.07570152,0.3783693
1087229445,0.25503096,-0.07860721,0.37517312
1087251439,0.25503096,-0.07860721,0.3847616
1087273437,0.25503096,-0.07570152,0.3911539
1087294433,0.25503096,-0.07570152,0.3847616
1087317442,0.25503096,-0.07570152,0.38156545
1087339441,0.25503096,-0.07570152,0.38156545
1087361451,0.25503096,-0.07860721,0.38156545
1087382432,0.25503096,-0.07570152,0.3847616
1087405480,0.25503096,-0.07279582,0.3847616
1087426471,0.25503096,-0.07570152,0.3783693
1087447916,0.25800088,-0.07570152,0.38795778
1087470432,0.25503096,-0.07570152,0.38156545
1087492432,0.25503096,-0.07570152,0.38156545
1087514433,0.25800088,-0.07570152,0.38156545
1087536641,0.25800088,-0.07860721,0.3847616
1087559440,0.25503096,-0.07570152,0.38795778
1087582438,0.25800088,-0.07570152,0.38156545
1087603431,0.25800088,-0.07570152,0.3783693
1087624688,0.25800088,-0.07860721,0.38156545
1087647431,0.25800088,-0.07570152,0.38156545
1087670475,0.26097083,-0.07570152,0.3847616
1087691431,0.25800088,-0.07570152,0.37517312
1087712743,0.25800088,-0.07860721,0.38156545
1087735468,0.25800088,-0.07570152,0.38156545
1087758473,0.26097083,-0.07570152,0.38795778
1087780437,0.25800088,-0.07570152,0.3847616
1087803432,0.25800088,-0.07570152,0.38156545
1087824437,0.26097083,-0.07570152,0.38156545
1087848432,0.25800088,-0.07570152,0.38156545
1087870432,0.25800088,-0.07570152,0.3847616
1087891439,0.25503096,-0.07570152,0.3783693
1087913438,0.25800088,-0.07860721,0.38156545
1087936440,0.26394075,-0.07570152,0.3847616
1087960746,0.26097083,-0.07860721,0.38156545
1087984438,0.25800088,-0.07860721,0.38156545
1088008431,0.26097083,-0.07570152,0.38156545
1088029456,0.25800088,-0.07570152,0.3783693
1088051472,0.26097083,-0.07860721,0.38156545
1088073454,0.26097083,-0.07860721,0.38156545
1088096439,0.26097083,-0.07570152,0.3847616
1088119432,0.25800088,-0.07570152,0.38156545
1088142153,0.26097083,-0.07860721,0.38156545
1088164430,0.25800088,-0.07860721,0.38156545
1088186470,0.25800088,-0.07860721,0.38156545
1088209749,0.25800088,-0.07860721,0.38156545
1088233794,0.26097083,-0.07860721,0.38156545
1088257763,0.26097083,-0.07860721,0.38156545
1088279432,0.26394075,-0.07860721,0.3783693
1088300524,0.26097083,-0.081512906,0.3847616
1088323436,0.25800088,-0.07860721,0.38156545
1088345715,0.25800088,-0.07860721,0.38156545
1088369769,0.26097083,-0.07860721,0.37517312
1088393828,0.26097083,-0.07860721,0.37517312
1088417744,0.26097083,-0.07860721,0.37517312
1088440440,0.26097083,-0.081512906,0.38156545
1088463434,0.26097083,-0.081512906,0.38156545
1088485432,0.26097083,-0.07860721,0.38156545
1088507431,0.26097083,-0.07860721,0.3783693
1088527491,0.26097083,-0.07860721,0.38156545
1088547431,0.26097083,-0.07860721,0.38156545
1088569432,0.26394075,-0.07860721,0.38156545
1088592431,0.26097083,-0.07860721,0.38156545
1088615133,0.26097083,-0.07860721,0.38156545
1088637442,0.26097083,-0.081512906,0.3783693
1088660432,0.26097083,-0.07860721,0.3783693
1088682560,0.26097083,-0.07570152,0.38156545
1088703528,0.26097083,-0.07860721,0.3783693
1088724536,0.26097083,-0.07860721,0.3783693
1088747442,0.25800088,-0.07860721,0.38156545
1088769442,0.26097083,-0.07860721,0.3783693
1088791743,0.26097083,-0.07860721,0.38156545
1088814432,0.25800088,-0.081512906,0.38156545
1088837474,0.25800088,-0.081512906,0.3847616
1088858442,0.25800088,-0.07860721,0.38156545
1088879933,0.26097083,-0.081512906,0.3783693
1088902432,0.26097083,-0.081512906,0.38156545
1088925448,0.26097083,-0.081512906,0.3783693
1088947440,0.25800088,-0.07860721,0.38156545
1088969484,0.25800088,-0.07860721,0.3847616
1088990470,0.26097083,-0.07860721,0.38156545
1089013448,0.26394075,-0.07860721,0.37517312
1089035442,0.26097083,-0.081512906,0.3847616
1089057447,0.26097083,-0.081512906,0.38795778
1089078433,0.26097083,-0.07860721,0.3783693
1089099438,0.26097083,-0.07860721,0.38156545
1089121457,0.26097083,-0.081512906,0.38156545
1089143488,0.26394075,-0.081512906,0.38156545
1089166432,0.26097083,-0.07860721,0.3783693
1089187438,0.26394075,-0.081512906,0.37197697
1089208793,0.26394075,-0.081512906,0.37517312
1089231439,0.26691067,-0.081512906,0.38156545
1089254431,0.26394075,-0.07860721,0.38156545
1089276431,0.26691067,-0.07860721,0.37517312
1089298469,0.26394075,-0.081512906,0.37517312
1089319476,0.26097083,-0.081512906,0.37517312
1089342432,0.26691067,-0.081512906,0.3783693
1089364431,0.26394075,-0.07860721,0.38156545
1089387439,0.26097083,-0.07860721,0.37517312
1089409474,0.26097083,-0.07860721,0.38156545
1089431440,0.26394075,-0.07860721,0.38156545
1089453456,0.26394075,-0.07860721,0.3783693
1089474440,0.26394075,-0.07570152,0.38156545
1089496437,0.26394075,-0.07860721,0.38156545
1089519440,0.26394075,-0.07860721,0.38156545
1089541459,0.26394075,-0.07860721,0.38156545
1089564438,0.26394075,-0.07570152,0.37197697
1089588441,0.26394075,-0.07570152,0.3783693
1089612432,0.26394075,-0.07860721,0.3783693
1089634442,0.26394075,-0.07860721,0.38156545
1089655441,0.26394075,-0.07570152,0.3783693
1089677454,0.26394075,-0.07860721,0.37517312
1089700432,0.26691067,-0.07860721,0.36878082
1089722216,0.26394075,-0.07860721,0.37197697
1089744438,0.26394075,-0.07860721,0.38156545
1089767435,0.26097083,-0.07570152,0.3783693
1089789740,0.26097083,-0.07570152,0.37197697
1089813836,0.26394075,-0.07570152,0.37517312
1089837774,0.26394075,-0.07860721,0.38156545
1089860431,0.26394075,-0.07860721,0.37517312
1089883433,0.26097083,-0.07860721,0.3783693
1089906256,0.26097083,-0.07860721,0.3847616
1089928432,0.26097083,-0.07860721,0.38156545
1089951432,0.26097083,-0.07860721,0.3847616
1089973775,0.26097083,-0.081512906,0.38795778
1089997774,0.25800088,-0.07860721,0.3847616
1090021750,0.25800088,-0.07860721,0.38156545
1090044440,0.26097083,-0.07860721,0.38156545
1090067432,0.26097083,-0.07860721,0.3847616
1090089471,0.26097083,-0.07860721,0.38156545
1090111432,0.25800088,-0.07860721,0.37517312
1090132432,0.25800088,-0.081512906,0.38156545
1090154533,0.26097083,-0.07860721,0.38156545
1090176432,0.26097083,-0.07860721,0.3783693
1090199041,0.26097083,-0.081512906,0.37197697
1090221432,0.26394075,-0.081512906,0.37517312
1090244431,0.26394075,-0.081512906,0.3783693
1090266601,0.26394075,-0.07860721,0.38156545
1090290618,0.26394075,-0.07860721,0.38156545
1090313432,0.26394075,-0.07860721,0.3783693
1090336431,0.26097083,-0.07860721,0.37517312
1090358431,0.26097083,-0.081512906,0.3783693
1090380432,0.26394075,-0.081512906,0.38156545
1090401435,0.26394075,-0.081512906,0.38156545
1090422431,0.26097083,-0.07860721,0.37197697
1090445449,0.26097083,-0.081512906,0.37517312
1090467441,0.26097083,-0.081512906,0.3783693
1090489434,0.26394075,-0.081512906,0.38156545
1090511728,0.26097083,-0.07860721,0.38156545
1090534473,0.26394075,-0.07860721,0.38156545
1090557470,0.26097083,-0.081512906,0.3783693
1090579431,0.26394075,-0.07860721,0.3783693
1090601435,0.26097083,-0.07860721,0.3783693
1090622432,0.26394075,-0.07860721,0.38156545
1090645445,0.26394075,-0.081512906,0.3783693
1090667431,0.26394075,-0.081512906,0.37517312
1090689445,0.26394075,-0.081512906,0.37517312
1090710431,0.26394075,-0.07860721,0.37517312
1090732430,0.26097083,-0.081512906,0.38156545
1090755439,0.26394075,-0.081512906,0.37517312
1090777437,0.26691067,-0.081512906,0.3783693
1090799432,0.26394075,-0.081512906,0.37197697
1090821476,0.26394075,-0.081512906,0.3783693
1090843488,0.26394075,-0.081512906,0.3783693
1090867432,0.26394075,-0.081512906,0.37197697
1090888736,0.26691067,-0.081512906,0.37517312
1090911434,0.26394075,-0.0844186,0.37517312
1090934431,0.26691067,-0.0844186,0.38156545
1090955438,0.26691067,-0.081512906,0.37517312
1090976657,0.26394075,-0.081512906,0.3783693
1090999433,0.26394075,-0.081512906,0.3783693
1091021461,0.26394075,-0.081512906,0.38156545
1091044432,0.26394075,-0.081512906,0.3783693
1091066433,0.26394075,-0.081512906,0.3847616
1091088745,0.26394075,-0.081512906,0.37197697
1091111431,0.26691067,-0.081512906,0.37197697
1091133442,0.26691067,-0.0844186,0.3783693
1091156432,0.26691067,-0.081512906,0.37517312
1091177550,0.26691067,-0.081512906,0.37517312
1091199431,0.26394075,-0.081512906,0.3783693
1091221452,0.26691067,-0.081512906,0.38156545
1091244439,0.26691067,-0.081512906,0.3783693
1091268748,0.26691067,-0.081512906,0.37197697
1091292733,0.26691067,-0.081512906,0.37197697
1091316636,0.26691067,-0.081512906,0.37517312
1091339432,0.26988062,-0.081512906,0.3783693
1091362305,0.26691067,-0.081512906,0.37517312
1091384432,0.26691067,-0.081512906,0.37517312
1091407432,0.26691067,-0.081512906,0.37517312
1091429735,0.26988062,-0.081512906,0.36878082
1091451434,0.26691067,-0.081512906,0.37517312
1091471441,0.26394075,-0.081512906,0.3783693
1091493816,0.26691067,-0.081512906,0.37517312
1091517746,0.26691067,-0.081512906,0.37197697
1091539433,0.26691067,-0.081512906,0.37197697
1091560432,0.26394075,-0.081512906,0.37517312
1091582432,0.26394075,-0.07860721,0.37517312
1091604514,0.26394075,-0.081512906,0.37517312
1091627431,0.26394075,-0.081512906,0.37517312
1091649432,0.26394075,-0.07860721,0.3783693
1091671441,0.26394075,-0.07860721,0.37517312
1091693433,0.26394075,-0.081512906,0.3783693
1091716531,0.26394075,-0.081512906,0.38156545
1091739439,0.26394075,-0.081512906,0.3783693
1091762598,0.26394075,-0.07860721,0.38156545
1091785433,0.26394075,-0.07860721,0.38156545
1091808432,0.26394075,-0.07860721,0.38156545
1091831082,0.26097083,-0.07860721,0.3783693
1091853440,0.26394075,-0.07860721,0.38156545
1091876438,0.26097083,-0.07860721,0.3783693
1091897439,0.25800088,-0.07860721,0.38156545
1091920438,0.26097083,-0.07860721,0.3783693
1091943432,0.26394075,-0.07860721,0.3783693
1091964438,0.26097083,-0.07860721,0.38156545
1091987438,0.26097083,-0.07860721,0.38156545
1092009445,0.26097083,-0.07860721,0.38156545
1092031746,0.26097083,-0.07860721,0.37517312
1092054431,0.25800088,-0.07860721,0.3847616
1092077441,0.25503096,-0.07860721,0.38156545
1092099431,0.25800088,-0.07860721,0.38156545
1092121439,0.25800088,-0.07860721,0.3847616
1092142432,0.25800088,-0.07860721,0.38156545
1092165434,0.25800088,-0.07860721,0.3847616
1092187440,0.25800088,-0.07860721,0.3783693
1092209435,0.25800088,-0.07860721,0.3847616
1092230432,0.25503096,-0.07860721,0.37517312
1092251432,0.25800088,-0.07860721,0.37197697
1092273446,0.25503096,-0.07860721,0.3847616
1092295432,0.25503096,-0.07860721,0.38156545
1092318433,0.25503096,-0.07860721,0.38156545
1092340433,0.25800088,-0.07860721,0.38156545
1092363521,0.25503096,-0.07860721,0.38156545
1092387431,0.25503096,-0.07860721,0.38156545
1092409443,0.25800088,-0.07860721,0.38156545
1092430432,0.25800088,-0.07860721,0.38156545
1092451432,0.25503096,-0.07860721,0.38795778
1092473432,0.25800088,-0.07860721,0.38156545
1092495431,0.25800088,-0.07860721,0.38156545
1092518439,0.25503096,-0.07860721,0.38156545
1092539432,0.25800088,-0.07860721,0.38795778
1092561441,0.25503096,-0.07860721,0.38795778
1092583433,0.25800088,-0.07860721,0.3847616
1092606432,0.25503096,-0.07860721,0.38156545
1092628430,0.25503096,-0.07860721,0.38156545
1092650432,0.25503096,-0.07860721,0.38156545
1092672730,0.25206104,-0.07860721,0.38156545
1092695470,0.25503096,-0.07860721,0.38156545
1092717445,0.25800088,-0.081512906,0.3783693
1092740746,0.25503096,-0.081512906,0.3847616
1092764745,0.25503096,-0.081512906,0.3847616
1092788742,0.25800088,-0.07860721,0.38156545
1092812432,0.25800088,-0.07860721,0.38795778
1092834432,0.25800088,-0.07860721,0.3783693
1092855431,0.25503096,-0.081512906,0.3847616
1092877456,0.25800088,-0.081512906,0.3783693
1092900791,0.25503096,-0.081512906,0.38156545
1092924432,0.25800088,-0.081512906,0.38156545
1092947434,0.25503096,-0.081512906,0.38795778
1092969724,0.25503096,-0.081512906,0.3847616
1092993766,0.25206104,-0.07860721,0.38156545
1093017739,0.25800088,-0.081512906,0.38156545
1093039432,0.25503096,-0.081512906,0.38156545
1093062465,0.25800088,-0.081512906,0.3847616
1093083472,0.25800088,-0.081512906,0.38795778
1093105755,0.25503096,-0.0844186,0.38156545
1093129828,0.25503096,-0.0844186,0.3847616
1093153878,0.25503096,-0.0844186,0.38156545
1093177828,0.25800088,-0.081512906,0.38156545
1093201734,0.25800088,-0.081512906,0.3783693
1093223431,0.25800088,-0.0844186,0.3847616
1093245442,0.25503096,-0.0844186,0.38156545
1093267469,0.25800088,-0.081512906,0.3847616
1093288527,0.25800088,-0.081512906,0.38156545
1093311431,0.25800088,-0.0844186,0.38156545
1093333432,0.25800088,-0.0844186,0.3783693
1093355432,0.25503096,-0.081512906,0.38156545
1093378548,0.26097083,-0.081512906,0.3783693
1093400438,0.25800088,-0.0844186,0.3847616
1093423431,0.25800088,-0.081512906,0.38156545
1093445432,0.25800088,-0.081512906,0.3783693
1093468503,0.26097083,-0.0844186,0.38156545
1093490564,0.25800088,-0.0844186,0.38795778
1093512536,0.25800088,-0.081512906,0.38156545
1093535431,0.25800088,-0.081512906,0.38795778
1093557436,0.25800088,-0.0844186,0.38156545
1093579440,0.25800088,-0.0844186,0.38156545
1093600438,0.25800088,-0.081512906,0.38795778
1093623892,0.25800088,-0.0844186,0.38156545
1093646441,0.25800088,-0.081512906,0.38156545
1093669445,0.25800088,-0.081512906,0.38156545
1093691431,0.25800088,-0.0844186,0.38156545
1093713449,0.26097083,-0.0844186,0.3847616
1093734439,0.25503096,-0.081512906,0.3847616
1093757479,0.25800088,-0.0844186,0.3847616
1093778480,0.26097083,-0.0844186,0.37517312
1093799918,0.25800088,-0.0844186,0.38156545
1093822444,0.25800088,-0.0844186,0.37517312
1093845432,0.26097083,-0.0844186,0.3783693
1093867434,0.26097083,-0.0844186,0.3847616
1093888721,0.25800088,-0.0844186,0.38156545
1093911432,0.25503096,-0.0844186,0.38156545
1093934432,0.25800088,-0.0873243,0.38156545
1093956431,0.26097083,-0.0844186,0.3847616
1093979431,0.25800088,-0.0844186,0.3783693
1094001443,0.26097083,-0.0844186,0.3847616
1094023519,0.26097083,-0.0844186,0.38156545
1094046433,0.25503096,-0.0844186,0.3783693
1094068431,0.26097083,-0.081512906,0.3847616
1094091431,0.26097083,-0.0844186,0.38156545
1094112550,0.25800088,-0.0844186,0.38795778
1094135431,0.25800088,-0.0844186,0.38156545
1094158432,0.25503096,-0.0844186,0.38156545
1094179432,0.25800088,-0.0844186,0.38156545
1094200438,0.25800088,-0.0844186,0.38156545
1094224431,0.26097083,-0.0844186,0.3847616
1094246433,0.25800088,-0.0844186,0.3783693
1094267431,0.26097083,-0.0844186,0.38156545
1094289441,0.25800088,-0.0844186,0.3783693
1094312748,0.25800088,-0.0844186,0.38156545
1094336431,0.25800088,-0.0844186,0.38156545
1094358432,0.26097083,-0.0844186,0.38795778
1094380431,0.25800088,-0.0844186,0.3783693
1094403432,0.25800088,-0.0844186,0.38156545
1094425445,0.26097083,-0.0873243,0.38156545
1094448430,0.26097083,-0.0844186,0.38156545
1094470432,0.25503096,-0.0844186,0.3911539
1094492431,0.25800088,-0.0844186,0.3783693
1094515471,0.25800088,-0.0844186,0.3783693
1094537790,0.25800088,-0.0844186,0.38156545
1094561788,0.25800088,-0.081512906,0.38156545
1094585802,0.25800088,-0.0844186,0.3847616
1094609793,0.25800088,-0.0844186,0.3783693
1094631439,0.25800088,-0.0844186,0.38795778
1094652518,0.25800088,-0.081512906,0.3783693
1094675435,0.25800088,-0.0844186,0.38156545
1094697759,0.25800088,-0.0844186,0.38156545
1094721766,0.25800088,-0.0844186,0.3847616
1094745790,0.25800088,-0.0844186,0.38795778
1094769724,0.25800088,-0.081512906,0.3847616
1094793794,0.26097083,-0.081512906,0.38156545
1094817730,0.25800088,-0.081512906,0.37197697
1094841432,0.26097083,-0.0844186,0.38156545
1094864438,0.25503096,-0.0844186,0.38156545
1094887431,0.25503096,-0.0844186,0.38156545
1094909432,0.25800088,-0.0844186,0.3783693
1094931472,0.25800088,-0.0844186,0.38156545
1094952536,0.25800088,-0.0844186,0.3847616
1094975431,0.25800088,-0.081512906,0.3847616
1094997432,0.25800088,-0.081512906,0.3783693
1095019432,0.25800088,-0.081512906,0.3783693
1095042540,0.25800088,-0.0844186,0.38156545
1095064439,0.25800088,-0.081512906,0.3783693
1095087441,0.26097083,-0.081512906,0.38156545
1095109431,0.25800088,-0.0844186,0.38156545
1095132432,0.25503096,-0.0844186,0.38156545
1095154517,0.26097083,-0.081512906,0.3847616
1095175746,0.25800088,-0.0844186,0.3783693
1095196535,0.25800088,-0.0844186,0.3847616
1095219433,0.26097083,-0.081512906,0.3783693
1095241440,0.26097083,-0.0844186,0.38156545
1095263875,0.25800088,-0.0844186,0.38156545
1095286433,0.26097083,-0.0844186,0.38156545
1095309443,0.25800088,-0.0844186,0.3847616
1095331431,0.26097083,-0.0844186,0.38156545
1095353440,0.26097083,-0.0873243,0.38156545
1095375877,0.25800088,-0.0844186,0.3783693
1095398431,0.26097083,-0.0844186,0.38156545
1095421448,0.26097083,-0.0844186,0.37517312
1095443526,0.25800088,-0.0844186,0.38156545
1095464533,0.26097083,-0.0873243,0.3783693
1095487431,0.26097083,-0.0844186,0.3783693
1095509441,0.26097083,-0.0873243,0.38156545
1095531432,0.26097083,-0.0844186,0.3783693
1095554431,0.26097083,-0.0844186,0.3783693
1095576507,0.26097083,-0.0844186,0.3783693
1095599430,0.26394075,-0.0844186,0.3783693
1095621440,0.26097083,-0.0873243,0.3783693
1095643490,0.26097083,-0.0844186,0.3783693
1095666432,0.26097083,-0.0844186,0.37517312
1095688431,0.26097083,-0.0873243,0.38156545
1095710470,0.26097083,-0.0844186,0.38156545
1095731476,0.26394075,-0.0844186,0.38156545
1095754439,0.25800088,-0.0873243,0.3783693
1095776508,0.25800088,-0.0873243,0.3847616
1095799437,0.26097083,-0.0844186,0.3783693
1095821549,0.26097083,-0.0844186,0.38156545
1095843524,0.26097083,-0.0873243,0.38156545
1095865439,0.26097083,-0.0873243,0.38156545
1095888439,0.25800088,-0.0844186,0.3783693
1095912441,0.25800088,-0.0844186,0.3783693
1095936752,0.25800088,-0.0844186,0.3783693
1095960430,0.26097083,-0.0873243,0.3783693
1095982433,0.26097083,-0.0873243,0.38156545
1096003496,0.25800088,-0.0844186,0.38795778
1096025451,0.26394075,-0.0873243,0.3783693
1096047433,0.26097083,-0.0873243,0.3783693
1096069489,0.26394075,-0.0873243,0.3783693
1096091432,0.26097083,-0.0873243,0.37517312
1096113446,0.26097083,-0.0873243,0.3783693
1096134438,0.26097083,-0.0844186,0.3783693
1096156439,0.26394075,-0.0844186,0.37517312
1096179432,0.26097083,-0.0873243,0.3783693
1096201746,0.26097083,-0.0873243,0.3847616
1096224441,0.25800088,-0.0873243,0.38156545
1096246476,0.25800088,-0.0873243,0.3783693
1096267473,0.26097083,-0.0873243,0.38156545
1096288520,0.25800088,-0.0873243,0.3847616
1096311436,0.26097083,-0.0844186,0.38156545
1096334330,0.26394075,-0.0873243,0.37517312
1096356438,0.25800088,-0.0873243,0.3783693
1096378605,0.26394075,-0.0844186,0.38156545
1096402587,0.26097083,-0.0844186,0.38156545
1096426607,0.26097083,-0.0844186,0.38156545
1096450584,0.25800088,-0.0873243,0.38156545
1096473314,0.26394075,-0.0844186,0.38795778
1096495863,0.26097083,-0.0873243,0.37517312
1096519430,0.25800088,-0.0873243,0.38156545
1096541449,0.25800088,-0.0873243,0.38156545
1096564271,0.25800088,-0.0873243,0.38156545
1096587411,0.25800088,-0.0844186,0.38156545
1096610619,0.25800088,-0.0873243,0.3783693
1096633441,0.26097083,-0.0844186,0.3847616
1096655439,0.25800088,-0.0844186,0.3783693
1096677442,0.26097083,-0.0873243,0.38156545
1096700431,0.25800088,-0.0873243,0.3847616
1096722512,0.25800088,-0.0873243,0.38156545
1096743075,0.26097083,-0.0873243,0.38156545
1096765449,0.25503096,-0.0873243,0.3847616
1096786431,0.25503096,-0.0844186,0.3783693
1096808674,0.25800088,-0.0844186,0.3783693
1096831899,0.25800088,-0.0873243,0.38156545
1096853540,0.25503096,-0.0844186,0.3847616
1096874432,0.25800088,-0.0844186,0.38156545
1096897458,0.25503096,-0.0873243,0.38795778
1096919990,0.25800088,-0.0873243,0.3847616
1096940431,0.25800088,-0.0873243,0.38156545
1096962432,0.25800088,-0.0873243,0.3783693
1096984437,0.25800088,-0.0873243,0.38156545
1097005445,0.25503096,-0.0844186,0.38156545
1097026431,0.25800088,-0.0873243,0.3847616
1097048431,0.25800088,-0.0873243,0.3847616
1097069435,0.25503096,-0.0873243,0.38156545
1097091433,0.26097083,-0.0873243,0.3847616
1097113544,0.25800088,-0.0873243,0.3847616
1097135471,0.25800088,-0.0873243,0.3847616
1097158432,0.25800088,-0.0873243,0.3783693
1097180530,0.25503096,-0.0873243,0.3783693
1097203487,0.25800088,-0.0873243,0.38156545
1097225455,0.25800088,-0.0873243,0.38156545
1097247439,0.25800088,-0.0873243,0.38156545
1097270433,0.26097083,-0.0873243,0.38156545
1097292431,0.26097083,-0.0844186,0.38156545
1097315432,0.26097083,-0.0873243,0.3847616
1097337435,0.26097083,-0.09022999,0.38156545
1097359432,0.25800088,-0.0873243,0.38156545
1097382432,0.26097083,-0.0844186,0.38156545
1097403431,0.26097083,-0.0873243,0.37517312
1097424433,0.25800088,-0.0873243,0.38156545
1097445441,0.26097083,-0.0873243,0.37517312
1097468755,0.26097083,-0.09022999,0.38156545
1097492432,0.26097083,-0.0873243,0.3847616
1097514431,0.26097083,-0.0873243,0.3847616
1097536432,0.26097083,-0.0873243,0.38156545
1097559440,0.26097083,-0.0873243,0.3783693
1097581445,0.26097083,-0.0873243,0.38156545
1097604431,0.26097083,-0.0873243,0.3783693
1097626431,0.26097083,-0.0873243,0.37517312
1097648431,0.26097083,-0.0873243,0.3847616
1097671434,0.26097083,-0.0873243,0.38156545
1097692437,0.25800088,-0.09022999,0.3783693
1097714438,0.26097083,-0.0873243,0.3783693
1097736520,0.26097083,-0.0873243,0.3783693
1097759431,0.26394075,-0.0873243,0.38156545
1097781755,0.26097083,-0.0873243,0.38156545
1097805740,0.26097083,-0.0873243,0.3847616
1097829770,0.25800088,-0.0873243,0.3783693
1097853854,0.26394075,-0.0873243,0.37517312
1097877710,0.26394075,-0.0873243,0.3783693
1097901771,0.26394075,-0.09022999,0.37517312
1097925819,0.26394075,-0.0873243,0.38156545
1097948431,0.26097083,-0.09022999,0.38156545
1097971472,0.26097083,-0.0873243,0.38156545
1097994435,0.26394075,-0.0873243,0.3783693
1098016439,0.26394075,-0.0873243,0.37517312
1098040487,0.26394075,-0.0873243,0.3783693
1098064432,0.26097083,-0.0873243,0.37197697
1098087224,0.26097083,-0.0873243,0.37517312
1098109431,0.26394075,-0.0873243,0.37517312
1098132432,0.26394075,-0.0873243,0.38156545
1098153432,0.26097083,-0.0873243,0.38156545
1098176431,0.26394075,-0.0873243,0.37197697
1098198942,0.26097083,-0.0873243,0.3783693
1098220431,0.26394075,-0.0873243,0.37197697
1098242560,0.26394075,-0.0844186,0.3783693
1098266583,0.26097083,-0.0873243,0.3783693
1098288431,0.26097083,-0.0873243,0.38156545
1098309471,0.26097083,-0.0873243,0.3783693
1098332528,0.26097083,-0.0873243,0.3847616
1098355439,0.26394075,-0.0873243,0.3783693
1098378433,0.26097083,-0.0873243,0.37517312
1098400431,0.26097083,-0.0844186,0.37517312
1098422432,0.26394075,-0.0873243,0.3783693
1098445479,0.26394075,-0.0873243,0.38156545
1098466431,0.25800088,-0.0844186,0.38156545
1098487854,0.26394075,-0.0844186,0.3783693
1098510432,0.26097083,-0.0873243,0.3783693
1098533442,0.25800088,-0.0873243,0.3783693
1098555432,0.26097083,-0.0873243,0.37517312
1098577476,0.26097083,-0.0873243,0.37197697
1098598470,0.26394075,-0.0873243,0.3783693
1098621474,0.26097083,-0.0873243,0.38156545
1098643431,0.26097083,-0.0873243,0.37517312
1098665435,0.26394075,-0.0844186,0.37197697
1098686471,0.25800088,-0.0873243,0.38156545
1098709432,0.26394075,-0.0873243,0.3783693
1098731472,0.26394075,-0.0844186,0.37517312
1098753441,0.26097083,-0.0873243,0.3783693
1098774432,0.26394075,-0.0844186,0.3783693
1098796431,0.26097083,-0.0873243,0.37517312
1098817441,0.26394075,-0.0844186,0.38156545
1098839440,0.26394075,-0.0844186,0.3783693
1098862439,0.26097083,-0.0844186,0.37517312
1098884432,0.26394075,-0.0844186,0.37517312
1098906477,0.26394075,-0.0844186,0.3783693
1098928721,0.26394075,-0.0873243,0.38156545
1098951439,0.26394075,-0.0844186,0.37517312
1098973444,0.26394075,-0.081512906,0.3783693
1098996431,0.26394075,-0.081512906,0.3847616
1099017451,0.26097083,-0.07570152,0.37517312
1099039432,0.26394075,-0.07570152,0.3783693
1099061451,0.26394075,-0.069890134,0.3783693
1099084432,0.26394075,-0.06698443,0.3783693
1099108442,0.26691067,-0.06407874,0.3783693
1099132738,0.26988062,-0.061173044,0.3783693
1099157482,0.26988062,-0.05245596,0.37517312
1099180438,0.27285054,-0.04664457,0.37197697
1099204432,0.27285054,-0.043738876,0.37197697
1099225487,0.27582046,-0.040833183,0.36878082
1099246431,0.27879038,-0.035021793,0.3559962
1099268439,0.28176033,-0.029210404,0.3528
1099292439,0.28770018,-0.029210404,0.34960386
1099314439,0.28770018,-0.026304709,0.3559962
1099337838,0.29067013,-0.023399014,0.34960386
1099361751,0.29364008,-0.02049332,0.3464077
1099384518,0.29661,-0.017587624,0.3464077
1099407440,0.29957995,-0.017587624,0.33681923
1099430833,0.30254987,-0.011776236,0.33362308
1099454945,0.3055198,-0.008870541,0.32723075
1099478268,0.3084897,-0.0059648464,0.3304269
1099500431,0.3084897,-0.008870541,0.3240346
1099523470,0.3173995,-0.0030591516,0.3240346
1099545728,0.3173995,-0.0030591516,0.32083842
1099569722,0.32333937,-0.00015345702,0.31124994
1099593791,0.3263093,0.0027522377,0.3080538
1099616438,0.33224916,0.0056579323,0.3080538
1099639439,0.3352191,0.0056579323,0.30485764
1099661435,0.338189,0.0056579323,0.30166152
1099684431,0.34115896,0.0085636275,0.29207304
1099706514,0.3470988,0.011469321,0.2856807
1099728528,0.3470988,0.011469321,0.28248456
1099751430,0.35303867,0.011469321,0.28248456
1099773432,0.3560086,0.014375016,0.27609223
1099796431,0.3589785,0.01728071,0.27289608
1099818561,0.36194846,0.01728071,0.27289608
1099839440,0.36491838,0.020186406,0.26969993
1099861432,0.3678883,0.020186406,0.26011142
1099884431,0.37085825,0.020186406,0.2633076
1099906516,0.37085825,0.020186406,0.25052297
1099927046,0.37085825,0.0230921,0.2473268
1099949438,0.37382817,0.0230921,0.24093449
1099972431,0.37976804,0.0230921,0.23773833
1099994431,0.37976804,0.0230921,0.24413064
1100016432,0.3767981,0.02890349,0.23454218
1100038431,0.38273796,0.025997793,0.23134603
1100060544,0.38273796,0.025997793,0.23134603
1100083434,0.38570789,0.031809185,0.23454218
1100105433,0.38570789,0.02890349,0.22814986
1100127875,0.38570789,0.02890349,0.22814986
1100150439,0.3886778,0.02890349,0.22495371
1100173439,0.39164776,0.02890349,0.22814986
1100195433,0.3886778,0.02890349,0.22175755
1100217437,0.38570789,0.02890349,0.22814986
1100238432,0.3886778,0.02890349,0.22495371
1100260440,0.3886778,0.02890349,0.22175755
1100282433,0.3886778,0.031809185,0.22495371
1100304431,0.38570789,0.02890349,0.22814986
1100327440,0.38570789,0.025997793,0.22175755
1100347433,0.38570789,0.02890349,0.23454218
1100369451,0.38273796,0.02890349,0.22814986
1100392544,0.38570789,0.02890349,0.22175755
1100416441,0.38273796,0.031809185,0.23134603
1100440439,0.38273796,0.031809185,0.23134603
1100463491,0.37976804,0.02890349,0.23134603
1100487432,0.38273796,0.025997793,0.23773833
1100509438,0.37976804,0.025997793,0.24413064
1100531439,0.3767981,0.02890349,0.23773833
1100554433,0.37976804,0.02890349,0.24413064
1100576432,0.3767981,0.02890349,0.24413064
1100598473,0.3767981,0.025997793,0.24413064
1100620553,0.3767981,0.025997793,0.2473268
1100643431,0.37382817,0.02890349,0.25691527
1100665444,0.37085825,0.025997793,0.24413064
1100689484,0.37085825,0.025997793,0.2473268
1100713541,0.37085825,0.025997793,0.25052297
1100734431,0.3678883,0.0230921,0.25691527
1100755431,0.36491838,0.025997793,0.26011142
1100776431,0.36491838,0.025997793,0.25371912
1100798432,0.36491838,0.025997793,0.25691527
1100819494,0.36491838,0.025997793,0.26011142
1100841442,0.36194846,0.0230921,0.25691527
1100864431,0.36194846,0.025997793,0.26650375
1100886516,0.3589785,0.025997793,0.26969993
1100909634,0.3589785,0.025997793,0.27289608
1100932270,0.3589785,0.0230921,0.27289608
1100954639,0.3560086,0.025997793,0.27928838
1100978639,0.35303867,0.025997793,0.27289608
1101002572,0.35006875,0.025997793,0.28248456
1101024274,0.35006875,0.025997793,0.27609223
1101046290,0.35006875,0.025997793,0.27928838
1101068272,0.3470988,0.0230921,0.28887686
1101090569,0.34412888,0.0230921,0.28887686
1101114622,0.34115896,0.0230921,0.2952692
1101139321,0.34115896,0.025997793,0.2952692
1101163282,0.338189,0.025997793,0.30166152
1101186631,0.33224916,0.0230921,0.2952692
1101210588,0.3352191,0.0230921,0.30166152
1101234613,0.33224916,0.0230921,0.31124994
1101258565,0.3263093,0.0230921,0.31124994
1101280274,0.3263093,0.0230921,0.31444612
1101303083,0.32036945,0.025997793,0.31124994
1101325313,0.3173995,0.0230921,0.32083842
1101349432,0.31442958,0.0230921,0.3240346
1101372440,0.31145966,0.0230921,0.33362308
1101394547,0.3055198,0.0230921,0.32723075
1101416432,0.30254987,0.020186406,0.33362308
1101437432,0.29957995,0.0230921,0.33681923
1101459439,0.29067013,0.020186406,0.3464077
1101482545,0.29067013,0.020186406,0.34321153
1101503433,0.28770018,0.020186406,0.33681923
1101524441,0.28473026,0.020186406,0.34321153
1101547431,0.28176033,0.01728071,0.3528
1101569431,0.28176033,0.0230921,0.3528
1101591950,0.27582046,0.020186406,0.3528
1101614432,0.27582046,0.020186406,0.34960386
1101636432,0.27285054,0.01728071,0.3528
1101659431,0.26988062,0.020186406,0.35919234
1101680439,0.26988062,0.020186406,0.36558464
1101702432,0.26394075,0.01728071,0.36558464
1101723431,0.26394075,0.01728071,0.36878082
1101744431,0.25800088,0.01728071,0.36878082
1101765435,0.26097083,0.01728071,0.36878082
1101787431,0.26097083,0.01728071,0.36558464
1101808647,0.25503096,0.01728071,0.3783693
1101831893,0.25503096,0.014375016,0.37517312
1101854431,0.25503096,0.01728071,0.3783693
1101877441,0.25206104,0.01728071,0.36878082
1101899433,0.25206104,0.01728071,0.37197697
1101920802,0.25206104,0.01728071,0.37517312
1101943431,0.24909113,0.01728071,0.38156545
1101966431,0.24612118,0.020186406,0.38156545
1101988431,0.24909113,0.020186406,0.38156545
1102011478,0.24612118,0.020186406,0.38156545
1102036430,0.24612118,0.020186406,0.3783693
1102059432,0.24018133,0.020186406,0.3847616
1102081446,0.24018133,0.01728071,0.3847616
1102103433,0.2372114,0.01728071,0.38156545
1102126439,0.2372114,0.01728071,0.3847616
1102148534,0.23424147,0.01728071,0.3783693
1102171476,0.24018133,0.01728071,0.3847616
1102195471,0.23127154,0.01728071,0.38156545
1102219470,0.2372114,0.01728071,0.38156545
1102240671,0.23127154,0.014375016,0.38795778
1102264431,0.22830161,0.014375016,0.38795778
1102286432,0.22830161,0.01728071,0.39435005
1102308438,0.22830161,0.01728071,0.38795778
1102331448,0.22830161,0.01728071,0.3911539
1102353443,0.22830161,0.01728071,0.3911539
1102376431,0.22830161,0.014375016,0.39435005
1102398434,0.22236176,0.01728071,0.3911539
1102420431,0.22830161,0.01728071,0.3911539
1102443489,0.22533168,0.014375016,0.3847616
1102465444,0.22830161,0.01728071,0.38156545
1102486432,0.22533168,0.01728071,0.3911539
1102508433,0.22830161,0.01728071,0.39435005
1102530470,0.22236176,0.01728071,0.38795778
1102553444,0.22236176,0.01728071,0.3847616
1102575431,0.22533168,0.014375016,0.3911539
1102596440,0.22533168,0.014375016,0.38795778
1102617745,0.22236176,0.01728071,0.3911539
1102641738,0.22236176,0.01728071,0.3911539
1102665751,0.22830161,0.014375016,0.39435005
1102689747,0.22830161,0.014375016,0.3911539
1102713778,0.23127154,0.01728071,0.38795778
1102737845,0.22830161,0.01728071,0.38795778
1102761800,0.23127154,0.020186406,0.38795778
1102785726,0.23127154,0.01728071,0.38156545
1102809744,0.22830161,0.01728071,0.3847616
