timestamp,time_utc_usec,lat,lon,alt,alt_ellipsoid,s_variance_m_s,c_variance_rad,eph,epv,hdop,vdop,noise_per_ms,jamming_indicator,vel_m_s,vel_n_m_s,vel_e_m_s,vel_d_m_s,cog_rad,timestamp_time_relative,heading,heading_offset,fix_type,vel_ned_valid,satellites_used
1072663509,1542990481000354,323874400,-1170763898,19155,-15289,0.23500001,0.7238648,0.573,0.804,0.59,0.84,64,1,0.07700001,0.076000005,-0.009000001,-0.064,2.2724245,0,nan,0.0,4,1,19
1072861473,1542990481200354,323874401,-1170763898,19148,-15296,0.25100002,0.7238744,0.573,0.80600005,0.59,0.84,64,1,0.038000003,-0.033,0.018000001,-0.065000005,2.2724245,0,nan,0.0,4,1,19
1073060531,1542990481400354,323874400,-1170763897,19141,-15303,0.23400001,0.7238831,0.574,0.809,0.59,0.84,64,1,0.095000006,-0.083000004,0.044000003,0.040000003,2.2724245,0,nan,0.0,4,1,19
1073257484,1542990481600354,323874398,-1170763897,19156,-15289,0.24100001,0.7238922,0.57500005,0.81200004,0.59,0.84,64,1,0.080000006,-0.059000004,-0.053000003,-0.19800001,2.2724245,0,nan,0.0,4,1,19
1073451478,1542990481800354,323874386,-1170763896,19312,-15132,0.26000002,0.45697358,0.572,0.81600004,0.59,0.84,64,1,0.46400002,-0.35700002,-0.29700002,-1.9330001,3.3895876,0,nan,0.0,4,1,19
1073661482,1542990482000354,323874376,-1170763902,19861,-14583,0.268,0.3388724,0.573,0.81900007,0.59,0.84,64,1,0.71800005,-0.65000004,-0.30400002,-2.4870002,3.5119858,0,nan,0.0,4,1,19
1073858466,1542990482200354,323874367,-1170763908,20284,-14161,0.26900002,0.44943517,0.57500005,0.823,0.59,0.84,64,1,0.57900006,-0.5,-0.293,-2.243,3.5699317,0,nan,0.0,4,1,19
1074063542,1542990482400354,323874360,-1170763914,20740,-13705,0.284,0.6578877,0.578,0.83000004,0.59,0.84,64,1,0.395,-0.347,-0.18800001,-2.002,3.5914824,0,nan,0.0,4,1,19
1074267484,1542990482600353,323874355,-1170763917,21148,-13296,0.28300002,0.6997365,0.58000004,0.83400005,0.59,0.84,64,3,0.35200003,-0.34500003,-0.069000006,-2.045,3.473048,0,nan,0.0,4,1,19
1074456696,1542990482800353,323874350,-1170763918,21537,-12907,0.31100002,0.69981766,0.58400005,0.84000003,0.59,0.84,64,3,0.266,-0.26200002,-0.041,-2.058,3.473048,0,nan,0.0,4,1,19
1074656531,1542990483000353,323874349,-1170763920,21930,-12514,0.30400002,0.69989604,0.59000003,0.845,0.59,0.84,64,3,0.123,0.001,-0.123,-1.9940001,3.473048,0,nan,0.0,4,1,19
1074856924,1542990483200353,323874350,-1170763922,22289,-12155,0.32000002,0.6999695,0.596,0.851,0.59,0.84,64,3,0.11400001,0.10700001,-0.041,-1.8730001,3.473048,0,nan,0.0,4,1,19
1075054480,1542990483400353,323874353,-1170763924,22593,-11851,0.335,0.70003843,0.60300004,0.86200005,0.59,0.84,64,3,0.256,0.238,-0.095000006,-1.7440001,3.473048,0,nan,0.0,4,1,19
1075257588,1542990483600353,323874355,-1170763925,22879,-11565,0.34100002,0.7001025,0.611,0.874,0.59,0.84,64,8,0.096,0.096,-0.007,-1.6320001,3.473048,0,nan,0.0,4,1,19
1075454536,1542990483800353,323874359,-1170763927,23164,-11280,0.34600002,0.6928979,0.619,0.883,0.59,0.84,64,8,0.289,0.25800002,-0.13000001,-1.485,4.656504,0,nan,0.0,4,1,19
1075655476,1542990484000353,323874364,-1170763929,23418,-11026,0.351,0.59817314,0.625,0.89400005,0.59,0.84,64,8,0.36600003,0.35000002,-0.109000005,-1.401,5.4161367,0,nan,0.0,4,1,19
1075856627,1542990484200353,323874369,-1170763930,23672,-10772,0.33100003,0.5982348,0.63000005,0.90400004,0.59,0.84,64,8,0.22000001,0.215,0.044000003,-1.3230001,5.4161367,0,nan,0.0,4,1,19
1076054463,1542990484400353,323874374,-1170763931,23952,-10492,0.317,0.5504632,0.632,0.91200006,0.59,0.84,64,8,0.35000002,0.335,-0.10300001,-1.3570001,5.724028,0,nan,0.0,4,1,19
1076262463,1542990484600353,323874381,-1170763936,24241,-10203,0.256,0.45509875,0.63100004,0.90200007,0.59,0.84,60,4,0.388,0.37300003,-0.106000006,-1.3210001,5.8922577,0,nan,0.0,4,1,19
1076452540,1542990484800353,323874387,-1170763940,24467,-9977,0.30400002,0.51485884,0.632,0.90800005,0.59,0.84,60,4,0.35000002,0.30900002,-0.16600001,-1.2340001,5.84762,0,nan,0.0,4,1,19
1076658466,1542990485000353,323874397,-1170763946,24825,-9619,0.25100002,0.74917454,0.62700003,0.90300006,0.59,0.84,60,4,0.23400001,0.23,-0.041,-1.429,5.931055,0,nan,0.0,4,1,19
1076862474,1542990485200353,323874405,-1170763949,25195,-9250,0.24400002,0.7492302,0.62200004,0.89300007,0.59,0.84,60,4,0.177,0.17500001,0.027,-1.5130001,5.931055,0,nan,0.0,4,1,19
1077058468,1542990485400353,323874414,-1170763954,25472,-8973,0.238,0.74927694,0.61600006,0.882,0.59,0.84,60,4,0.186,0.186,-0.007,-1.2650001,5.931055,0,nan,0.0,4,1,19
1077259462,1542990485600353,323874418,-1170763955,25747,-8697,0.31,0.74933004,0.61700004,0.887,0.59,0.84,65,3,0.18900001,0.18200001,-0.052,-1.4330001,5.931055,0,nan,0.0,4,1,19
1077456524,1542990485800353,323874420,-1170763954,26040,-8405,0.349,0.7493841,0.62200004,0.896,0.59,0.84,65,3,0.186,0.063,0.17500001,-1.4670001,5.931055,0,nan,0.0,4,1,19
1077670467,1542990486000353,323874422,-1170763953,26323,-8121,0.38300002,0.7494424,0.629,0.90700006,0.59,0.84,65,3,0.142,0.142,0.009000001,-1.5890001,5.931055,0,nan,0.0,4,1,19
1077862465,1542990486200353,323874424,-1170763953,26669,-7775,0.32000002,0.74949616,0.633,0.91300005,0.59,0.84,65,3,0.052,-0.019000001,0.048,-1.468,5.931055,0,nan,0.0,4,1,19
1078060874,1542990486400353,323874423,-1170763953,26940,-7504,0.312,0.74954957,0.634,0.91400003,0.59,0.84,65,3,0.126,0.017,0.125,-1.4580001,5.931055,0,nan,0.0,4,1,19
1078266518,1542990486600353,323874423,-1170763952,27294,-7150,0.29500002,0.74960315,0.634,0.91400003,0.59,0.84,80,10,0.057000004,-0.019000001,0.054,-1.4610001,5.931055,0,nan,0.0,4,1,19
1078462490,1542990486800353,323874423,-1170763950,27591,-6853,0.30900002,0.7496583,0.63600004,0.92100006,0.59,0.84,80,10,0.18,0.013,0.18,-1.4970001,5.931055,0,nan,0.0,4,1,19
1078662469,1542990487000353,323874422,-1170763949,27908,-6536,0.335,0.74971956,0.638,0.929,0.59,0.84,80,10,0.185,-0.143,0.116000004,-1.667,5.931055,0,nan,0.0,4,1,19
1078866795,1542990487200353,323874419,-1170763947,28239,-6205,0.33100003,0.749782,0.64100003,0.93600005,0.59,0.84,80,10,0.21100001,-0.155,0.14400001,-1.6940001,5.931055,0,nan,0.0,4,1,19
1079059473,1542990487400353,323874418,-1170763945,28605,-5839,0.33100003,0.74984646,0.64400005,0.94400007,0.59,0.84,80,10,0.119,-0.047000002,0.11000001,-1.7590001,5.931055,0,nan,0.0,4,1,19
1079262495,1542990487600353,323874415,-1170763943,28903,-5541,0.333,0.76586825,0.647,0.95400006,0.59,0.84,80,5,0.25100002,-0.19800001,0.15400001,-1.7520001,1.0337324,0,nan,0.0,4,1,19
1079460636,1542990487800353,323874411,-1170763941,29151,-5293,0.33800003,0.72135204,0.64900005,0.96300006,0.59,0.84,80,5,0.26700002,-0.18300001,0.194,-1.5920001,1.7182833,0,nan,0.0,4,1,19
1079657495,1542990488000353,323874408,-1170763937,29497,-4948,0.328,0.6462675,0.652,0.97,0.59,0.84,80,5,0.30200002,-0.141,0.266,-1.6270001,1.9070708,0,nan,0.0,4,1,19
1079867551,1542990488200353,323874406,-1170763933,29781,-4663,0.33100003,0.6463348,0.65300006,0.97700006,0.59,0.84,80,5,0.15400001,-0.085,0.12900001,-1.582,1.9070708,0,nan,0.0,4,1,19
1080061521,1542990488400353,323874403,-1170763930,30106,-4339,0.34,0.570243,0.657,0.98300004,0.59,0.84,80,5,0.38500002,-0.33200002,0.19500001,-1.5280001,2.303416,0,nan,0.0,4,1,19
1080262276,1542990488600353,323874399,-1170763925,30418,-4026,0.349,0.5055594,0.66400003,0.99100006,0.59,0.84,73,8,0.4,-0.28800002,0.27800003,-1.664,2.3425753,0,nan,0.0,4,1,19
1080465531,1542990488800353,323874394,-1170763919,30795,-3649,0.33400002,0.34953812,0.67200005,0.998,0.59,0.84,73,8,0.606,-0.528,0.29700002,-1.72,2.5367887,0,nan,0.0,4,1,19
1080663515,1542990489000353,323874388,-1170763915,31118,-3326,0.35000002,0.3496999,0.67800003,1.005,0.59,0.84,73,8,0.16600001,-0.123,0.11100001,-2.056,2.5367887,0,nan,0.0,4,1,19
1080861465,1542990489200353,323874385,-1170763911,31591,-2853,0.37500003,0.5442924,0.68600005,1.014,0.59,0.84,73,8,0.49,-0.43300003,0.22900002,-2.535,2.5711906,0,nan,0.0,4,1,19
1081064079,1542990489400353,323874380,-1170763908,32102,-2343,0.349,0.5444422,0.69500005,1.024,0.59,0.84,73,8,0.22700001,-0.14500001,0.17400001,-2.9640002,2.5711906,0,nan,0.0,4,1,19
1081270466,1542990489600353,323874379,-1170763903,32773,-1671,0.316,0.6660094,0.69600004,1.024,0.59,0.84,68,5,0.23500001,-0.124000005,0.2,-3.1550002,2.3918285,0,nan,0.0,4,1,19
1081457500,1542990489800353,323874376,-1170763899,33439,-1005,0.29500002,0.63401836,0.69500005,1.021,0.59,0.84,68,5,0.252,-0.124000005,0.21900001,-3.1190002,2.2306628,0,nan,0.0,4,1,19
1081665485,1542990490000353,323874374,-1170763897,34172,-272,0.28800002,0.6341559,0.694,1.018,0.59,0.84,68,5,0.046000004,-0.028,-0.037,-3.1820002,2.2306628,0,nan,0.0,4,1,19
1081863577,1542990490200353,323874373,-1170763896,34785,341,0.29000002,0.6342975,0.693,1.016,0.59,0.84,68,5,0.126,-0.059000004,0.11100001,-3.272,2.2306628,0,nan,0.0,4,1,19
1082061470,1542990490400353,323874372,-1170763893,35419,975,0.293,0.6344315,0.69100004,1.0150001,0.59,0.84,68,5,0.124000005,-0.004,0.124000005,-3.1000001,2.2306628,0,nan,0.0,4,1,19
1082259509,1542990490600353,323874373,-1170763890,36003,1558,0.29900002,0.6345664,0.69000006,1.0170001,0.59,0.84,68,7,0.279,0.27600002,0.043,-3.1090002,2.2306628,0,nan,0.0,4,1,19
1082457473,1542990490800353,323874375,-1170763888,36723,2279,0.30200002,0.6347022,0.689,1.016,0.59,0.84,68,7,0.082,0.045,0.068,-3.1390002,2.2306628,0,nan,0.0,4,1,19
1082657479,1542990491000353,323874375,-1170763887,37523,3079,0.29200003,0.63484234,0.68700004,1.011,0.59,0.84,68,7,0.123,-0.07700001,-0.096,-3.2450001,2.2306628,0,nan,0.0,4,1,19
1082857095,1542990491200353,323874375,-1170763888,38214,3770,0.324,0.63498706,0.68600005,1.014,0.59,0.84,68,7,0.16800001,0.16800001,0.0050000004,-3.344,2.2306628,0,nan,0.0,4,1,19
1083057470,1542990491400353,323874378,-1170763890,38808,4364,0.33900002,0.47984385,0.68600005,1.0170001,0.59,0.84,68,7,0.38000003,0.33200002,-0.185,-3.0140002,0.48744112,0,nan,0.0,4,1,19
1083257479,1542990491600353,323874380,-1170763893,39293,4849,0.35200003,0.48001108,0.68600005,1.0220001,0.59,0.84,68,10,0.19600001,0.14500001,-0.133,-2.9180002,0.48744112,0,nan,0.0,4,1,19
1083455469,1542990491800353,323874382,-1170763896,39837,5393,0.35500002,0.71275383,0.68600005,1.026,0.59,0.84,68,10,0.24700001,0.18400002,-0.165,-2.818,0.10703388,0,nan,0.0,4,1,19
1083665505,1542990492000353,323874385,-1170763900,40403,5959,0.337,0.58383894,0.68600005,1.026,0.59,0.84,68,10,0.289,0.201,-0.20700002,-2.8980002,5.8475885,0,nan,0.0,4,1,19
1083855477,1542990492200353,323874387,-1170763903,41040,6596,0.32700002,0.5839765,0.68500006,1.0270001,0.59,0.84,68,10,0.15900001,0.106000006,-0.119,-2.923,5.8475885,0,nan,0.0,4,1,19
1084052519,1542990492400353,323874388,-1170763905,41585,7140,0.324,0.7433142,0.68500006,1.028,0.59,0.84,68,10,0.23200001,0.19900002,-0.119,-2.9900002,5.8088546,0,nan,0.0,4,1,19
1084256107,1542990492600353,323874390,-1170763908,42218,7774,0.316,0.6729797,0.684,1.0270001,0.59,0.84,69,4,0.25100002,0.16900001,-0.187,-3.038,5.6101847,0,nan,0.0,4,1,19
1084460704,1542990492800353,323874392,-1170763912,42820,8376,0.31300002,0.67310417,0.683,1.0250001,0.59,0.84,69,4,0.15400001,0.035,-0.15,-3.051,5.6101847,0,nan,0.0,4,1,19
1084662522,1542990493000352,323874393,-1170763915,43457,9013,0.31,0.673226,0.683,1.0220001,0.59,0.84,69,4,0.216,0.038000003,-0.21300001,-2.983,5.6101847,0,nan,0.0,4,1,19
1084864520,1542990493200352,323874394,-1170763918,44050,9606,0.316,0.6733471,0.68200004,1.023,0.59,0.84,69,4,0.19000001,0.17,-0.08400001,-2.9710002,5.6101847,0,nan,0.0,4,1,19
1085063543,1542990493400352,323874398,-1170763921,44648,10204,0.31500003,0.6734656,0.68200004,1.0250001,0.59,0.84,69,4,0.16600001,0.14400001,-0.08400001,-2.9060001,5.6101847,0,nan,0.0,4,1,19
1085263538,1542990493600352,323874402,-1170763924,45355,10911,0.29000002,0.5205188,0.68,1.018,0.59,0.84,69,3,0.31,0.263,-0.164,-2.966,5.68296,0,nan,0.0,4,1,19
1085460595,1542990493800352,323874405,-1170763926,46057,11613,0.28500003,0.52068543,0.679,1.013,0.59,0.84,69,3,0.186,0.136,-0.127,-3.16,5.68296,0,nan,0.0,4,1,19
1085658479,1542990494000352,323874408,-1170763929,46725,12281,0.286,0.78234255,0.67800003,1.008,0.59,0.84,69,3,0.19600001,0.12100001,-0.15400001,-3.045,5.5888877,0,nan,0.0,4,1,19
1085857478,1542990494200352,323874416,-1170763933,47362,12918,0.35300002,0.31903115,0.68100005,1.014,0.59,0.84,69,3,0.75600004,0.72,-0.23200001,-3.0890002,5.9173574,0,nan,0.0,4,1,19
1086060715,1542990494400352,323874423,-1170763937,47931,13487,0.397,0.31929645,0.68700004,1.024,0.59,0.84,69,3,0.15300001,0.124000005,-0.09,-3.084,5.9173574,0,nan,0.0,4,1,19
1086262468,1542990494600352,323874425,-1170763938,48578,14134,0.41200003,0.31957135,0.69600004,1.0350001,0.59,0.84,68,2,0.079,0.068,-0.041,-3.2020001,5.9173574,0,nan,0.0,4,1,19
1086463514,1542990494800352,323874427,-1170763939,49187,14743,0.42100003,0.31982458,0.70400006,1.0480001,0.59,0.84,68,2,0.13900001,0.13900001,-0.007,-2.9490001,5.9173574,0,nan,0.0,4,1,19
1086654491,1542990495000352,323874429,-1170763939,49739,15295,0.44700003,0.32007277,0.71300006,1.0630001,0.59,0.84,68,2,0.068,-0.002,0.068,-2.8950002,5.9173574,0,nan,0.0,4,1,19
1086860525,1542990495200352,323874429,-1170763939,50315,15871,0.425,0.32031694,0.72200006,1.075,0.59,0.84,68,2,0.046000004,0.029000001,-0.036000002,-2.851,5.9173574,0,nan,0.0,4,1,19
1087063546,1542990495400352,323874429,-1170763939,50895,16451,0.42100003,0.32056198,0.73,1.09,0.59,0.84,68,2,0.054,-0.024,0.049000002,-2.8620002,5.9173574,0,nan,0.0,4,1,19
1087272520,1542990495600352,323874428,-1170763937,51512,17068,0.393,0.32081646,0.73600006,1.1,0.59,0.84,63,2,0.16900001,-0.124000005,0.115,-2.9720001,5.9173574,0,nan,0.0,4,1,19
1087468524,1542990495800352,323874427,-1170763935,52126,17682,0.38500002,0.32106882,0.739,1.11,0.59,0.84,63,2,0.136,-0.015000001,0.135,-2.9510002,5.9173574,0,nan,0.0,4,1,19
1087672854,1542990496000352,323874424,-1170763930,52917,18473,0.377,0.47253844,0.74200004,1.12,0.59,0.84,63,2,0.43400002,-0.358,0.24400002,-3.1510003,0.55398965,0,nan,0.0,4,1,19
1087863511,1542990496200352,323874419,-1170763928,53551,19107,0.38900003,0.47272396,0.74500006,1.13,0.59,0.84,63,2,0.23700002,-0.22500001,0.074,-3.1910002,0.55398965,0,nan,0.0,4,1,19
1088061823,1542990496400352,323874415,-1170763928,54203,19759,0.397,0.47291055,0.749,1.144,0.59,0.84,63,2,0.179,-0.178,0.019000001,-3.2120001,0.55398965,0,nan,0.0,4,1,19
1088267462,1542990496600352,323874413,-1170763928,54815,20370,0.4,0.47308525,0.753,1.156,0.59,0.84,63,5,0.064,-0.033,0.054,-3.0130002,0.55398965,0,nan,0.0,4,1,19
1088465479,1542990496800352,323874410,-1170763927,55470,21026,0.39800003,0.47326398,0.75600004,1.169,0.59,0.84,63,5,0.215,-0.19500001,0.091000006,-3.0770001,0.55398965,0,nan,0.0,4,1,19
1088667464,1542990497000352,323874408,-1170763927,56021,21576,0.393,0.47344044,0.76000005,1.179,0.59,0.84,63,5,0.07700001,-0.060000002,0.049000002,-3.045,0.55398965,0,nan,0.0,4,1,19
1088873465,1542990497200352,323874406,-1170763928,56531,22087,0.38900003,0.47361076,0.763,1.1880001,0.59,0.84,63,5,0.07300001,-0.07300001,0.002,-2.9420002,0.55398965,0,nan,0.0,4,1,19
1089067458,1542990497400352,323874404,-1170763928,57211,22766,0.384,0.47378948,0.767,1.195,0.59,0.84,63,5,0.18,-0.16900001,0.062000003,-3.0800002,0.55398965,0,nan,0.0,4,1,19
1089257534,1542990497600352,323874402,-1170763928,57821,23377,0.38300002,0.47397205,0.77000004,1.2010001,0.59,0.84,63,6,0.1,-0.085,-0.052,-3.1560001,0.55398965,0,nan,0.0,4,1,19
1089478463,1542990497800352,323874401,-1170763930,58369,23925,0.397,0.47414887,0.77300006,1.212,0.59,0.84,63,6,0.044000003,0.041,0.016,-3.0560002,0.55398965,0,nan,0.0,4,1,19
1089677507,1542990498000352,323874401,-1170763930,58917,24473,0.37800002,0.47432286,0.77400005,1.2140001,0.59,0.84,63,6,0.11800001,-0.030000001,0.11400001,-3.005,0.55398965,0,nan,0.0,4,1,19
1089866473,1542990498200352,323874400,-1170763931,59535,25091,0.365,0.47449374,0.77400005,1.213,0.62,0.84,63,6,0.133,-0.133,0.008,-2.9540002,0.55398965,0,nan,0.0,4,1,18
1090068531,1542990498400352,323874397,-1170763931,60096,25651,0.35700002,0.4746674,0.77400005,1.215,0.59,0.84,63,6,0.128,-0.117000006,0.053000003,-3.0040002,0.55398965,0,nan,0.0,4,1,19
1090267524,1542990498600352,323874396,-1170763932,60665,26221,0.356,0.47483653,0.77400005,1.218,0.62,0.84,59,5,0.058000002,0.058000002,0.002,-2.9290001,0.55398965,0,nan,0.0,4,1,18
1090468594,1542990498800352,323874395,-1170763933,61309,26865,0.33800003,0.4750086,0.77400005,1.2160001,0.62,0.84,59,5,0.127,-0.117000006,0.05,-2.9770002,0.55398965,0,nan,0.0,4,1,18
1090668637,1542990499000352,323874386,-1170763930,61724,27280,0.282,0.47518525,0.762,1.1880001,0.59,0.84,59,5,0.066,-0.063,-0.019000001,-3.0600002,0.55398965,0,nan,0.0,4,1,19
1090865487,1542990499200352,323874385,-1170763930,62281,27837,0.319,0.47536883,0.76000005,1.187,0.59,0.84,59,5,0.07700001,0.016,0.075,-3.1820002,0.55398965,0,nan,0.0,4,1,19
1091066490,1542990499400352,323874387,-1170763930,62845,28400,0.324,0.47553778,0.76000005,1.189,0.62,0.84,59,5,0.127,0.109000005,0.064,-2.927,0.55398965,0,nan,0.0,4,1,18
1091262487,1542990499600352,323874390,-1170763931,63413,28969,0.32500002,0.47570708,0.76000005,1.192,0.59,0.84,58,5,0.208,0.208,-0.001,-2.927,0.55398965,0,nan,0.0,4,1,19
1091467468,1542990499800352,323874393,-1170763931,63999,29555,0.323,0.47587132,0.76000005,1.192,0.59,0.84,58,5,0.14,0.12200001,0.069000006,-2.8470001,0.55398965,0,nan,0.0,4,1,19
1091667471,1542990500000352,323874397,-1170763931,64560,30116,0.321,0.47602335,0.76000005,1.1930001,0.59,0.84,58,5,0.11400001,0.10300001,0.05,-2.637,0.55398965,0,nan,0.0,4,1,19
1091861502,1542990500200352,323874401,-1170763929,65064,30620,0.321,0.47616646,0.76000005,1.194,0.59,0.84,58,5,0.29200003,0.25300002,0.14500001,-2.4680002,0.55398965,0,nan,0.0,4,1,19
1092072620,1542990500400352,323874404,-1170763926,65528,31084,0.323,0.4762996,0.75900006,1.197,0.62,0.85999995,58,5,0.23,0.215,0.083000004,-2.301,0.55398965,0,nan,0.0,4,1,18
1092265093,1542990500600352,323874407,-1170763922,66029,31585,0.32000002,0.47642756,0.758,1.194,0.59,0.84,58,6,0.28800002,0.16800001,0.23300001,-2.203,0.55398965,0,nan,0.0,4,1,19
1092461474,1542990500800352,323874408,-1170763918,66429,31985,0.31100002,0.47654378,0.757,1.192,0.59,0.84,58,6,0.13800001,0.068,0.120000005,-2.015,0.55398965,0,nan,0.0,4,1,19
1092669497,1542990501000352,323874408,-1170763914,66833,32389,0.31,0.47665027,0.75600004,1.1910001,0.59,0.84,58,6,0.20700002,-0.060000002,0.19800001,-1.8390001,0.55398965,0,nan,0.0,4,1,19
1092865716,1542990501200352,323874407,-1170763909,67182,32738,0.31300002,0.4767459,0.75500005,1.1880001,0.59,0.84,58,6,0.155,-0.040000003,0.149,-1.6560001,0.55398965,0,nan,0.0,4,1,19
1093066463,1542990501400352,323874406,-1170763906,67485,33041,0.312,0.47682673,0.75500005,1.19,0.59,0.84,58,6,0.125,-0.063,0.109000005,-1.4000001,0.55398965,0,nan,0.0,4,1,19
1093263208,1542990501600352,323874404,-1170763902,67788,33344,0.312,0.47690806,0.75500005,1.192,0.59,0.84,58,6,0.16100001,-0.037,0.157,-1.406,0.55398965,0,nan,0.0,4,1,19
1093465474,1542990501800352,323874402,-1170763899,67987,33543,0.30900002,0.47697735,0.754,1.1910001,0.59,0.84,58,6,0.21100001,-0.09200001,0.19000001,-1.1850001,0.55398965,0,nan,0.0,4,1,19
1093666461,1542990502000352,323874401,-1170763895,68234,33790,0.303,0.47704366,0.754,1.1880001,0.59,0.84,58,6,0.158,-0.023000002,0.156,-1.144,0.55398965,0,nan,0.0,4,1,19
1093865487,1542990502200352,323874402,-1170763893,68433,33988,0.305,0.47710648,0.753,1.19,0.59,0.84,58,6,0.08400001,0.083000004,-0.013,-1.09,0.55398965,0,nan,0.0,4,1,19
1094061462,1542990502400352,323874402,-1170763894,68607,34162,0.30400002,0.47715938,0.753,1.1910001,0.59,0.84,58,6,0.031000001,-0.024,-0.019000001,-0.91700006,0.55398965,0,nan,0.0,4,1,19
1094265497,1542990502600352,323874402,-1170763893,68812,34368,0.303,0.47720948,0.75200003,1.19,0.59,0.84,59,4,0.037,0.033,0.016,-0.873,0.55398965,0,nan,0.0,4,1,19
1094455464,1542990502800352,323874401,-1170763892,68967,34523,0.30100003,0.47725606,0.75200003,1.1910001,0.59,0.84,59,4,0.127,-0.12100001,0.038000003,-0.80100006,0.55398965,0,nan,0.0,4,1,19
1094654403,1542990503000351,323874399,-1170763890,69092,34648,0.32700002,0.47729692,0.753,1.195,0.59,0.84,59,4,0.058000002,-0.058000002,0.009000001,-0.70900005,0.55398965,0,nan,0.0,4,1,19
1094859482,1542990503200351,323874399,-1170763890,69265,34821,0.294,0.47733372,0.753,1.1910001,0.59,0.84,59,4,0.075,-0.072000004,0.022000002,-0.63500005,0.55398965,0,nan,0.0,4,1,19
1095059463,1542990503400351,323874390,-1170763884,69430,34986,0.22200002,0.57584846,0.72900003,1.1400001,0.59,0.84,59,4,0.23600002,-0.19900002,0.127,-0.61200005,1.3756657,0,nan,0.0,4,1,19
1095261511,1542990503600351,323874388,-1170763883,69431,34987,0.23500001,0.5758787,0.72300005,1.1170001,0.59,0.84,67,4,0.054,-0.021000002,-0.049000002,-0.63000005,1.3756657,0,nan,0.0,4,1,19
1095458504,1542990503800351,323874385,-1170763881,69577,35133,0.22700001,0.5759045,0.708,1.085,0.59,0.84,67,4,0.043,-0.037,0.020000001,-0.541,1.3756657,0,nan,0.0,4,1,19
1095674470,1542990504000351,323874386,-1170763880,69664,35220,0.26200002,0.57593364,0.70600003,1.077,0.59,0.84,67,4,0.066,-0.057000004,0.034,-0.61,1.3756657,0,nan,0.0,4,1,19
1095858469,1542990504200351,323874386,-1170763880,69791,35347,0.266,0.5759628,0.70400006,1.0680001,0.59,0.84,67,4,0.086,0.055000003,-0.066,-0.605,1.3756657,0,nan,0.0,4,1,19
1096061624,1542990504400351,323874389,-1170763881,69853,35408,0.28800002,0.57598865,0.70400006,1.0680001,0.59,0.84,67,4,0.143,0.14,-0.027,-0.52400005,1.3756657,0,nan,0.0,4,1,19
1096258480,1542990504600351,323874390,-1170763881,69946,35502,0.294,0.5760122,0.70400006,1.07,0.59,0.84,68,6,0.028,-0.028,0.004,-0.49400002,1.3756657,0,nan,0.0,4,1,19
1096459462,1542990504800351,323874390,-1170763881,70058,35614,0.3,0.5760382,0.70500004,1.072,0.59,0.84,68,6,0.029000001,-0.010000001,-0.027,-0.545,1.3756657,0,nan,0.0,4,1,19
1096658581,1542990505000351,323874389,-1170763881,70233,35788,0.298,0.5760609,0.70500004,1.0730001,0.59,0.84,68,6,0.039,-0.033,-0.021000002,-0.47500002,1.3756657,0,nan,0.0,4,1,19
1096855950,1542990505200351,323874387,-1170763879,70481,36037,0.29000002,0.5760865,0.70400006,1.07,0.59,0.84,68,6,0.106000006,0.052,-0.093,-0.52900004,1.3756657,0,nan,0.0,4,1,19
1097052533,1542990505400351,323874388,-1170763880,70594,36150,0.28800002,0.5761047,0.70400006,1.072,0.59,0.84,68,6,0.057000004,0.007,-0.057000004,-0.37500003,1.3756657,0,nan,0.0,4,1,19
1097257477,1542990505600351,323874387,-1170763880,70628,36184,0.289,0.5761237,0.70400006,1.075,0.59,0.84,67,5,0.11400001,-0.086,0.075,-0.38500002,1.3756657,0,nan,0.0,4,1,19
1097458462,1542990505800351,323874386,-1170763879,70699,36255,0.30100003,0.57614344,0.70400006,1.079,0.59,0.84,67,5,0.07300001,0.0050000004,-0.07300001,-0.40600002,1.3756657,0,nan,0.0,4,1,19
1097659470,1542990506000351,323874387,-1170763880,70758,36314,0.294,0.57615864,0.70500004,1.082,0.59,0.84,67,5,0.082,0.027,-0.078,-0.30900002,1.3756657,0,nan,0.0,4,1,19
1097854473,1542990506200351,323874387,-1170763882,70792,36348,0.27,0.5761714,0.70500004,1.0830001,0.59,0.84,67,5,0.126,-0.008,-0.125,-0.22800002,1.3756657,0,nan,0.0,4,1,19
1098059473,1542990506400351,323874387,-1170763883,70900,36456,0.303,0.5761885,0.70500004,1.0860001,0.59,0.84,67,5,0.036000002,0.023000002,-0.028,-0.35900003,1.3756657,0,nan,0.0,4,1,19
1098260543,1542990506600351,323874384,-1170763882,70994,36550,0.27,0.5762014,0.70400006,1.0860001,0.59,0.84,67,3,0.080000006,-0.048,-0.064,-0.22500001,1.3756657,0,nan,0.0,4,1,19
1098457500,1542990506800351,323874384,-1170763884,71077,36633,0.296,0.5762155,0.70400006,1.0910001,0.59,0.84,67,3,0.116000004,0.051000003,-0.105000004,-0.24900001,1.3756657,0,nan,0.0,4,1,19
1098656242,1542990507000351,323874386,-1170763887,71130,36685,0.287,0.57622916,0.70500004,1.0960001,0.59,0.84,67,3,0.178,0.10300001,-0.14500001,-0.21900001,1.3756657,0,nan,0.0,4,1,19
1098862489,1542990507200351,323874386,-1170763890,71149,36705,0.27,0.57624257,0.70500004,1.097,0.59,0.84,67,3,0.18900001,0.096,-0.163,-0.20700002,1.3756657,0,nan,0.0,4,1,19
1099058478,1542990507400351,323874384,-1170763890,71259,36815,0.282,0.57625586,0.70400006,1.095,0.59,0.84,67,3,0.081,0.05,-0.063,-0.20700002,1.3756657,0,nan,0.0,4,1,19
1099265589,1542990507600351,323874383,-1170763891,71295,36851,0.272,0.5762691,0.70400006,1.0960001,0.59,0.84,67,1,0.21700001,0.15,-0.156,-0.17300001,1.3756657,0,nan,0.0,4,1,19
1099459463,1542990507800351,323874386,-1170763893,71342,36898,0.28,0.5762824,0.70400006,1.0910001,0.59,0.84,67,1,0.14600001,0.123,-0.079,-0.19500001,1.3756657,0,nan,0.0,4,1,19
1099658466,1542990508000351,323874393,-1170763895,71481,37037,0.26700002,0.31828678,0.70400006,1.087,0.62,0.85999995,67,1,0.61600006,0.596,-0.157,-0.27600002,0.12387107,0,nan,0.0,4,1,18
1099860528,1542990508200351,323874405,-1170763898,71517,37073,0.22900002,0.21845256,0.70500004,1.085,0.59,0.84,67,1,0.887,0.87600005,-0.13800001,-0.133,6.2166753,0,nan,0.0,4,1,19
1100060688,1542990508400351,323874428,-1170763900,71593,37149,0.24900001,0.13536634,0.70400006,1.0780001,0.59,0.84,67,1,1.5610001,1.5610001,-0.042000003,-0.24200001,6.2450857,0,nan,0.0,4,1,19
1100260641,1542990508600351,323874462,-1170763902,71678,37234,0.275,0.101659834,0.70600003,1.0760001,0.59,0.84,67,5,2.331,2.329,-0.081,-0.14400001,6.2472687,0,nan,0.0,4,1,19
1100462473,1542990508800351,323874511,-1170763904,71787,37343,0.259,0.07537972,0.707,1.069,0.59,0.84,67,5,3.028,3.028,-0.029000001,-0.067,6.264389,0,nan,0.0,4,1,19
1100662468,1542990509000351,323874575,-1170763908,71778,37334,0.25,0.06121358,0.70600003,1.069,0.62,0.85999995,67,5,3.7070003,3.7050002,-0.11100001,0.041,6.2576118,0,nan,0.0,4,1,18
1100863516,1542990509200351,323874653,-1170763913,71756,37312,0.21800001,0.05094197,0.703,1.064,0.59,0.84,67,5,4.175,4.175,-0.034,0.024,6.2681146,0,nan,0.0,4,1,19
1101066462,1542990509400351,323874738,-1170763915,71724,37280,0.209,0.04446261,0.70100003,1.0600001,0.59,0.84,67,5,4.557,4.557,-0.004,0.141,6.2765365,0,nan,0.0,4,1,19
1101267462,1542990509600351,323874827,-1170763917,71594,37150,0.21100001,0.04199873,0.698,1.056,0.59,0.84,67,3,4.7260003,4.7260003,-0.028,0.07300001,6.2769766,0,nan,0.0,4,1,19
1101464630,1542990509800351,323874915,-1170763918,71517,37073,0.25,0.043694314,0.69900006,1.057,0.59,0.84,67,3,4.906,4.906,-0.009000001,0.058000002,6.279209,0,nan,0.0,4,1,19
1101676527,1542990510000351,323875004,-1170763918,71434,36990,0.23400001,0.0435964,0.69900006,1.0530001,0.59,0.84,67,3,4.853,4.853,0.0050000004,0.19000001,6.2818823,0,nan,0.0,4,1,19
1101865476,1542990510200351,323875091,-1170763919,71366,36922,0.20500001,0.042145334,0.697,1.052,0.59,0.84,67,3,4.8040004,4.8040004,0.004,0.19100001,6.28302,0,nan,0.0,4,1,19
1102061506,1542990510400351,323875174,-1170763918,71316,36872,0.22200002,0.050282236,0.698,1.056,0.59,0.84,67,3,4.4300003,4.4300003,0.037,0.24200001,0.0036379641,0,nan,0.0,4,1,19
1102254483,1542990510600351,323875252,-1170763919,71208,36764,0.20700002,0.050278746,0.69600004,1.059,0.59,0.84,67,1,4.0470004,4.046,0.080000006,0.555,0.012046785,0,nan,0.0,4,1,19
1102458465,1542990510800351,323875324,-1170763918,71171,36727,0.20700002,0.050821193,0.69200003,1.0600001,0.59,0.84,67,1,3.8580003,3.857,0.044000003,0.505,0.011764915,0,nan,0.0,4,1,19
1102655181,1542990511000351,323875389,-1170763917,71060,36616,0.21400002,0.06765978,0.69100004,1.062,0.59,0.84,67,1,3.4050002,3.404,0.086,0.485,0.01683946,0,nan,0.0,4,1,19
1102859476,1542990511200351,323875446,-1170763916,70882,36438,0.193,0.06504737,0.689,1.0610001,0.59,0.84,67,1,3.2110002,3.2110002,0.014,0.60400003,0.010191675,0,nan,0.0,4,1,19
1103059494,1542990511400351,323875498,-1170763915,70734,36290,0.18300001,0.070930175,0.68600005,1.0630001,0.59,0.84,67,1,2.759,2.7570002,0.117000006,0.64400005,0.025272716,0,nan,0.0,4,1,19
1103256640,1542990511600351,323875545,-1170763913,70589,36145,0.215,0.08769249,0.68600005,1.069,0.59,0.84,67,1,2.5210001,2.516,0.172,0.73700005,0.04249754,0,nan,0.0,4,1,19
1103461484,1542990511800351,323875585,-1170763911,70500,36056,0.18900001,0.08598556,0.67700005,1.0710001,0.62,0.85999995,67,1,2.2930002,2.292,-0.080000006,0.54800004,0.0026499333,0,nan,0.0,4,1,18
1103653558,1542990512000351,323875626,-1170763912,70366,35922,0.21400002,0.095921196,0.675,1.077,0.59,0.84,67,1,2.1990001,2.1980002,0.072000004,0.537,0.016128412,0,nan,0.0,4,1,19
1103853585,1542990512200351,323875666,-1170763913,70272,35828,0.19800001,0.09244153,0.67200005,1.079,0.59,0.84,67,1,2.124,2.124,-0.042000003,0.492,6.280493,0,nan,0.0,4,1,19
1104059459,1542990512400351,323875702,-1170763913,70225,35781,0.20500001,0.10590762,0.67200005,1.082,0.59,0.84,67,1,1.9060001,1.9060001,-0.001,0.46,6.281527,0,nan,0.0,4,1,19
1104258463,1542990512600350,323875734,-1170763913,70189,35745,0.21300001,0.12951599,0.67,1.0860001,0.59,0.84,67,2,1.6480001,1.6470001,0.048,0.326,0.010859612,0,nan,0.0,4,1,19
1104458651,1542990512800350,323875764,-1170763913,70155,35711,0.20300001,0.11659357,0.669,1.0890001,0.59,0.84,67,2,1.738,1.7370001,-0.022000002,0.17500001,6.2809095,0,nan,0.0,4,1,19
1104665467,1542990513000350,323875794,-1170763914,70105,35662,0.21400002,0.12436657,0.669,1.092,0.59,0.84,67,2,1.6520001,1.651,-0.062000003,0.17600001,6.264475,0,nan,0.0,4,1,19
1104860523,1542990513200350,323875823,-1170763915,70091,35648,0.20300001,0.1268582,0.669,1.0940001,0.59,0.84,67,2,1.5960001,1.5960001,-0.031000001,0.119,6.2642655,0,nan,0.0,4,1,19
1105061496,1542990513400350,323875849,-1170763914,70081,35638,0.21200001,0.13653937,0.66800004,1.0960001,0.59,0.84,67,2,1.452,1.452,-0.027,0.021000002,6.2644095,0,nan,0.0,4,1,19
1105260992,1542990513600350,323875872,-1170763914,70069,35625,0.202,0.14299971,0.66700006,1.098,0.59,0.84,67,5,1.3850001,1.3840001,-0.023000002,0.009000001,6.265588,0,nan,0.0,4,1,19
1105458491,1542990513800350,323875894,-1170763913,70083,35639,0.209,0.1519419,0.665,1.1,0.59,0.84,67,5,1.302,1.302,-0.015000001,-0.134,6.2685857,0,nan,0.0,4,1,19
1105661668,1542990514000350,323875916,-1170763912,70131,35687,0.20600002,0.15812787,0.66400003,1.0990001,0.59,0.84,67,5,1.273,1.273,-0.001,-0.263,6.2752666,0,nan,0.0,4,1,19
1105858484,1542990514200350,323875939,-1170763912,70162,35718,0.21100001,0.17306335,0.66400003,1.1,0.59,0.84,67,5,1.187,1.1860001,0.019000001,-0.16100001,0.00279689,0,nan,0.0,4,1,19
1106058472,1542990514400350,323875960,-1170763912,70176,35733,0.22000001,0.17189763,0.66300005,1.102,0.59,0.84,67,5,1.1850001,1.184,-0.043,-0.216,6.266473,0,nan,0.0,4,1,19
1106264522,1542990514600350,323875979,-1170763912,70252,35808,0.20500001,0.18555641,0.66,1.0990001,0.59,0.84,67,5,1.016,1.016,-0.024,-0.24400002,6.263125,0,nan,0.0,4,1,19
1106461469,1542990514800350,323875995,-1170763912,70346,35902,0.20700002,0.19308943,0.65800005,1.098,0.59,0.84,67,5,0.95000005,0.94100004,-0.132,-0.21800001,6.2057114,0,nan,0.0,4,1,19
1106664586,1542990515000350,323876012,-1170763915,70420,35976,0.24900001,0.2166245,0.657,1.0990001,0.59,0.84,67,5,0.94100004,0.93500006,-0.109000005,-0.39000002,6.1885133,0,nan,0.0,4,1,19
1106860539,1542990515200350,323876032,-1170763921,70551,36107,0.149,0.15372685,0.643,1.0580001,0.59,0.84,67,5,0.96800005,0.919,-0.30400002,-0.287,6.038899,0,nan,0.0,4,1,19
1107061479,1542990515400350,323876047,-1170763924,70617,36173,0.25300002,0.29534408,0.643,1.0600001,0.59,0.84,67,5,0.74200004,0.74200004,0.003,-0.31100002,6.091892,0,nan,0.0,4,1,19
1107262473,1542990515600350,323876061,-1170763923,70719,36275,0.30200002,0.3592774,0.646,1.0660001,0.59,0.84,67,6,0.79200006,0.78700006,0.086,-0.363,6.2129397,0,nan,0.0,4,1,19
1107459465,1542990515800350,323876075,-1170763923,70797,36353,0.32700002,0.32131195,0.652,1.074,0.59,0.84,67,6,0.8,0.78800005,-0.14,-0.28800002,6.1544147,0,nan,0.0,4,1,19
1107666467,1542990516000350,323876089,-1170763925,70860,36417,0.31,0.35556507,0.65800005,1.0840001,0.59,0.84,67,6,0.72800004,0.726,-0.054,-0.27600002,6.179096,0,nan,0.0,4,1,19
1107857464,1542990516200350,323876100,-1170763926,70914,36470,0.372,0.45237848,0.66400003,1.0960001,0.59,0.84,67,6,0.64500004,0.64000005,-0.08400001,-0.273,6.169143,0,nan,0.0,4,1,19
1108060637,1542990516400350,323876109,-1170763926,71011,36567,0.277,0.45259702,0.66800004,1.098,0.59,0.84,67,6,0.47300002,0.47200003,0.032,-0.33600003,6.259999,0,nan,0.0,4,1,19
1108265506,1542990516600350,323876119,-1170763924,71044,36601,0.264,0.42587408,0.67,1.105,0.59,0.84,98,5,0.62100005,0.615,0.08800001,-0.147,0.06454192,0,nan,0.0,4,1,19
1108461525,1542990516800350,323876130,-1170763919,71064,36620,0.2,0.47382528,0.674,1.1060001,0.59,0.84,98,5,0.67300004,0.572,0.35300002,-0.120000005,0.2829538,0,nan,0.0,4,1,19
1108661533,1542990517000350,323876141,-1170763904,71204,36760,0.208,0.29644537,0.67800003,1.108,0.59,0.84,98,5,1.1220001,0.675,0.896,-0.209,0.744607,0,nan,0.0,4,1,19
1108861702,1542990517200350,323876152,-1170763877,71313,36869,0.252,0.20636702,0.683,1.1110001,0.62,0.84,98,5,1.7010001,0.60700005,1.5890001,-0.33,1.055441,0,nan,0.0,4,1,18
1109056505,1542990517400350,323876160,-1170763833,71461,37017,0.268,0.12634158,0.689,1.1120001,0.59,0.84,98,5,2.4450002,0.595,2.3720002,-0.35300002,1.2516991,0,nan,0.0,4,1,19
1109267477,1542990517600350,323876166,-1170763771,71612,37168,0.24700001,0.07681891,0.69200003,1.1120001,0.59,0.84,91,7,3.176,0.577,3.1230001,-0.29500002,1.3516035,0,nan,0.0,4,1,19
1109465487,1542990517800350,323876183,-1170763701,71759,37315,0.24100001,0.05323917,0.68500006,1.11,0.59,0.84,91,7,3.7830002,0.586,3.7380002,-0.377,1.3950646,0,nan,0.0,4,1,19
1109676878,1542990518000350,323876200,-1170763620,71901,37458,0.261,0.05097862,0.67800003,1.108,0.59,0.84,91,7,4.1130004,0.55600005,4.0750003,-0.42700002,1.4167502,0,nan,0.0,4,1,19
1109864663,1542990518200350,323876209,-1170763528,71989,37546,0.24900001,0.05104756,0.679,1.1090001,0.59,0.84,91,7,4.5030003,0.554,4.4690003,-0.45900002,1.4327801,0,nan,0.0,4,1,19
1110066486,1542990518400350,323876214,-1170763428,72053,37609,0.263,0.050912473,0.68100005,1.1120001,0.59,0.84,91,7,4.7640004,0.38300002,4.748,-0.47200003,1.4630494,0,nan,0.0,4,1,19
1110266466,1542990518600350,323876227,-1170763325,72457,38014,0.15400001,0.03207287,0.67,1.08,0.59,0.84,85,12,4.741,0.476,4.717,-0.518,1.4683492,0,nan,0.0,4,1,19
1110466472,1542990518800350,323876235,-1170763224,72532,38089,0.28800002,0.05807443,0.671,1.0840001,0.59,0.84,85,12,4.7450004,0.264,4.7380004,-0.28300002,1.4812617,0,nan,0.0,4,1,19
1110667126,1542990519000350,323876240,-1170763124,72592,38148,0.314,0.0672971,0.67800003,1.0910001,0.63,0.89,85,12,4.7380004,0.317,4.728,-0.43800002,1.4912897,0,nan,0.0,4,1,18
1110862468,1542990519200350,323876244,-1170763022,72651,38207,0.317,0.06892898,0.68600005,1.1,0.63,0.89,85,12,4.7450004,0.18800001,4.741,-0.231,1.5112845,0,nan,0.0,4,1,18
1111059475,1542990519400350,323876247,-1170762922,72704,38260,0.296,0.062371433,0.69200003,1.1090001,0.63,0.89,85,12,4.63,0.22000001,4.625,-0.231,1.5180335,0,nan,0.0,4,1,18
1111268643,1542990519600350,323876252,-1170762822,72748,38304,0.275,0.0544705,0.694,1.116,0.63,0.89,79,7,4.7700005,0.18200001,4.7660003,-0.171,1.5265474,0,nan,0.0,4,1,18
1111472524,1542990519800350,323876254,-1170762720,72770,38326,0.37300003,0.074942686,0.70100003,1.126,0.63,0.89,79,7,4.8630004,0.024,4.8630004,-0.13000001,1.5408893,0,nan,0.0,4,1,18
1111658469,1542990520000350,323876255,-1170762618,72800,38356,0.36800003,0.07698141,0.711,1.1370001,0.63,0.89,79,7,4.67,0.096,4.669,-0.063,1.5455377,0,nan,0.0,4,1,18
1111862461,1542990520200350,323876258,-1170762519,72805,38361,0.344,0.06859615,0.721,1.149,0.63,0.89,79,7,4.735,0.067,4.735,0.054,1.5518713,0,nan,0.0,4,1,18
1112062471,1542990520400350,323876260,-1170762419,72813,38370,0.347,0.07110471,0.72900003,1.161,0.63,0.89,79,7,4.6520004,0.014,4.6520004,0.031000001,1.5597318,0,nan,0.0,4,1,18
1112263558,1542990520600350,323876265,-1170762321,72822,38378,0.26900002,0.05344599,0.73200005,1.169,0.63,0.89,73,4,4.671,0.072000004,4.67,0.037,1.5568428,0,nan,0.0,4,1,18
1112464505,1542990520800350,323876266,-1170762217,72853,38409,0.215,0.05095663,0.731,1.172,0.63,0.89,73,4,4.901,0.15200001,4.899,0.0050000004,1.5474916,0,nan,0.0,4,1,18
1112663520,1542990521000350,323876257,-1170762099,72481,38037,0.16600001,0.031060401,0.717,1.1350001,0.63,0.89,73,4,4.894,0.12100001,4.893,-0.16100001,1.546496,0,nan,0.0,4,1,18
1112856646,1542990521200350,323876257,-1170761994,72566,38122,0.254,0.057056382,0.71800005,1.1420001,0.63,0.89,73,4,4.853,-0.001,4.853,-0.25500003,1.553204,0,nan,0.0,4,1,18
1113065476,1542990521400350,323876253,-1170761888,72510,38067,0.257,0.045176797,0.716,1.146,0.63,0.89,73,4,4.914,0.033,4.914,-0.11400001,1.5600698,0,nan,0.0,4,1,18
1113268526,1542990521600350,323876255,-1170761785,72469,38025,0.25500003,0.04583147,0.71400005,1.1520001,0.63,0.89,73,4,4.8560004,-0.010000001,4.8560004,0.056,1.56675,0,nan,0.0,4,1,18
1113466463,1542990521800350,323876257,-1170761681,72451,38008,0.22200002,0.05310216,0.71400005,1.1580001,0.63,0.89,73,4,4.7990003,0.083000004,4.7980003,-0.0050000004,1.5607245,0,nan,0.0,4,1,18
1113677614,1542990522000350,323876256,-1170761577,72405,37962,0.26900002,0.049019665,0.71400005,1.1630001,0.63,0.89,73,4,4.8450003,-0.008,4.8450003,0.09,1.5672901,0,nan,0.0,4,1,18
1113867463,1542990522200349,323876256,-1170761474,72309,37865,0.22800002,0.04338522,0.711,1.166,0.59,0.84,73,4,4.7320004,-0.026,4.7320004,0.14400001,1.5725929,0,nan,0.0,4,1,19
1114066464,1542990522400349,323876256,-1170761374,72274,37830,0.21700001,0.050780352,0.70900005,1.1700001,0.59,0.84,73,4,4.6530004,0.012,4.6530004,0.062000003,1.5705925,0,nan,0.0,4,1,19
1114264524,1542990522600349,323876258,-1170761273,72259,37816,0.22500001,0.050060753,0.70900005,1.176,0.59,0.84,68,7,4.8370004,0.16100001,4.834,-0.028,1.55298,0,nan,0.0,4,1,19
1114467463,1542990522800349,323876262,-1170761169,72208,37764,0.23400001,0.047809977,0.71000004,1.1810001,0.59,0.84,68,7,4.86,0.21400002,4.8560004,0.023000002,1.5385913,0,nan,0.0,4,1,19
1114668525,1542990523000349,323876267,-1170761067,72122,37679,0.21100001,0.04293562,0.70400006,1.1830001,0.59,0.84,68,7,4.82,0.15400001,4.8170004,0.18400002,1.5386876,0,nan,0.0,4,1,19
1114869485,1542990523200349,323876269,-1170760963,72169,37725,0.17300001,0.035837017,0.693,1.164,0.59,0.84,68,7,4.7970004,0.141,4.795,0.102000006,1.5403404,0,nan,0.0,4,1,19
1115065497,1542990523400349,323876274,-1170760863,72277,37834,0.17300001,0.037446212,0.683,1.151,0.59,0.84,68,7,4.7320004,0.22700001,4.727,0.033,1.5311744,0,nan,0.0,4,1,19
1115267467,1542990523600349,323876276,-1170760760,72298,37854,0.164,0.032715846,0.67200005,1.13,0.59,0.84,69,9,4.9100003,0.104,4.9090004,0.042000003,1.5424135,0,nan,0.0,4,1,19
1115467465,1542990523800349,323876274,-1170760654,72482,38039,0.162,0.031674057,0.661,1.1090001,0.59,0.84,69,9,4.888,0.082,4.888,0.040000003,1.5489898,0,nan,0.0,4,1,19
1115668512,1542990524000349,323876272,-1170760548,72787,38343,0.16900001,0.033207852,0.651,1.092,0.59,0.84,69,9,4.8310003,0.097,4.8300004,-0.015000001,1.5499139,0,nan,0.0,4,1,19
1115863529,1542990524200349,323876272,-1170760443,72795,38351,0.18100001,0.037657395,0.64400005,1.0890001,0.59,0.84,69,9,4.951,0.126,4.9500003,-0.071,1.5476778,0,nan,0.0,4,1,19
1116067472,1542990524400349,323876273,-1170760336,72775,38332,0.18900001,0.038908623,0.638,1.087,0.59,0.84,69,9,4.9370003,0.128,4.9360003,-0.080000006,1.5462483,0,nan,0.0,4,1,19
1116264669,1542990524600349,323876272,-1170760229,72710,38267,0.19000001,0.038936023,0.633,1.0840001,0.59,0.84,69,4,4.8840003,0.081,4.8840003,-0.147,1.5505537,0,nan,0.0,4,1,19
1116464536,1542990524800349,323876272,-1170760123,72646,38202,0.186,0.037130658,0.628,1.08,0.59,0.84,69,4,4.919,0.10700001,4.918,-0.105000004,1.5497333,0,nan,0.0,4,1,19
1116665469,1542990525000349,323876272,-1170760018,72545,38101,0.185,0.036839884,0.623,1.0780001,0.59,0.84,69,4,4.979,0.091000006,4.978,0.029000001,1.551258,0,nan,0.0,4,1,19
1116857479,1542990525200349,323876274,-1170759913,72512,38069,0.209,0.038819786,0.62,1.0780001,0.59,0.84,69,4,4.835,0.003,4.835,0.044000003,1.5610383,0,nan,0.0,4,1,19
1117065498,1542990525400349,323876276,-1170759809,72474,38031,0.186,0.038008556,0.61600006,1.0780001,0.59,0.84,69,4,4.873,0.128,4.8710003,-0.0050000004,1.551918,0,nan,0.0,4,1,19
1117268506,1542990525600349,323876278,-1170759703,72470,38026,0.19000001,0.03859132,0.61200005,1.08,0.59,0.84,69,4,4.9550004,0.058000002,4.9550004,0.177,1.5557867,0,nan,0.0,4,1,19
1117467460,1542990525800349,323876281,-1170759598,72371,37927,0.18400002,0.03855659,0.60800004,1.08,0.59,0.84,69,4,4.8050003,0.15300001,4.8030005,0.22200002,1.5466837,0,nan,0.0,4,1,19
1117672532,1542990526000349,323876284,-1170759494,72260,37816,0.18200001,0.037515502,0.60400003,1.079,0.59,0.84,69,4,4.8620005,0.134,4.86,0.37500003,1.5447996,0,nan,0.0,4,1,19
1117865482,1542990526200349,323876287,-1170759387,72183,37739,0.20400001,0.037075154,0.60200006,1.08,0.59,0.84,69,4,5.1010003,0.164,5.0990005,0.47400004,1.5413988,0,nan,0.0,4,1,19
1118065469,1542990526400349,323876291,-1170759277,72102,37659,0.192,0.03618329,0.601,1.0780001,0.59,0.84,69,4,5.136,0.157,5.1330004,0.47200003,1.5407063,0,nan,0.0,4,1,19
1118265486,1542990526600349,323876293,-1170759169,71996,37553,0.17600001,0.035879955,0.59800005,1.072,0.59,0.84,69,5,4.8960004,0.078,4.8960004,0.61,1.548516,0,nan,0.0,4,1,19
1118461552,1542990526800349,323876296,-1170759062,71920,37476,0.257,0.044978704,0.6,1.0760001,0.59,0.84,69,5,5.0620003,0.172,5.059,0.45200002,1.5434179,0,nan,0.0,4,1,19
1118663564,1542990527000349,323876298,-1170758954,71868,37424,0.30200002,0.05765276,0.606,1.0830001,0.59,0.84,69,5,5.037,0.098000005,5.0360003,0.34100002,1.5466871,0,nan,0.0,4,1,19
1118864507,1542990527200349,323876300,-1170758847,71826,37383,0.289,0.05778296,0.61300004,1.09,0.59,0.84,69,5,4.971,0.193,4.967,0.261,1.5390975,0,nan,0.0,4,1,19
1119055380,1542990527400349,323876302,-1170758739,71767,37323,0.303,0.057566017,0.62100005,1.098,0.59,0.84,69,5,5.144,0.036000002,5.144,0.342,1.5519918,0,nan,0.0,4,1,19
1119271378,1542990527600349,323876304,-1170758632,71699,37256,0.291,0.057928,0.628,1.107,0.59,0.89,68,7,4.919,0.193,4.9150004,0.28,1.5413834,0,nan,0.0,4,1,18
1119455996,1542990527800349,323876307,-1170758528,71604,37160,0.29200003,0.057888903,0.63500005,1.116,0.59,0.84,68,7,4.958,0.11100001,4.9570003,0.24900001,1.5450327,0,nan,0.0,4,1,19
1119676523,1542990528000349,323876310,-1170758423,71443,37000,0.252,0.050529372,0.64000005,1.1240001,0.59,0.84,68,7,4.998,0.23400001,4.993,0.377,1.5326904,0,nan,0.0,4,1,19
1119858473,1542990528200349,323876313,-1170758317,71341,36898,0.28100002,0.052567743,0.64500004,1.1320001,0.62,0.85999995,68,7,4.939,0.054,4.939,0.41200003,1.5464388,0,nan,0.0,4,1,18
1120061770,1542990528400349,323876313,-1170758212,71323,36880,0.24400002,0.052176964,0.648,1.1400001,0.59,0.84,68,7,4.8490005,0.020000001,4.8490005,0.112,1.5571337,0,nan,0.0,4,1,19
1120261875,1542990528600349,323876313,-1170758107,71280,36837,0.268,0.054646604,0.652,1.148,0.59,0.84,64,5,4.945,-0.037,4.945,0.293,1.5677398,0,nan,0.0,4,1,19
1120458478,1542990528800349,323876314,-1170758001,71261,36817,0.26000002,0.04753177,0.65500003,1.156,0.59,0.84,64,5,4.9350004,0.102000006,4.934,0.123,1.5573981,0,nan,0.0,4,1,19
1120659491,1542990529000349,323876317,-1170757895,71252,36809,0.254,0.047543813,0.656,1.1630001,0.59,0.84,64,5,4.9480004,0.13100001,4.946,-0.013,1.5505106,0,nan,0.0,4,1,19
1120863199,1542990529200349,323876317,-1170757789,71296,36853,0.275,0.048931524,0.66,1.169,0.59,0.84,64,5,4.9240003,0.017,4.9240003,0.075,1.5591751,0,nan,0.0,4,1,19
1121064643,1542990529400349,323876318,-1170757684,71317,36874,0.27100003,0.05109678,0.66400003,1.174,0.59,0.84,64,5,4.8710003,0.08800001,4.8710003,0.007,1.5559541,0,nan,0.0,4,1,19
1121266465,1542990529600349,323876319,-1170757579,71452,37009,0.26700002,0.047437172,0.66700006,1.1780001,0.59,0.84,60,4,4.867,0.075,4.866,-0.14600001,1.5556659,0,nan,0.0,4,1,19
1121465476,1542990529800349,323876321,-1170757474,71454,37010,0.245,0.04530665,0.66800004,1.1830001,0.59,0.84,60,4,4.8890004,0.036000002,4.8890004,-0.010000001,1.5599984,0,nan,0.0,4,1,19
1121666488,1542990530000349,323876322,-1170757369,71424,36981,0.24900001,0.05038259,0.67,1.187,0.59,0.84,60,4,4.9230003,0.002,4.9230003,-0.062000003,1.5649574,0,nan,0.0,4,1,19
1121866462,1542990530200349,323876323,-1170757263,71390,36947,0.18300001,0.03253974,0.66300005,1.1700001,0.59,0.84,60,4,5.006,0.007,5.006,0.040000003,1.5682212,0,nan,0.0,4,1,19
1122059462,1542990530400349,323876324,-1170757156,71415,36972,0.17600001,0.03330629,0.65500003,1.154,0.59,0.84,60,4,4.971,0.053000003,4.971,0.004,1.5638363,0,nan,0.0,4,1,19
1122266466,1542990530600349,323876325,-1170757049,71444,37001,0.18100001,0.033759728,0.64900005,1.1400001,0.59,0.84,60,6,4.9810004,-0.066,4.98,-0.14,1.5748662,0,nan,0.0,4,1,19
1122465529,1542990530800349,323876325,-1170756942,71506,37063,0.18400002,0.032972585,0.643,1.128,0.59,0.84,60,6,5.0410004,0.052,5.0410004,-0.11000001,1.5667655,0,nan,0.0,4,1,19
1122668523,1542990531000349,323876327,-1170756834,71591,37148,0.18200001,0.033624813,0.638,1.1190001,0.59,0.84,60,6,5.037,0.031000001,5.037,-0.117000006,1.565646,0,nan,0.0,4,1,19
1122861478,1542990531200349,323876326,-1170756723,71724,37281,0.18200001,0.032019284,0.632,1.107,0.59,0.84,60,6,5.052,0.042000003,5.052,0.040000003,1.5638404,0,nan,0.0,4,1,19
1123061530,1542990531400349,323876324,-1170756608,71972,37529,0.17500001,0.0334138,0.62200004,1.085,0.59,0.84,60,6,4.9570003,0.058000002,4.9570003,0.004,1.5613159,0,nan,0.0,4,1,19
1123257030,1542990531600349,323876326,-1170756502,71958,37515,0.19900002,0.037401356,0.61800003,1.0840001,0.59,0.84,53,3,5.03,0.062000003,5.03,0.105000004,1.5598814,0,nan,0.0,4,1,19
1123457841,1542990531800348,323876326,-1170756397,71911,37468,0.21400002,0.049333647,0.61800003,1.088,0.59,0.84,53,3,4.9080005,-0.030000001,4.907,0.147,1.5667741,0,nan,0.0,4,1,19
1123658463,1542990532000348,323876328,-1170756291,71932,37489,0.24700001,0.051165197,0.62100005,1.095,0.59,0.84,53,3,4.894,0.18,4.8910003,0.048,1.5501335,0,nan,0.0,4,1,19
1123855483,1542990532200348,323876332,-1170756184,71912,37469,0.23400001,0.04044277,0.62100005,1.1010001,0.59,0.84,53,3,5.05,0.11400001,5.0480003,0.027,1.548954,0,nan,0.0,4,1,19
1124055463,1542990532400348,323876337,-1170756079,71913,37470,0.192,0.035749752,0.61800003,1.0960001,0.59,0.84,53,3,4.9740005,0.034,4.9740005,0.0050000004,1.5579394,0,nan,0.0,4,1,19
1124257526,1542990532600348,323876341,-1170755973,71861,37418,0.18900001,0.03523104,0.614,1.09,0.59,0.84,53,2,5.0620003,0.093,5.0610003,0.033,1.5548989,0,nan,0.0,4,1,19
1124457495,1542990532800348,323876346,-1170755866,71845,37402,0.22900002,0.03944217,0.61300004,1.093,0.59,0.84,53,2,4.984,0.25100002,4.978,-0.029000001,1.5379275,0,nan,0.0,4,1,19
1124657490,1542990533000348,323876348,-1170755761,71826,37383,0.23500001,0.042079538,0.614,1.098,0.59,0.84,53,2,4.88,0.011000001,4.88,0.054,1.5535095,0,nan,0.0,4,1,19
1124856900,1542990533200348,323876350,-1170755658,71772,37329,0.24400002,0.054546423,0.61600006,1.108,0.59,0.84,53,2,4.9750004,0.040000003,4.9750004,-0.017,1.557262,0,nan,0.0,4,1,19
1125059465,1542990533400348,323876352,-1170755554,71744,37301,0.28800002,0.06047496,0.62100005,1.1190001,0.59,0.84,53,2,4.953,0.066,4.953,0.11100001,1.5573233,0,nan,0.0,4,1,19
1125259472,1542990533600348,323876353,-1170755449,71675,37232,0.32900003,0.055803236,0.629,1.1270001,0.59,0.84,78,9,5.097,-0.037,5.097,0.156,1.5688982,0,nan,0.0,4,1,19
1125462462,1542990533800348,323876353,-1170755343,71610,37167,0.33600003,0.06251752,0.638,1.136,0.62,0.85999995,78,9,4.958,-0.015000001,4.958,0.20300001,1.5712132,0,nan,0.0,4,1,18
1125675459,1542990534000348,323876352,-1170755239,71542,37100,0.273,0.055751223,0.646,1.143,0.59,0.84,78,9,4.953,-0.11800001,4.952,0.126,1.5846845,0,nan,0.0,4,1,19
1125865465,1542990534200348,323876353,-1170755132,71523,37080,0.24800001,0.045940727,0.64900005,1.1520001,0.59,0.84,78,9,5.168,0.017,5.168,0.07,1.5741354,0,nan,0.0,4,1,19
1126055476,1542990534400348,323876352,-1170755026,71494,37051,0.31,0.062128134,0.65400004,1.1620001,0.59,0.84,78,9,4.7920003,-0.133,4.7900004,0.14500001,1.5834664,0,nan,0.0,4,1,19
1126266506,1542990534600348,323876350,-1170754925,71460,37017,0.268,0.058276888,0.66,1.171,0.59,0.84,68,5,4.763,-0.165,4.76,-0.036000002,1.5955026,0,nan,0.0,4,1,19
1126465485,1542990534800348,323876344,-1170754825,71652,37209,0.261,0.04648457,0.66300005,1.167,0.59,0.83,68,5,4.531,-0.022000002,4.531,-0.09900001,1.5830748,0,nan,0.0,4,1,19
1126663554,1542990535000348,323876343,-1170754734,71648,37205,0.287,0.06260601,0.666,1.172,0.62,0.85999995,68,5,4.0950003,-0.155,4.092,0.020000001,1.5927256,0,nan,0.0,4,1,18
1126858472,1542990535200348,323876341,-1170754648,71591,37148,0.224,0.055433575,0.66800004,1.176,0.59,0.83,68,5,4.089,-0.12200001,4.0870004,0.09200001,1.5972486,0,nan,0.0,4,1,19
1127064508,1542990535400348,323876340,-1170754566,71525,37082,0.26000002,0.062493954,0.67,1.1800001,0.59,0.83,68,5,3.7510002,-0.018000001,3.7510002,0.156,1.5873305,0,nan,0.0,4,1,19
1127265525,1542990535600348,323876339,-1170754492,71462,37019,0.23400001,0.06679567,0.671,1.182,0.59,0.83,63,5,3.38,-0.076000005,3.3790002,0.328,1.5901845,0,nan,0.0,4,1,19
1127455530,1542990535800348,323876337,-1170754425,71375,36933,0.24700001,0.078679614,0.67200005,1.184,0.59,0.83,63,5,3.0460002,-0.147,3.042,0.31,1.6025766,0,nan,0.0,4,1,19
1127660645,1542990536000348,323876335,-1170754364,71293,36850,0.21200001,0.07139094,0.67300004,1.184,0.59,0.89,63,5,2.8170002,-0.07300001,2.8160002,0.24000001,1.5994091,0,nan,0.0,4,1,18
1127865469,1542990536200348,323876334,-1170754308,71242,36799,0.21000001,0.08131122,0.67200005,1.1850001,0.59,0.83,63,5,2.5540001,-0.086,2.552,0.298,1.6017162,0,nan,0.0,4,1,19
1128063514,1542990536400348,323876332,-1170754256,71195,36753,0.223,0.09798016,0.671,1.189,0.59,0.83,63,5,2.3240001,-0.061000004,2.3230002,0.162,1.5998132,0,nan,0.0,4,1,19
1128263574,1542990536600348,323876330,-1170754208,71160,36717,0.223,0.104421645,0.671,1.1930001,0.59,0.83,59,5,2.118,-0.143,2.1130002,-0.013,1.6179183,0,nan,0.0,4,1,19
1128459464,1542990536800348,323876329,-1170754164,71189,36746,0.21200001,0.10581477,0.669,1.197,0.59,0.83,59,5,2.0010002,-0.064,2.0,-0.036000002,1.6104866,0,nan,0.0,4,1,19
1128655473,1542990537000348,323876328,-1170754123,71226,36783,0.215,0.118444666,0.66700006,1.202,0.59,0.83,59,5,1.7870001,-0.07300001,1.7850001,-0.194,1.6109247,0,nan,0.0,4,1,19
1128860531,1542990537200348,323876327,-1170754085,71362,36920,0.23500001,0.12643321,0.666,1.2060001,0.59,0.83,59,5,1.669,-0.11100001,1.6650001,-0.35500002,1.6233982,0,nan,0.0,4,1,19
1129063514,1542990537400348,323876328,-1170754051,71445,37002,0.22700001,0.1354084,0.66400003,1.212,0.59,0.83,59,5,1.692,-0.055000003,1.6910001,-0.31,1.6139046,0,nan,0.0,4,1,19
1129274481,1542990537600348,323876328,-1170754017,71524,37082,0.246,0.14987385,0.66400003,1.2190001,0.59,0.83,59,7,1.4770001,-0.052,1.4760001,-0.351,1.6103524,0,nan,0.0,4,1,19
1129461479,1542990537800348,323876329,-1170753987,71606,37163,0.284,0.169794,0.66700006,1.2260001,0.59,0.83,59,7,1.483,-0.082,1.48,-0.44400004,1.6173115,0,nan,0.0,4,1,19
1129660820,1542990538000348,323876330,-1170753956,71708,37266,0.25500003,0.15879703,0.66700006,1.2340001,0.59,0.83,59,7,1.562,0.038000003,1.562,-0.296,1.5795773,0,nan,0.0,4,1,19
1129867468,1542990538200348,323876330,-1170753924,71807,37364,0.252,0.17492405,0.66800004,1.2420001,0.59,0.83,59,7,1.355,-0.061000004,1.3540001,-0.40300003,1.5959945,0,nan,0.0,4,1,19
1130063513,1542990538400348,323876330,-1170753896,71921,37478,0.27100003,0.1986469,0.671,1.2490001,0.59,0.83,59,7,1.2290001,0.028,1.2290001,-0.572,1.5749245,0,nan,0.0,4,1,19
1130268619,1542990538600348,323876332,-1170753869,72077,37635,0.245,0.18117878,0.67,1.2540001,0.59,0.83,59,5,1.2190001,0.12100001,1.213,-0.609,1.5181305,0,nan,0.0,4,1,19
1130468523,1542990538800348,323876334,-1170753843,72233,37790,0.238,0.17713013,0.669,1.2590001,0.59,0.83,59,5,1.202,-0.011000001,1.202,-0.526,1.5495847,0,nan,0.0,4,1,19
1130667465,1542990539000348,323876336,-1170753818,72321,37878,0.26900002,0.19889265,0.669,1.264,0.59,0.83,59,5,1.222,0.16100001,1.2110001,-0.55300003,1.5005759,0,nan,0.0,4,1,19
1130866524,1542990539200348,323876339,-1170753796,72358,37916,0.24000001,0.2817607,0.67,1.2700001,0.59,0.83,59,5,0.855,0.179,0.836,-0.35700002,1.4537337,0,nan,0.0,4,1,19
1131065504,1542990539400348,323876342,-1170753778,72427,37984,0.26200002,0.2641643,0.67,1.2770001,0.59,0.83,59,5,0.966,0.14500001,0.95500004,-0.314,1.4358631,0,nan,0.0,4,1,19
1131257502,1542990539600348,323876344,-1170753758,72468,38025,0.273,0.2498655,0.674,1.284,0.59,0.83,59,6,0.99100006,0.049000002,0.99000007,-0.15300001,1.4812549,0,nan,0.0,4,1,19
1131467474,1542990539800348,323876345,-1170753741,72522,38079,0.231,0.32592887,0.67300004,1.291,0.59,0.83,59,6,0.70500004,0.048,0.703,-0.24700001,1.4890056,0,nan,0.0,4,1,19
1131678471,1542990540000348,323876346,-1170753725,72568,38126,0.246,0.29691714,0.67300004,1.3000001,0.59,0.83,59,6,0.80100006,-0.026,0.8,-0.11100001,1.5511881,0,nan,0.0,4,1,19
1131867465,1542990540200348,323876347,-1170753708,72609,38166,0.263,0.3139732,0.675,1.309,0.59,0.83,59,6,0.808,0.1,0.80100006,-0.013,1.5017571,0,nan,0.0,4,1,19
1132063998,1542990540400348,323876348,-1170753694,72652,38209,0.26700002,0.39527184,0.67800003,1.3160001,0.59,0.83,59,6,0.62600005,0.054,0.623,-0.093,1.494792,0,nan,0.0,4,1,19
1132269469,1542990540600348,323876350,-1170753682,72684,38242,0.29500002,0.3994013,0.68100005,1.3240001,0.59,0.83,59,7,0.59300005,0.083000004,0.587,-0.074,1.4626759,0,nan,0.0,4,1,19
1132464545,1542990540800348,323876352,-1170753672,72660,38217,0.26900002,0.57415307,0.683,1.3310001,0.59,0.83,59,7,0.42200002,0.108,0.40800002,-0.047000002,1.4136143,0,nan,0.0,4,1,19
1132664877,1542990541000348,323876355,-1170753664,72642,38200,0.24000001,0.49739072,0.68600005,1.3390001,0.59,0.83,59,7,0.572,0.125,0.559,-0.002,1.377904,0,nan,0.0,4,1,19
1132865501,1542990541200347,323876360,-1170753656,72619,38177,0.23300001,0.5296861,0.688,1.348,0.59,0.83,59,7,0.60300004,0.45400003,0.39600003,0.014,1.0684961,0,nan,0.0,4,1,19
1133062465,1542990541400347,323876374,-1170753648,72573,38130,0.307,0.31695944,0.69100004,1.358,0.59,0.83,59,7,1.0910001,0.998,0.44000003,0.054,0.5872401,0,nan,0.0,4,1,19
1133263136,1542990541600347,323876398,-1170753638,72544,38101,0.34500003,0.22369762,0.69900006,1.366,0.59,0.83,59,8,1.7310001,1.6400001,0.554,-0.003,0.41261676,0,nan,0.0,4,1,19
1133463517,1542990541800347,323876435,-1170753628,72602,38159,0.328,0.14114687,0.70500004,1.368,0.59,0.83,59,8,2.328,2.272,0.508,-0.223,0.27456716,0,nan,0.0,4,1,19
1133664004,1542990542000347,323876487,-1170753620,72518,38075,0.33400002,0.0989092,0.71000004,1.3700001,0.59,0.83,59,8,3.2080002,3.1740003,0.46600002,-0.009000001,0.18794681,0,nan,0.0,4,1,19
1133856045,1542990542200347,323876553,-1170753614,72351,37908,0.29200003,0.07851328,0.71400005,1.3640001,0.59,0.83,59,8,3.7740002,3.7500002,0.425,-0.074,0.14158145,0,nan,0.0,4,1,19
1134062495,1542990542400347,323876628,-1170753608,72250,37807,0.263,0.06382128,0.716,1.355,0.59,0.83,59,8,4.2130003,4.196,0.381,-0.19100001,0.11042785,0,nan,0.0,4,1,19
1134261585,1542990542600347,323876711,-1170753600,72256,37814,0.259,0.056377098,0.717,1.353,0.59,0.83,55,4,4.6140003,4.5950003,0.41300002,-0.264,0.098386295,0,nan,0.0,4,1,19
1134461476,1542990542800347,323876798,-1170753589,72141,37699,0.21700001,0.0482306,0.71300006,1.3390001,0.59,0.83,55,4,4.675,4.658,0.38900003,-0.21900001,0.08943067,0,nan,0.0,4,1,19
1134662475,1542990543000347,323876887,-1170753579,72140,37698,0.246,0.049220376,0.711,1.337,0.59,0.83,55,4,4.926,4.914,0.344,-0.13100001,0.079330966,0,nan,0.0,4,1,19
1134859537,1542990543200347,323876976,-1170753575,72156,37713,0.252,0.04934569,0.71000004,1.34,0.59,0.83,55,4,4.834,4.8190002,0.38200003,-0.054,0.07920042,0,nan,0.0,4,1,19
1135063547,1542990543400347,323877062,-1170753567,72187,37744,0.259,0.04933068,0.70900005,1.342,0.59,0.83,55,4,4.846,4.828,0.42100003,0.18900001,0.083242424,0,nan,0.0,4,1,19
1135263987,1542990543600347,323877151,-1170753565,72083,37640,0.245,0.04948497,0.70900005,1.345,0.59,0.83,55,3,4.933,4.9240003,0.29500002,0.404,0.07097852,0,nan,0.0,4,1,19
1135459496,1542990543800347,323877243,-1170753564,71981,37539,0.25500003,0.047743827,0.708,1.3470001,0.62,0.84999996,55,3,4.9830003,4.9700003,0.37100002,0.537,0.07291776,0,nan,0.0,4,1,18
1135662471,1542990544000347,323877333,-1170753557,71811,37369,0.25100002,0.05199039,0.708,1.3460001,0.66999996,0.87,55,3,4.7980003,4.776,0.46,0.514,0.08415017,0,nan,0.0,4,1,17
1135865589,1542990544200347,323877421,-1170753553,71709,37267,0.264,0.051207084,0.70900005,1.348,0.59,0.83,55,3,4.885,4.8760004,0.284,0.711,0.070367135,0,nan,0.0,4,1,19
1136065497,1542990544400347,323877507,-1170753548,71693,37250,0.259,0.04688146,0.70900005,1.3470001,0.59,0.83,55,3,4.992,4.9870005,0.24200001,0.633,0.05796936,0,nan,0.0,4,1,19
1136262605,1542990544600347,323877597,-1170753546,71561,37118,0.25100002,0.04858909,0.70900005,1.3490001,0.62,0.84,55,7,4.971,4.964,0.27,0.71000004,0.056083184,0,nan,0.0,4,1,18
1136458459,1542990544800347,323877686,-1170753539,71471,37028,0.23900001,0.046266582,0.70900005,1.348,0.62,0.84,55,7,5.024,5.0090003,0.388,0.615,0.06775141,0,nan,0.0,4,1,18
1136663530,1542990545000347,323877777,-1170753527,71315,36872,0.21900001,0.04616762,0.708,1.345,0.59,0.83,55,7,4.86,4.8440003,0.395,0.73,0.074998364,0,nan,0.0,4,1,19
1136856278,1542990545200347,323877865,-1170753517,71189,36746,0.215,0.044451613,0.707,1.343,0.59,0.83,55,7,4.781,4.775,0.22600001,0.74700004,0.05981173,0,nan,0.0,4,1,19
1137063933,1542990545400347,323877953,-1170753511,71040,36598,0.275,0.055330075,0.708,1.3440001,0.62,0.84,55,7,4.826,4.815,0.33600003,0.59900004,0.064013265,0,nan,0.0,4,1,18
1137264526,1542990545600347,323878040,-1170753498,70953,36510,0.24000001,0.04660308,0.70900005,1.338,0.62,0.84,55,8,4.8560004,4.847,0.293,0.60400003,0.06182584,0,nan,0.0,4,1,18
1137460888,1542990545800347,323878130,-1170753490,70847,36404,0.29200003,0.04595888,0.71000004,1.34,0.59,0.83,55,8,5.0950003,5.0940003,0.109000005,0.512,0.04008445,0,nan,0.0,4,1,19
1137673464,1542990546000347,323878218,-1170753486,70726,36283,0.23900001,0.044639412,0.711,1.34,0.59,0.83,55,8,4.892,4.8910003,0.09,0.597,0.028299116,0,nan,0.0,4,1,19
1137861607,1542990546200347,323878305,-1170753480,70573,36131,0.24800001,0.04869468,0.71000004,1.3390001,0.59,0.83,55,8,4.729,4.7260003,0.17,0.56100005,0.032068156,0,nan,0.0,4,1,19
1138063615,1542990546400347,323878392,-1170753474,70490,36048,0.22700001,0.042393,0.71000004,1.335,0.62,0.84,55,8,4.9430003,4.9420004,0.047000002,0.45000002,0.018630864,0,nan,0.0,4,1,18
1138258464,1542990546600347,323878475,-1170753467,70600,36158,0.14400001,0.032399416,0.70100003,1.3050001,0.62,0.84,55,3,4.9360003,4.9360003,0.054,0.287,0.013546547,0,nan,0.0,4,1,18
1138452529,1542990546800347,323878564,-1170753465,70547,36104,0.41500002,0.08025303,0.70500004,1.3110001,0.59,0.83,55,3,4.92,4.919,0.09200001,0.319,0.014438061,0,nan,0.0,4,1,19
1138659465,1542990547000347,323878654,-1170753467,70517,36075,0.393,0.06994983,0.717,1.3180001,0.59,0.83,55,3,5.0470004,5.0420003,-0.21800001,0.042000003,6.2642536,0,nan,0.0,4,1,19
1138864685,1542990547200347,323878735,-1170753460,70621,36178,0.20700002,0.04348854,0.721,1.309,0.59,0.83,55,3,4.998,4.998,0.054,0.157,0.0028916614,0,nan,0.0,4,1,19
1139064689,1542990547400347,323878823,-1170753459,70629,36187,0.246,0.05027665,0.721,1.3080001,0.59,0.83,55,3,4.9700003,4.9700003,0.002,0.141,0.0017320646,0,nan,0.0,4,1,19
1139266465,1542990547600347,323878907,-1170753455,70785,36343,0.215,0.038996764,0.72,1.3050001,0.59,0.83,78,3,5.0030003,5.0030003,-0.032,0.158,6.2796516,0,nan,0.0,4,1,19
1139471508,1542990547800347,323878992,-1170753455,70880,36438,0.208,0.038219567,0.71800005,1.3000001,0.59,0.83,78,3,5.01,5.0090003,-0.068,0.003,6.274129,0,nan,0.0,4,1,19
1139662474,1542990548000347,323879080,-1170753458,70905,36463,0.23500001,0.04253472,0.71800005,1.2980001,0.59,0.83,78,3,4.9430003,4.9430003,-0.058000002,0.039,6.2728114,0,nan,0.0,4,1,19
1139862485,1542990548200347,323879164,-1170753457,71100,36658,0.21400002,0.037816048,0.716,1.2930001,0.59,0.83,78,3,5.059,5.059,-0.085,-0.112,6.269016,0,nan,0.0,4,1,19
1140063519,1542990548400347,323879248,-1170753452,71326,36884,0.19800001,0.035556544,0.71400005,1.286,0.59,0.83,78,3,5.0660005,5.065,-0.065000005,-0.19000001,6.269794,0,nan,0.0,4,1,19
