timestamp,time_utc_usec,lat,lon,alt,alt_ellipsoid,s_variance_m_s,c_variance_rad,eph,epv,hdop,vdop,noise_per_ms,jamming_indicator,vel_m_s,vel_n_m_s,vel_e_m_s,vel_d_m_s,cog_rad,timestamp_time_relative,heading,heading_offset,fix_type,vel_ned_valid,satellites_used
50935217,1540574930400442,323874448,-1170763617,18164,-16280,0.393,0.751397,1.139,2.4490001,0.7,1.0799999,61,5,0.035,0.003,-0.035,0.13100001,0.99560416,0,nan,0.0,3,1,15
51111536,1540574930600442,323874451,-1170763616,18141,-16303,0.404,0.75141186,1.136,2.4450002,0.7,1.0799999,61,5,0.064,0.031000001,0.056,0.17300001,0.99560416,0,nan,0.0,3,1,15
51313498,1540574930800442,323874452,-1170763615,18102,-16343,0.42700002,0.75142735,1.1340001,2.4410002,0.7,1.0799999,65,1,0.049000002,0.047000002,-0.015000001,0.216,0.99560416,0,nan,0.0,3,1,15
51514584,1540574931000442,323874453,-1170763613,18060,-16385,0.363,0.75144064,1.1340001,2.4380002,0.7,1.0799999,65,1,0.10300001,-0.060000002,0.08400001,-0.009000001,0.99560416,0,nan,0.0,3,1,15
51713989,1540574931200442,323874452,-1170763614,18040,-16404,0.41300002,0.75145566,1.138,2.4420002,0.7,1.0799999,65,1,0.14400001,0.020000001,-0.142,0.10700001,0.99560416,0,nan,0.0,3,1,15
51920505,1540574931400442,323874453,-1170763615,18085,-16359,0.441,0.7514717,1.143,2.4450002,0.7,1.0799999,65,1,0.093,0.081,0.046000004,0.132,0.99560416,0,nan,0.0,3,1,15
52117505,1540574931600442,323874455,-1170763614,18021,-16423,0.453,0.75148827,1.148,2.4490001,0.7,1.0799999,65,1,0.042000003,0.017,0.038000003,0.19700001,0.99560416,0,nan,0.0,3,1,15
52314732,1540574931800442,323874455,-1170763612,18022,-16422,0.453,0.7515049,1.153,2.4540002,0.7,1.0799999,65,3,0.087000005,-0.059000004,0.065000005,0.261,0.99560416,0,nan,0.0,3,1,15
52718589,1540574932200442,323874454,-1170763613,17966,-16478,0.45100003,0.75153786,1.1650001,2.4640002,0.7,1.0799999,65,3,0.018000001,0.0,-0.018000001,0.098000005,0.99560416,0,nan,0.0,4,1,15
52919587,1540574932400442,323874454,-1170763615,17998,-16446,0.45200002,0.75155425,1.171,2.469,0.7,1.0799999,65,3,0.101,0.075,-0.068,0.23700002,0.99560416,0,nan,0.0,4,1,15
53120564,1540574932600442,323874455,-1170763616,18064,-16380,0.45400003,0.7515708,1.176,2.473,0.7,1.0799999,65,3,0.076000005,0.068,0.034,0.09900001,0.99560416,0,nan,0.0,4,1,15
53319504,1540574932800442,323874451,-1170763620,18337,-16108,0.45200002,0.75161344,1.1810001,2.479,0.7,1.0799999,65,5,0.42600003,-0.33200002,-0.26700002,-1.088,0.99560416,0,nan,0.0,4,1,15
53511513,1540574933000442,323874450,-1170763621,18669,-15776,0.45400003,0.7516862,1.187,2.4850001,0.7,1.0799999,65,5,0.216,0.21200001,0.038000003,-1.9810001,0.99560416,0,nan,0.0,4,1,15
53719531,1540574933200442,323874455,-1170763619,19035,-15409,0.46500003,0.75177276,1.194,2.4940002,0.7,1.0799999,65,5,0.40800002,0.40800002,0.004,-2.3390002,0.99560416,0,nan,0.0,4,1,15
53921512,1540574933400442,323874463,-1170763616,19441,-15003,0.47000003,0.68449926,1.202,2.5010002,0.7,1.0799999,65,5,0.62,0.59300005,0.18100001,-1.9160001,0.6126849,0,nan,0.0,4,1,15
54121505,1540574933600442,323874482,-1170763610,19862,-14582,0.492,0.28038365,1.21,2.5080001,0.7,1.0799999,65,5,1.526,1.4790001,0.37600002,-1.8100001,0.30121326,0,nan,0.0,4,1,15
54325511,1540574933800442,323874517,-1170763601,20345,-14099,0.527,0.17755006,1.2190001,2.5140002,0.7,1.0799999,65,4,2.4290001,2.3830001,0.469,-1.9510001,0.22474237,0,nan,0.0,4,1,15
54526637,1540574934000442,323874570,-1170763587,20720,-13724,0.499,0.1208513,1.228,2.5210001,0.7,1.0799999,65,4,3.5700002,3.4940002,0.73200005,-1.8180001,0.21219607,0,nan,0.0,4,1,15
54718729,1540574934200442,323874641,-1170763569,21203,-13241,0.46400002,0.09523633,1.235,2.5270002,0.7,1.0799999,65,4,4.4620004,4.3430004,1.021,-1.8880001,0.22377929,0,nan,0.0,4,1,15
54917739,1540574934400442,323874727,-1170763549,21625,-12819,0.45600003,0.08141734,1.2420001,2.5330002,0.7,1.0799999,65,4,5.236,5.1590004,0.892,-1.9800001,0.1930128,0,nan,0.0,4,1,15
55121497,1540574934600442,323874831,-1170763521,22085,-12359,0.43300003,0.06832946,1.248,2.538,0.7,1.0799999,65,4,6.4170003,6.1840005,1.7120001,-1.9800001,0.23927328,0,nan,0.0,4,1,15
55323504,1540574934800442,323874944,-1170763477,22460,-11984,0.42700002,0.064357966,1.253,2.542,0.7,1.0799999,65,1,6.7300005,6.334,2.2740002,-2.092,0.2972327,0,nan,0.0,4,1,15
55523515,1540574935000442,323875063,-1170763420,22979,-11465,0.37800002,0.050370548,1.251,2.5310001,0.7,1.0799999,65,1,7.287,6.5650005,3.1620002,-2.1450002,0.39467356,0,nan,0.0,4,1,15
55727444,1540574935200442,323875180,-1170763346,23489,-10955,0.367,0.04623604,1.2440001,2.5080001,0.7,1.0799999,65,1,7.4990005,6.4880004,3.759,-2.181,0.47049275,0,nan,0.0,4,1,15
55919443,1540574935400442,323875293,-1170763256,24023,-10421,0.36,0.04969563,1.24,2.4970002,0.7,1.0799999,65,1,7.728,6.2830005,4.499,-2.055,0.54752403,0,nan,0.0,4,1,15
56111534,1540574935600442,323875398,-1170763155,24566,-9878,0.319,0.04829326,1.235,2.4780002,0.7,1.0799999,65,1,7.6440005,5.611,5.1910005,-2.072,0.657899,0,nan,0.0,4,1,15
56316499,1540574935800442,323875495,-1170763037,25111,-9333,0.32000002,0.048804637,1.23,2.466,0.7,1.0799999,65,1,7.8640003,5.0800004,6.0030003,-2.0930002,0.86848676,0,nan,0.0,4,1,15
56517498,1540574936000442,323875582,-1170762902,25525,-8919,0.289,0.04826568,1.225,2.4510002,0.7,1.0799999,65,1,7.9890003,4.6260004,6.5130005,-2.1000001,0.9532724,0,nan,0.0,4,1,15
56720255,1540574936200442,323875655,-1170762758,26081,-8363,0.27800003,0.05189265,1.2210001,2.4380002,0.7,1.0799999,65,1,7.8450003,3.4370003,7.0520005,-2.0960002,1.1172733,0,nan,0.0,4,1,15
56920503,1540574936400442,323875711,-1170762604,26652,-7792,0.287,0.049673114,1.218,2.426,0.7,1.0799999,65,1,8.001,2.7680001,7.5060005,-2.025,1.2174641,0,nan,0.0,4,1,15
57117510,1540574936600442,323875753,-1170762438,26996,-7448,0.291,0.05072136,1.2160001,2.4220002,0.7,1.0799999,65,1,8.232,1.9230001,8.004001,-1.7830001,1.3349802,0,nan,0.0,4,1,15
57321513,1540574936800441,323875776,-1170762262,27356,-7088,0.28500003,0.047676634,1.215,2.4120002,0.7,1.0799999,65,1,8.393001,0.998,8.334001,-1.8210001,1.4515946,0,nan,0.0,4,1,15
57520213,1540574937000441,323875785,-1170762075,27789,-6655,0.28,0.046296425,1.213,2.4020002,0.7,1.0799999,65,1,8.934,0.363,8.927,-1.713,1.5301859,0,nan,0.0,4,1,15
57720502,1540574937200441,323875784,-1170761881,28259,-6184,0.28500003,0.046793148,1.212,2.391,0.7,1.0799999,65,1,9.274,-0.307,9.269,-1.741,1.6038667,0,nan,0.0,4,1,15
57922516,1540574937400441,323875778,-1170761679,28644,-5799,0.28300002,0.044110578,1.2110001,2.3790002,0.7,1.0799999,65,1,9.6710005,-0.44200003,9.661,-1.853,1.6164856,0,nan,0.0,4,1,15
58118582,1540574937600441,323875771,-1170761472,29119,-5325,0.27800003,0.04369484,1.2090001,2.365,0.7,1.0799999,65,1,9.712001,-0.33800003,9.706,-1.8880001,1.6056014,0,nan,0.0,4,1,15
58321502,1540574937800441,323875771,-1170761263,29544,-4899,0.30600002,0.045038566,1.2080001,2.358,0.7,1.0799999,65,2,9.758,0.20600002,9.7560005,-2.0010002,1.5497102,0,nan,0.0,4,1,15
58519504,1540574938000441,323875774,-1170761046,29822,-4622,0.18900001,0.030632446,1.194,2.3140001,0.7,1.0799999,65,2,9.93,0.82400006,9.896001,-1.7930001,1.4877126,0,nan,0.0,4,1,15
58713819,1540574938200441,323875795,-1170760837,30228,-4216,0.30400002,0.043938138,1.192,2.309,0.7,1.0799999,65,2,9.754001,1.6140001,9.620001,-1.7990001,1.4045602,0,nan,0.0,4,1,15
58914411,1540574938400441,323875831,-1170760634,30575,-3869,0.35300002,0.052957475,1.1960001,2.3100002,0.7,1.0799999,65,2,9.626,2.239,9.362,-1.7440001,1.3360262,0,nan,0.0,4,1,15
59118506,1540574938600441,323875881,-1170760438,30846,-3598,0.36100003,0.051797878,1.202,2.312,0.7,1.0799999,65,2,9.558001,3.081,9.048,-1.508,1.242583,0,nan,0.0,4,1,15
59316508,1540574938800441,323875942,-1170760251,31153,-3290,0.381,0.053721406,1.2090001,2.3160002,0.7,1.0799999,65,3,9.347,3.6100001,8.621,-1.4200001,1.1742287,0,nan,0.0,4,1,15
59520534,1540574939000441,323876021,-1170760076,31433,-3010,0.42400002,0.05085697,1.217,2.3200002,0.7,1.0799999,65,3,9.295,4.84,7.9350004,-1.233,1.0231153,0,nan,0.0,4,1,15
59730762,1540574939200441,323876119,-1170759913,31757,-2686,0.40500003,0.048791897,1.2240001,2.3230002,0.7,1.0799999,65,3,9.422001,5.6920004,7.5090003,-1.19,0.92216194,0,nan,0.0,4,1,15
59918636,1540574939400441,323876228,-1170759765,32016,-2427,0.42400002,0.057572823,1.23,2.329,0.7,1.0799999,65,3,9.032001,6.1720004,6.5950003,-1.1810001,0.8185198,0,nan,0.0,4,1,15
60119544,1540574939600441,323876347,-1170759631,32351,-2093,0.42100003,0.059418857,1.238,2.3370001,0.7,1.0799999,65,3,9.212001,6.8090005,6.2050004,-1.291,0.7389703,0,nan,0.0,4,1,15
60319538,1540574939800441,323876474,-1170759510,32720,-1724,0.397,0.055229895,1.2440001,2.342,0.7,1.0799999,65,2,9.01,7.2370005,5.367,-1.411,0.63815135,0,nan,0.0,4,1,15
60516503,1540574940000441,323876604,-1170759405,33060,-1383,0.393,0.054066982,1.248,2.3460002,0.7,1.0799999,65,2,8.641001,7.3640003,4.52,-1.437,0.55049515,0,nan,0.0,4,1,15
60720513,1540574940200441,323876743,-1170759320,33412,-1031,0.40500003,0.05615998,1.2520001,2.348,0.7,1.0799999,65,2,8.841001,8.087001,3.5720003,-1.197,0.41595033,0,nan,0.0,4,1,15
60917508,1540574940400441,323876889,-1170759258,33698,-745,0.402,0.053739384,1.2570001,2.352,0.7,1.0799999,65,2,8.627001,8.253,2.5140002,-1.189,0.29569158,0,nan,0.0,4,1,15
61117898,1540574940600441,323877039,-1170759218,34038,-405,0.404,0.05033494,1.261,2.354,0.7,1.0799999,65,2,8.566,8.407001,1.6400001,-1.116,0.1926393,0,nan,0.0,4,1,15
61312803,1540574940800441,323877193,-1170759194,34200,-243,0.43500003,0.04733193,1.2650001,2.357,0.7,1.0799999,65,1,8.787001,8.751,0.794,-0.95800006,0.0905194,0,nan,0.0,4,1,15
61516969,1540574941000441,323877355,-1170759189,34339,-104,0.43300003,0.045315202,1.271,2.3630002,0.7,1.0799999,65,1,9.225,9.224,-0.13700001,-0.94100004,6.2682996,0,nan,0.0,4,1,15
61716505,1540574941200441,323877521,-1170759205,34777,333,0.277,0.04233296,1.2670001,2.338,0.7,1.0799999,65,1,9.110001,9.048,-1.057,-0.841,6.1669083,0,nan,0.0,4,1,15
61916507,1540574941400441,323877681,-1170759239,34974,531,0.34500003,0.0490516,1.2670001,2.331,0.7,1.0799999,65,1,9.153001,8.904,-2.1200001,-0.63500005,6.049456,0,nan,0.0,4,1,15
62115505,1540574941600441,323877840,-1170759295,35278,835,0.402,0.04998483,1.2700001,2.3270001,0.7,1.0799999,65,1,9.191,8.784,-2.7050002,-0.61200005,5.984499,0,nan,0.0,4,1,15
62316513,1540574941800441,323877993,-1170759366,35398,955,0.404,0.051525958,1.2750001,2.3300002,0.7,1.0799999,65,1,9.011001,8.158,-3.8250003,-0.583,5.844753,0,nan,0.0,4,1,15
62514566,1540574942000441,323878134,-1170759457,35597,1154,0.505,0.05209092,1.2820001,2.3430002,0.7,1.0799999,65,1,8.823,7.6400003,-4.413,-0.689,5.759405,0,nan,0.0,4,1,15
62710647,1540574942200441,323878263,-1170759563,35803,1360,0.49800003,0.05524281,1.289,2.354,0.7,1.0799999,65,1,8.588,6.8810005,-5.1390004,-0.591,5.641669,0,nan,0.0,4,1,15
62916503,1540574942400441,323878382,-1170759681,35967,1524,0.363,0.04698234,1.2930001,2.3500001,0.7,1.0799999,65,1,8.752001,6.6730003,-5.663,-0.24300002,5.5795,0,nan,0.0,4,1,15
63119508,1540574942600441,323878496,-1170759811,36029,1586,0.37800002,0.05164551,1.294,2.348,0.7,1.0799999,65,1,8.877001,6.215,-6.3380003,0.23400001,5.488009,0,nan,0.0,4,1,15
63317502,1540574942800441,323878601,-1170759957,35961,1518,0.47900003,0.04932998,1.2980001,2.355,0.7,1.0799999,61,7,9.134001,5.806,-7.0520005,0.446,5.4011445,0,nan,0.0,4,1,15
63520105,1540574943000441,323878701,-1170760117,35882,1439,0.39600003,0.054154247,1.3030001,2.361,0.7,1.0799999,61,7,9.398001,5.3960004,-7.695,0.439,5.323932,0,nan,0.0,4,1,15
63717594,1540574943200441,323878790,-1170760292,35853,1410,0.384,0.050797805,1.3080001,2.365,0.7,1.0799999,61,7,9.594001,4.689,-8.370001,0.351,5.2230988,0,nan,0.0,4,1,15
63911534,1540574943400441,323878869,-1170760470,35617,1174,0.358,0.06097604,1.3130001,2.3720002,0.7,1.0799999,61,7,9.307,3.8920002,-8.454,0.34500003,5.143839,0,nan,0.0,4,1,15
64113638,1540574943600441,323878927,-1170760662,35678,1235,0.34800002,0.05750615,1.317,2.381,0.7,1.0799999,61,7,9.244,2.901,-8.777,0.377,5.031626,0,nan,0.0,4,1,15
64317570,1540574943800441,323878968,-1170760858,35615,1172,0.32700002,0.059171196,1.3210001,2.3890002,0.7,1.0799999,61,3,9.125,1.9860001,-8.906,0.34,4.931806,0,nan,0.0,4,1,15
64514511,1540574944000441,323878993,-1170761054,35564,1121,0.312,0.05298854,1.3230001,2.3930001,0.7,1.0799999,61,3,8.994,1.1880001,-8.915,0.254,4.844869,0,nan,0.0,4,1,15
64714608,1540574944200441,323879005,-1170761251,35557,1114,0.291,0.052048333,1.3230001,2.3960001,0.7,1.0799999,61,3,9.071,0.298,-9.066,0.25800002,4.7452464,0,nan,0.0,4,1,15
64912506,1540574944400441,323878999,-1170761449,35627,1183,0.27400002,0.053357504,1.3210001,2.398,0.7,1.0799999,61,3,9.019,-0.555,-9.002001,0.282,4.6507945,0,nan,0.0,4,1,15
65112503,1540574944600440,323878982,-1170761648,35642,1199,0.298,0.053250168,1.322,2.404,0.7,1.0799999,61,3,9.311001,-1.197,-9.234,0.372,4.583433,0,nan,0.0,4,1,15
65315508,1540574944800440,323878956,-1170761849,35548,1105,0.314,0.0562448,1.3240001,2.4090002,0.7,1.0799999,61,1,9.415001,-1.4760001,-9.298,0.549,4.554937,0,nan,0.0,4,1,15
65516533,1540574945000440,323878932,-1170762055,35571,1128,0.321,0.044570122,1.3240001,2.4080002,0.7,1.0799999,61,1,9.602,-0.95500004,-9.555,0.24100001,4.612807,0,nan,0.0,4,1,15
65715122,1540574945200440,323878920,-1170762262,35567,1124,0.314,0.04293021,1.3230001,2.4060001,0.7,1.0799999,61,1,9.532001,-0.335,-9.527,0.252,4.677203,0,nan,0.0,4,1,15
65911519,1540574945400440,323878918,-1170762467,35607,1164,0.33200002,0.04633133,1.322,2.404,0.7,1.0799999,61,1,9.515,0.36800003,-9.508,0.027,4.751123,0,nan,0.0,4,1,15
66114687,1540574945600440,323878935,-1170762669,35612,1169,0.317,0.04702615,1.322,2.4,0.7,1.0799999,61,1,9.425,1.4610001,-9.311001,0.062000003,4.868051,0,nan,0.0,4,1,15
66314620,1540574945800440,323878967,-1170762865,35630,1187,0.38700002,0.058913063,1.3240001,2.3950002,0.7,1.0799999,61,1,9.308001,2.26,-9.029,0.036000002,4.9576974,0,nan,0.0,4,1,15
66513500,1540574946000440,323879014,-1170763057,35758,1315,0.333,0.056901745,1.3260001,2.377,0.7,1.0799999,61,1,9.410001,2.9250002,-8.944,-0.27100003,5.028442,0,nan,0.0,4,1,15
66717598,1540574946200440,323879080,-1170763243,35908,1464,0.259,0.05438271,1.322,2.3470001,0.7,1.0799999,61,1,9.175,4.11,-8.203,-0.22200002,5.176911,0,nan,0.0,4,1,15
66916503,1540574946400440,323879167,-1170763419,35969,1525,0.24800001,0.042786047,1.3160001,2.328,0.7,1.0799999,61,1,9.196,4.8840003,-7.7920003,-0.08400001,5.272249,0,nan,0.0,4,1,15
67116280,1540574946600440,323879269,-1170763592,36174,1730,0.21100001,0.032907657,1.3000001,2.3000002,0.7,1.0799999,61,1,9.342,5.597,-7.4800005,-0.11000001,5.3547497,0,nan,0.0,4,1,15
67317506,1540574946800440,323879383,-1170763749,36345,1902,0.19600001,0.0340135,1.284,2.2710001,0.7,1.0799999,61,5,9.273001,6.352,-6.755,-0.023000002,5.4670587,0,nan,0.0,4,1,15
67518553,1540574947000440,323879504,-1170763894,36466,2022,0.224,0.0348811,1.271,2.2540002,0.7,1.0799999,61,5,9.238001,6.6720004,-6.3890004,-0.078,5.5194616,0,nan,0.0,4,1,15
67715512,1540574947200440,323879637,-1170764029,36620,2177,0.23600002,0.032050177,1.2590001,2.239,0.7,1.0799999,61,5,9.617001,7.478,-6.0470004,-0.14600001,5.603158,0,nan,0.0,4,1,15
67916503,1540574947400440,323879781,-1170764153,36755,2312,0.25300002,0.03263451,1.248,2.2280002,0.7,1.0799999,61,5,9.566,7.8030005,-5.5330005,-0.32500002,5.6663885,0,nan,0.0,4,1,15
68116501,1540574947600440,323879927,-1170764266,36811,2368,0.287,0.03454076,1.24,2.219,0.7,1.0799999,61,5,9.59,8.017,-5.2630005,-0.273,5.702213,0,nan,0.0,4,1,15
68315503,1540574947800440,323880082,-1170764378,36790,2347,0.26700002,0.03272056,1.2320001,2.21,0.7,1.0799999,65,1,9.743,8.319,-5.072,-0.24100001,5.735636,0,nan,0.0,4,1,15
68518518,1540574948000440,323880243,-1170764487,36828,2385,0.27,0.035977166,1.225,2.2,0.7,1.0799999,65,1,9.923,8.571,-5.0020003,-0.291,5.7549353,0,nan,0.0,4,1,15
68715507,1540574948200440,323880403,-1170764596,36982,2539,0.26900002,0.037754785,1.2190001,2.19,0.7,1.0799999,65,1,9.834001,8.428,-5.0680003,-0.32500002,5.7418137,0,nan,0.0,4,1,15
68922511,1540574948400440,323880560,-1170764704,37103,2659,0.26500002,0.035664752,1.212,2.1790001,0.7,1.0799999,65,1,9.808001,8.454,-4.973,-0.27400002,5.751422,0,nan,0.0,4,1,15
69112501,1540574948600440,323880713,-1170764818,37268,2825,0.30100003,0.040206276,1.2110001,2.173,0.7,1.0799999,65,1,9.936001,8.306001,-5.4540005,-0.30800003,5.7021623,0,nan,0.0,4,1,15
69319502,1540574948800440,323880858,-1170764937,37370,2926,0.35500002,0.04307769,1.212,2.173,0.7,1.0799999,65,2,9.711,7.8950005,-5.655,-0.39000002,5.661616,0,nan,0.0,4,1,15
69519504,1540574949000440,323880994,-1170765066,37465,3022,0.37500003,0.045914374,1.2160001,2.177,0.7,1.0799999,65,2,9.468,7.188,-6.162,-0.19000001,5.5744996,0,nan,0.0,4,1,15
69720228,1540574949200440,323881122,-1170765208,37550,3106,0.35900003,0.04465355,1.22,2.177,0.7,1.0799999,65,2,9.690001,6.8170004,-6.886,-0.22800002,5.4927387,0,nan,0.0,4,1,15
69916511,1540574949400440,323881238,-1170765363,37634,3190,0.35500002,0.04565851,1.2240001,2.1780002,0.7,1.0799999,65,2,9.576,5.9890003,-7.4730005,-0.256,5.388019,0,nan,0.0,4,1,15
70123504,1540574949600440,323881338,-1170765530,37645,3201,0.31300002,0.046129573,1.2260001,2.174,0.7,1.0799999,65,2,9.399,5.0540004,-7.925,-0.20300001,5.2800765,0,nan,0.0,4,1,15
70313803,1540574949800440,323881420,-1170765709,37755,3312,0.298,0.048579667,1.228,2.1680002,0.7,1.0799999,65,1,9.465,4.0480003,-8.555,-0.082,5.154356,0,nan,0.0,4,1,15
70517503,1540574950000440,323881485,-1170765896,37806,3363,0.293,0.045508586,1.2290001,2.161,0.7,1.0799999,65,1,9.507001,3.252,-8.933001,0.044000003,5.061527,0,nan,0.0,4,1,15
70713521,1540574950200440,323881534,-1170766088,37794,3351,0.30100003,0.048251368,1.23,2.1620002,0.7,1.0799999,65,1,9.301001,2.453,-8.972,0.208,4.9792323,0,nan,0.0,4,1,15
70918511,1540574950400440,323881563,-1170766284,37689,3245,0.24200001,0.043858726,1.2270001,2.164,0.7,1.0799999,65,1,9.404,1.115,-9.337001,0.363,4.831231,0,nan,0.0,4,1,15
71118511,1540574950600440,323881573,-1170766485,37753,3310,0.25,0.044594206,1.225,2.1660001,0.7,1.0799999,65,1,9.394,0.185,-9.392,0.254,4.7320886,0,nan,0.0,4,1,15
71310589,1540574950800440,323881569,-1170766687,37800,3356,0.33800003,0.05247594,1.228,2.1750002,0.7,1.0799999,65,8,9.47,-0.55200005,-9.454,0.09200001,4.654025,0,nan,0.0,4,1,15
71514597,1540574951000440,323881549,-1170766883,37762,3319,0.365,0.056771543,1.2340001,2.1850002,0.7,1.0799999,65,8,9.161,-1.6060001,-9.019,0.365,4.5361934,0,nan,0.0,4,1,15
71712501,1540574951200440,323881511,-1170767076,37764,3320,0.34300002,0.054587264,1.24,2.197,0.7,1.0799999,65,8,9.246,-2.4380002,-8.919001,0.19700001,4.445532,0,nan,0.0,4,1,15
71915500,1540574951400440,323881456,-1170767262,37722,3279,0.34600002,0.055396922,1.245,2.2080002,0.7,1.0799999,65,8,9.206,-3.45,-8.535001,0.33900002,4.328228,0,nan,0.0,4,1,15
72116511,1540574951600440,323881384,-1170767441,37719,3276,0.34600002,0.053269714,1.251,2.2180002,0.7,1.0799999,65,8,9.133,-4.3240004,-8.044001,0.483,4.219162,0,nan,0.0,4,1,15
72319496,1540574951800440,323881298,-1170767609,37669,3226,0.34800002,0.050448216,1.2550001,2.226,0.7,1.0799999,65,3,9.393001,-5.3430004,-7.7260003,0.66700006,4.1073604,0,nan,0.0,4,1,15
72519499,1540574952000440,323881198,-1170767768,37680,3236,0.34600002,0.049772076,1.2590001,2.2350001,0.7,1.0799999,65,3,9.239,-5.827,-7.1700006,0.80100006,4.02992,0,nan,0.0,4,1,15
72719527,1540574952200439,323881085,-1170767913,37607,3164,0.356,0.055293772,1.2620001,2.242,0.7,1.0799999,65,3,9.389001,-6.7360005,-6.5420003,1.0760001,3.9123735,0,nan,0.0,4,1,15
72919510,1540574952400439,323880959,-1170768042,37488,3045,0.36100003,0.051527876,1.266,2.2480001,0.7,1.0799999,65,3,9.286,-7.386,-5.6280003,0.919,3.792749,0,nan,0.0,4,1,15
73119503,1540574952600439,323880820,-1170768151,37388,2944,0.38300002,0.049012158,1.269,2.2510002,0.7,1.0799999,65,3,9.258,-8.004001,-4.6530004,0.89500004,3.6681826,0,nan,0.0,4,1,15
73318554,1540574952800439,323880670,-1170768241,37316,2872,0.404,0.049416028,1.2720001,2.2570002,0.7,1.0799999,65,1,9.442,-8.59,-3.92,0.86300004,3.5696595,0,nan,0.0,4,1,15
73517800,1540574953000439,323880512,-1170768317,37256,2813,0.44200003,0.047916267,1.2750001,2.263,0.7,1.0799999,65,1,9.151,-8.651,-2.9850001,0.73,3.4738975,0,nan,0.0,4,1,15
73714570,1540574953200439,323880350,-1170768367,37072,2628,0.49,0.043778267,1.2770001,2.263,0.7,1.0799999,65,1,9.156,-8.991,-1.7310001,1.2390001,3.3317568,0,nan,0.0,4,1,15
73914594,1540574953400439,323880181,-1170768396,36676,2233,0.48700002,0.04067315,1.2780001,2.2580001,0.7,1.0799999,65,1,9.424001,-9.363001,-1.0660001,1.6980001,3.2549229,0,nan,0.0,4,1,15
74119531,1540574953600439,323880011,-1170768407,36391,1948,0.476,0.044936642,1.2800001,2.259,0.7,1.0799999,65,1,9.0060005,-9.005,0.15900001,1.6810001,3.1239228,0,nan,0.0,4,1,15
74320531,1540574953800439,323879847,-1170768395,36085,1641,0.42900002,0.044251423,1.281,2.253,0.7,1.0799999,60,2,8.901,-8.849,0.95400006,1.603,3.0341864,0,nan,0.0,4,1,15
74518573,1540574954000439,323879687,-1170768362,35620,1176,0.41500002,0.04698548,1.2820001,2.2440002,0.7,1.0799999,60,2,8.744,-8.524,1.9510001,1.83,2.9165707,0,nan,0.0,4,1,15
74719509,1540574954200439,323879530,-1170768314,35303,860,0.455,0.053497653,1.2850001,2.239,0.7,1.0799999,60,2,9.032001,-8.684,2.482,1.7990001,2.8631957,0,nan,0.0,4,1,15
74918621,1540574954400439,323879383,-1170768245,34917,473,0.402,0.060292047,1.289,2.2310002,0.7,1.0799999,60,2,8.570001,-7.708,3.7470002,2.0600002,2.6891155,0,nan,0.0,4,1,15
75119344,1540574954600439,323879241,-1170768155,34607,163,0.45400003,0.05755345,1.2950001,2.2280002,0.7,1.0799999,60,2,9.137,-7.9100003,4.5740004,2.128,2.6173391,0,nan,0.0,4,1,15
75319503,1540574954800439,323879096,-1170768056,34132,-311,0.46300003,0.05541612,1.3010001,2.232,0.7,1.0799999,60,2,9.383,-8.107,4.7240005,2.1880002,2.6139984,0,nan,0.0,4,1,15
75517505,1540574955000439,323878947,-1170767954,33814,-630,0.42400002,0.051949546,1.307,2.2340002,0.7,1.0799999,60,2,9.652,-8.337001,4.8640003,1.9290001,2.613461,0,nan,0.0,4,1,15
75720170,1540574955200439,323878797,-1170767847,33520,-924,0.41500002,0.048598167,1.312,2.236,0.7,1.0799999,60,2,9.706,-8.235001,5.138,1.8060001,2.583746,0,nan,0.0,4,1,15
75913506,1540574955400439,323878643,-1170767738,33237,-1207,0.40800002,0.045255862,1.315,2.2380002,0.7,1.0799999,60,2,10.032001,-8.667001,5.052,1.7520001,2.6138253,0,nan,0.0,4,1,15
76113504,1540574955600439,323878488,-1170767630,32925,-1519,0.39900002,0.046377234,1.3180001,2.2380002,0.7,1.0799999,60,2,9.872001,-8.43,5.137,1.6940001,2.5942984,0,nan,0.0,4,1,15
76313068,1540574955800439,323878334,-1170767523,32566,-1878,0.37800002,0.046122417,1.3210001,2.2380002,0.7,1.0799999,60,2,9.878,-8.473001,5.0790005,1.6650001,2.601613,0,nan,0.0,4,1,15
76518576,1540574956000439,323878181,-1170767414,32375,-2069,0.38900003,0.043954894,1.3210001,2.2340002,0.7,1.0799999,60,2,9.793,-8.258,5.2640004,1.3230001,2.574072,0,nan,0.0,4,1,15
76717506,1540574956200439,323878033,-1170767294,32198,-2246,0.35000002,0.0402431,1.3180001,2.2080002,0.7,1.0799999,60,2,9.981001,-8.023001,5.9360003,1.4430001,2.5045965,0,nan,0.0,4,1,15
76911500,1540574956400439,323877894,-1170767164,31833,-2611,0.321,0.044110578,1.3160001,2.1890001,0.7,1.0799999,60,2,9.828,-7.26,6.6240005,1.603,2.4020166,0,nan,0.0,4,1,15
77118572,1540574956600439,323877767,-1170767020,31575,-2869,0.453,0.04778397,1.3180001,2.1910002,0.7,1.0799999,60,2,9.776,-6.721,7.0990005,1.6140001,2.3288605,0,nan,0.0,4,1,15
77316528,1540574956800439,323877653,-1170766866,31292,-3152,0.45000002,0.051416,1.3230001,2.194,0.7,1.0799999,60,2,9.6,-5.892,7.5800004,1.4740001,2.2315469,0,nan,0.0,4,1,15
77519501,1540574957000439,323877558,-1170766700,31007,-3437,0.41300002,0.055177882,1.3280001,2.1980002,0.7,1.0799999,60,2,9.5060005,-4.8380003,8.183001,1.7760001,2.1047018,0,nan,0.0,4,1,15
77716531,1540574957200439,323877479,-1170766525,30828,-3616,0.386,0.057251856,1.3340001,2.203,0.7,1.0799999,60,2,9.47,-4.0350003,8.568001,1.08,2.010891,0,nan,0.0,4,1,15
77916533,1540574957400439,323877414,-1170766341,30783,-3661,0.37800002,0.057726763,1.3390001,2.21,0.7,1.0799999,60,2,9.543,-3.2960002,8.956,0.27400002,1.9234899,0,nan,0.0,4,1,15
78118567,1540574957600439,323877359,-1170766148,30807,-3637,0.374,0.055061642,1.345,2.214,0.7,1.0799999,60,2,9.6380005,-2.8820002,9.1970005,0.282,1.8744655,0,nan,0.0,4,1,15
78318520,1540574957800439,323877311,-1170765950,30794,-3650,0.344,0.055396747,1.35,2.219,0.7,1.0799999,60,1,9.784,-2.447,9.473001,0.44400004,1.8235581,0,nan,0.0,4,1,15
78516512,1540574958000439,323877269,-1170765749,30801,-3643,0.33,0.051993705,1.353,2.2210002,0.7,1.0799999,60,1,9.844001,-2.17,9.602,0.27,1.79305,0,nan,0.0,4,1,15
78716539,1540574958200439,323877226,-1170765545,30867,-3577,0.34500003,0.051886365,1.3570001,2.2220001,0.7,1.0799999,60,1,9.887,-2.536,9.557,0.194,1.8301871,0,nan,0.0,4,1,15
78911513,1540574958400439,323877176,-1170765342,30835,-3609,0.33900002,0.05335768,1.3610001,2.2240002,0.7,1.0799999,60,1,9.903001,-2.762,9.511001,0.116000004,1.8534145,0,nan,0.0,4,1,15
79111518,1540574958600439,323877119,-1170765143,30879,-3564,0.30400002,0.051621076,1.363,2.2240002,0.7,1.0799999,60,1,9.889001,-3.315,9.317,0.012,1.9126489,0,nan,0.0,4,1,15
79316574,1540574958800439,323877049,-1170764952,30914,-3530,0.32200003,0.053021528,1.365,2.2250001,0.7,1.0799999,60,1,9.6970005,-4.063,8.805,-0.045,2.0031047,0,nan,0.0,4,1,15
79510549,1540574959000439,323876967,-1170764768,30956,-3488,0.324,0.049456693,1.3670001,2.2220001,0.7,1.0799999,60,1,9.673,-4.703,8.453,-0.064,2.0785112,0,nan,0.0,4,1,15
79717600,1540574959200439,323876871,-1170764594,30999,-3445,0.354,0.049746245,1.368,2.2220001,0.7,1.0799999,60,1,9.6640005,-5.6800003,7.8180003,-0.006,2.1991084,0,nan,0.0,4,1,15
79917842,1540574959400438,323876763,-1170764432,31051,-3392,0.365,0.053362913,1.3700001,2.226,0.7,1.0799999,60,1,9.622001,-6.09,7.4500003,-0.104,2.2560453,0,nan,0.0,4,1,15
80116499,1540574959600438,323876652,-1170764273,31099,-3345,0.27400002,0.03991079,1.366,2.2210002,0.7,1.0799999,60,1,9.776,-6.011,7.7100005,-0.083000004,2.2330487,0,nan,0.0,4,1,15
80316536,1540574959800438,323876543,-1170764109,31221,-3223,0.26500002,0.036950365,1.3570001,2.2110002,0.7,1.0799999,60,1,9.835,-5.9550004,7.827,-0.155,2.2212079,0,nan,0.0,4,1,15
80518573,1540574960000438,323876438,-1170763944,31309,-3135,0.24700001,0.038385198,1.3460001,2.2020001,0.7,1.0799999,60,1,9.444,-5.6320004,7.5800004,-0.13000001,2.2098253,0,nan,0.0,4,1,15
80716575,1540574960200438,323876336,-1170763788,31450,-2994,0.252,0.038459376,1.335,2.194,0.7,1.0799999,60,1,9.092,-5.6050005,7.1580005,-0.23600002,2.2350538,0,nan,0.0,4,1,15
80923569,1540574960400438,323876237,-1170763641,31588,-2855,0.254,0.03884649,1.3240001,2.1850002,0.7,1.0799999,60,1,8.705001,-5.53,6.7230005,-0.32900003,2.2591553,0,nan,0.0,4,1,15
81122566,1540574960600438,323876143,-1170763504,31682,-2762,0.25100002,0.047523394,1.3160001,2.1780002,0.7,1.0799999,60,1,8.139,-4.977,6.4410005,-0.282,2.2286515,0,nan,0.0,4,1,15
81319505,1540574960800438,323876054,-1170763375,31750,-2693,0.25800002,0.05158425,1.309,2.174,0.7,1.0799999,60,3,7.557,-4.7770004,5.8560004,-0.194,2.241883,0,nan,0.0,4,1,15
81516511,1540574961000438,323875978,-1170763266,32014,-2430,0.26200002,0.06051475,1.299,2.164,0.7,1.0799999,60,3,6.0660005,-3.854,4.6850004,-0.99000007,2.2496712,0,nan,0.0,4,1,15
81716503,1540574961200438,323875926,-1170763183,32387,-2056,0.266,0.100984044,1.291,2.153,0.7,1.0799999,60,3,4.0800004,-2.2450001,3.407,-1.373,2.2230344,0,nan,0.0,4,1,15
81912027,1540574961400438,323875900,-1170763135,32795,-1649,0.32500002,0.2542592,1.284,2.144,0.7,1.0799999,60,3,1.59,-0.846,1.3460001,-1.6960001,2.2104874,0,nan,0.0,4,1,15
82108544,1540574961600438,323875898,-1170763125,33233,-1210,0.374,0.25450268,1.276,2.1320002,0.7,1.0799999,60,3,0.30900002,0.3,-0.072000004,-2.237,2.2104874,0,nan,0.0,4,1,15
82315511,1540574961800438,323875912,-1170763139,33713,-730,0.36200002,0.27946803,1.2670001,2.1220002,0.7,1.0799999,60,3,1.304,0.994,-0.84400004,-2.5430002,0.8875418,0,nan,0.0,4,1,15
82521687,1540574962000438,323875932,-1170763164,34216,-228,0.40100002,0.21749786,1.263,2.1220002,0.7,1.0799999,60,3,1.838,1.286,-1.314,-2.542,6.1212573,0,nan,0.0,4,1,15
82721570,1540574962200438,323875955,-1170763194,34724,281,0.407,0.19852456,1.2600001,2.1220002,0.7,1.0799999,60,3,1.955,1.3510001,-1.4130001,-2.7380002,5.768205,0,nan,0.0,4,1,15
82919500,1540574962400438,323875977,-1170763224,35294,850,0.41000003,0.22401352,1.2570001,2.1220002,0.7,1.0799999,60,3,1.797,1.143,-1.386,-2.8230002,5.606556,0,nan,0.0,4,1,15
83118588,1540574962600438,323875996,-1170763253,35886,1442,0.40500003,0.2304255,1.2540001,2.1190002,0.7,1.0799999,60,3,1.695,1.148,-1.2470001,-2.914,5.533503,0,nan,0.0,4,1,15
83324535,1540574962800438,323876014,-1170763277,36527,2083,0.40600002,0.26360753,1.25,2.1160002,0.7,1.0799999,64,1,1.4330001,1.021,-1.006,-3.0900002,5.5212407,0,nan,0.0,4,1,15
83520505,1540574963000438,323876026,-1170763298,37232,2788,0.44400004,0.5660164,1.2520001,2.1190002,0.7,1.0799999,64,1,0.92300004,0.347,-0.855,-3.1460001,5.445737,0,nan,0.0,4,1,15
83718564,1540574963200438,323876034,-1170763313,37877,3433,0.45100003,0.5610701,1.2570001,2.1220002,0.7,1.0799999,64,1,0.87100005,0.61800003,-0.614,-3.193,5.4735284,0,nan,0.0,4,1,15
83918518,1540574963400438,323876041,-1170763324,38513,4069,0.44900003,0.5612286,1.2620001,2.1260002,0.7,1.0799999,64,1,0.59300005,0.39000002,-0.446,-3.1890001,5.4735284,0,nan,0.0,4,1,15
84116503,1540574963600438,323876047,-1170763331,39198,4754,0.448,0.5613841,1.2670001,2.13,0.7,1.0799999,64,1,0.34100002,0.26500002,-0.215,-3.1650002,5.4735284,0,nan,0.0,4,1,15
84323504,1540574963800438,323876055,-1170763335,39853,5409,0.453,0.76344377,1.271,2.135,0.7,1.0799999,64,1,0.505,0.492,-0.116000004,-3.2480001,5.6766844,0,nan,0.0,4,1,15
84522616,1540574964000438,323876062,-1170763337,40491,6048,0.44500002,0.7743832,1.274,2.1390002,0.7,1.0799999,64,1,0.43,0.43,0.004,-3.1060002,5.9797587,0,nan,0.0,4,1,15
84712538,1540574964200438,323876065,-1170763339,41124,6680,0.44900003,0.7744978,1.2780001,2.144,0.7,1.0799999,64,1,0.14400001,0.019000001,-0.142,-3.2310002,5.9797587,0,nan,0.0,4,1,15
84919508,1540574964400438,323876062,-1170763340,41744,7300,0.446,0.77460676,1.2820001,2.151,0.7,1.0799999,64,1,0.24400002,-0.24000001,0.048,-3.068,5.9797587,0,nan,0.0,4,1,15
85121501,1540574964600438,323876057,-1170763338,42383,7940,0.42400002,0.7747195,1.281,2.1550002,0.7,1.0799999,64,1,0.027,0.026,0.006,-3.1880002,5.9797587,0,nan,0.0,4,1,15
85313512,1540574964800438,323876051,-1170763339,42997,8553,0.409,0.7748326,1.2770001,2.157,0.7,1.0799999,64,6,0.09,-0.08800001,-0.017,-3.1950002,5.9797587,0,nan,0.0,4,1,15
85517498,1540574965000438,323876048,-1170763340,43677,9233,0.40100002,0.77494675,1.2720001,2.158,0.7,1.0799999,64,6,0.104,0.002,-0.104,-3.223,5.9797587,0,nan,0.0,4,1,15
85713520,1540574965200438,323876046,-1170763343,44365,9922,0.407,0.77506155,1.268,2.158,0.7,1.0799999,64,6,0.20700002,0.15400001,-0.13800001,-3.2380002,5.9797587,0,nan,0.0,4,1,15
85917719,1540574965400438,323876046,-1170763345,44970,10526,0.4,0.7751754,1.263,2.158,0.7,1.0799999,64,6,0.20700002,0.20500001,-0.026,-3.2120001,5.9797587,0,nan,0.0,4,1,15
86117503,1540574965600438,323876047,-1170763344,45520,11076,0.39900002,0.7752834,1.258,2.158,0.7,1.0799999,64,6,0.080000006,0.072000004,0.034,-3.0530002,5.9797587,0,nan,0.0,4,1,15
86316502,1540574965800438,323876046,-1170763345,46176,11733,0.397,0.77539355,1.253,2.158,0.7,1.0799999,64,1,0.041,0.026,-0.032,-3.1150002,5.9797587,0,nan,0.0,4,1,15
86515546,1540574966000438,323876043,-1170763348,46855,12411,0.39400002,0.7754958,1.2490001,2.157,0.7,1.0799999,64,1,0.21800001,-0.19100001,-0.106000006,-2.881,5.9797587,0,nan,0.0,4,1,15
86717503,1540574966200438,323876039,-1170763350,47486,13042,0.388,0.7755867,1.2440001,2.151,0.7,1.0799999,64,1,0.010000001,-0.010000001,0.001,-2.572,5.9797587,0,nan,0.0,4,1,15
86916534,1540574966400438,323876038,-1170763350,47989,13545,0.38500002,0.77566683,1.2390001,2.1490002,0.7,1.0799999,64,1,0.046000004,-0.004,-0.046000004,-2.263,5.9797587,0,nan,0.0,4,1,15
87111496,1540574966600437,323876037,-1170763350,48362,13918,0.38900003,0.77573264,1.235,2.148,0.7,1.0799999,64,1,0.09200001,0.09200001,0.007,-1.8600001,5.9797587,0,nan,0.0,4,1,15
87308540,1540574966800437,323876038,-1170763350,48681,14237,0.39200002,0.77579165,1.2310001,2.1490002,0.7,1.0799999,64,1,0.079,0.066,-0.043,-1.6680001,5.9797587,0,nan,0.0,4,1,15
87517501,1540574967000437,323876038,-1170763347,48946,14502,0.39400002,0.77584034,1.2270001,2.15,0.7,1.0799999,64,1,0.26000002,0.25500003,0.05,-1.353,5.9797587,0,nan,0.0,4,1,15
87717501,1540574967200437,323876036,-1170763345,49138,14694,0.38700002,0.7758824,1.223,2.15,0.7,1.0799999,64,1,0.004,0.003,0.003,-1.189,5.9797587,0,nan,0.0,4,1,15
87918580,1540574967400437,323876031,-1170763345,49322,14878,0.39000002,0.7759144,1.22,2.1520002,0.7,1.0799999,64,1,0.089,-0.030000001,-0.08400001,-0.90000004,5.9797587,0,nan,0.0,4,1,15
88119519,1540574967600437,323876031,-1170763343,49567,15123,0.39000002,0.77594626,1.215,2.1520002,0.7,1.0799999,64,1,0.31,0.27400002,0.14400001,-0.846,5.9797587,0,nan,0.0,4,1,15
88319529,1540574967800437,323876031,-1170763340,49750,15306,0.393,0.77596915,1.212,2.1520002,0.7,1.0799999,64,7,0.13100001,0.13100001,0.006,-0.637,5.9797587,0,nan,0.0,4,1,15
88519500,1540574968000437,323876030,-1170763337,49925,15481,0.409,0.77599984,1.21,2.153,0.7,1.0799999,64,7,0.19900002,0.17400001,0.097,-0.845,5.9797587,0,nan,0.0,4,1,15
88718561,1540574968200437,323876030,-1170763333,50005,15561,0.38500002,0.7760203,1.21,2.153,0.7,1.0799999,64,7,0.11400001,0.015000001,0.113000005,-0.56600004,5.9797587,0,nan,0.0,4,1,15
88919497,1540574968400437,323876031,-1170763331,50112,15668,0.416,0.77603495,1.2090001,2.153,0.7,1.0799999,64,7,0.149,0.142,0.045,-0.333,5.9797587,0,nan,0.0,4,1,15
89119505,1540574968600437,323876033,-1170763331,50159,15715,0.36600003,0.7760479,1.2080001,2.1520002,0.7,1.0799999,64,7,0.22800002,0.08800001,-0.21000001,-0.18300001,5.9797587,0,nan,0.0,4,1,15
89317595,1540574968800437,323876038,-1170763335,50266,15822,0.42800003,0.776063,1.2080001,2.15,0.7,1.0799999,69,3,0.277,0.26200002,-0.091000006,-0.147,5.9797587,0,nan,0.0,4,1,15
89516345,1540574969000437,323876045,-1170763336,50324,15880,0.328,0.77607685,1.2060001,2.147,0.7,1.0799999,69,3,0.39100003,0.32200003,-0.22200002,0.002,5.9797587,0,nan,0.0,4,1,15
89719531,1540574969200437,323876052,-1170763342,50413,15969,0.282,0.77609044,1.2030001,2.144,0.7,1.0799999,69,3,0.381,0.201,-0.324,0.051000003,5.9797587,0,nan,0.0,4,1,15
89913510,1540574969400437,323876057,-1170763349,50428,15985,0.29500002,0.6374956,1.199,2.1420002,0.7,1.0799999,69,3,0.56100005,0.333,-0.45100003,0.044000003,5.6022944,0,nan,0.0,4,1,15
90119501,1540574969600437,323876066,-1170763355,50409,15965,0.314,0.59076303,1.1960001,2.144,0.7,1.0799999,69,3,0.56600004,0.45200002,-0.34100002,0.17600001,5.620704,0,nan,0.0,4,1,15
90319532,1540574969800437,323876077,-1170763361,50462,16018,0.30900002,0.56496024,1.192,2.1460001,0.7,1.0799999,69,1,0.61200005,0.33800003,-0.51100004,0.11100001,5.4516335,0,nan,0.0,4,1,15
90518606,1540574970000437,323876088,-1170763370,50454,16010,0.31100002,0.4328486,1.189,2.15,0.7,1.0799999,69,1,0.77300006,0.41900003,-0.65000004,0.164,5.346296,0,nan,0.0,4,1,15
90719193,1540574970200437,323876099,-1170763385,50481,16037,0.47000003,0.4140097,1.192,2.1590002,0.7,1.0799999,69,1,0.95600003,0.492,-0.82000005,0.15100001,5.2974,0,nan,0.0,4,1,15
90920537,1540574970400437,323876107,-1170763402,50477,16033,0.45700002,0.4150131,1.1960001,2.1690001,0.7,1.0799999,69,1,0.92300004,0.45700002,-0.80200005,0.19000001,5.264102,0,nan,0.0,4,1,15
91116503,1540574970600437,323876113,-1170763422,50499,16055,0.44900003,0.35478282,1.2,2.18,0.7,1.0799999,69,1,1.1010001,0.324,-1.0530001,0.124000005,5.117569,0,nan,0.0,4,1,15
91321588,1540574970800437,323876121,-1170763444,50479,16035,0.448,0.3529347,1.2040001,2.19,0.7,1.0799999,68,1,1.159,0.527,-1.033,0.14500001,5.151246,0,nan,0.0,4,1,15
91516560,1540574971000437,323876129,-1170763468,50470,16026,0.38500002,0.3333877,1.2080001,2.197,0.7,1.0799999,68,1,1.189,0.43100002,-1.108,0.15200001,5.115469,0,nan,0.0,4,1,15
91717590,1540574971200437,323876139,-1170763493,50404,15960,0.38000003,0.33043602,1.212,2.203,0.7,1.0799999,68,1,1.358,0.573,-1.2310001,0.303,5.131762,0,nan,0.0,4,1,15
91917504,1540574971400437,323876153,-1170763521,50392,15948,0.35200003,0.29388726,1.2160001,2.207,0.7,1.0799999,68,1,1.503,0.794,-1.276,0.34300002,5.208488,0,nan,0.0,4,1,15
92116506,1540574971600437,323876166,-1170763556,50507,16063,0.349,0.25471404,1.22,2.216,0.79999995,1.31,68,1,1.7650001,0.688,-1.626,0.162,5.1536584,0,nan,0.0,4,1,14
92317511,1540574971800437,323876181,-1170763596,50504,16060,0.37,0.22356357,1.225,2.2210002,0.7,1.0799999,64,1,2.171,0.827,-2.0070002,0.31300002,5.1251163,0,nan,0.0,4,1,15
92513008,1540574972000437,323876199,-1170763645,50382,15938,0.358,0.1870293,1.2310001,2.23,0.7,1.0799999,64,1,2.696,1.169,-2.43,0.499,5.14605,0,nan,0.0,4,1,15
92713916,1540574972200437,323876217,-1170763697,50342,15898,0.35200003,0.21205959,1.2370001,2.237,0.7,1.0799999,64,1,2.3500001,0.96500003,-2.1430001,0.201,5.1413555,0,nan,0.0,4,1,15
92914518,1540574972400437,323876233,-1170763735,50300,15856,0.37800002,0.32714957,1.2440001,2.2480001,0.7,1.0799999,64,1,1.649,0.772,-1.457,0.60400003,5.15859,0,nan,0.0,4,1,15
93113509,1540574972600437,323876244,-1170763756,50186,15742,0.41300002,0.74086815,1.2520001,2.2610002,0.7,1.0799999,64,1,0.77300006,0.41000003,-0.65500003,0.89800006,5.1770263,0,nan,0.0,4,1,15
93316500,1540574972800437,323876252,-1170763763,50067,15623,0.48400003,0.7409046,1.261,2.276,0.7,1.0799999,64,2,0.393,0.39200002,-0.016,0.90000004,5.1770263,0,nan,0.0,4,1,15
93516501,1540574973000437,323876260,-1170763764,50001,15557,0.47200003,0.7409301,1.269,2.2870002,0.7,1.0799999,64,2,0.386,0.386,0.001,0.568,5.1770263,0,nan,0.0,4,1,15
93716530,1540574973200437,323876266,-1170763760,49877,15434,0.503,0.74095225,1.2770001,2.299,0.7,1.0799999,64,2,0.402,0.23900001,0.324,0.448,5.1770263,0,nan,0.0,4,1,15
93915505,1540574973400437,323876270,-1170763750,49817,15373,0.504,0.74097776,1.284,2.309,0.7,1.0799999,64,2,0.54200006,0.21000001,0.5,0.423,5.1770263,0,nan,0.0,4,1,15
94116536,1540574973600437,323876268,-1170763737,49691,15247,0.44300002,0.70498765,1.2870001,2.3170002,0.7,1.0799999,64,2,0.61300004,0.080000006,0.60800004,0.27100003,0.23035884,0,nan,0.0,4,1,15
94315564,1540574973800436,323876265,-1170763722,49632,15188,0.42800003,0.58473027,1.2900001,2.322,0.7,1.0799999,59,3,0.73300004,-0.027,0.73300004,0.231,1.0461798,0,nan,0.0,4,1,15
94514531,1540574974000436,323876262,-1170763703,49565,15121,0.41000003,0.5006276,1.291,2.3270001,0.7,1.0799999,59,3,0.80500007,-0.011000001,0.80500007,0.069000006,1.3568065,0,nan,0.0,4,1,15
94710607,1540574974200436,323876258,-1170763682,49472,15028,0.39800003,0.43040287,1.2930001,2.329,0.7,1.0799999,59,3,0.88900006,-0.089,0.88500005,0.163,1.537788,0,nan,0.0,4,1,15
94916503,1540574974400436,323876256,-1170763659,49333,14889,0.37800002,0.39455715,1.2930001,2.331,0.7,1.0799999,59,3,0.95000005,-0.065000005,0.947,0.112,1.5931858,0,nan,0.0,4,1,15
95109502,1540574974600436,323876260,-1170763635,49304,14860,0.34100002,0.35386094,1.292,2.332,0.7,1.0799999,59,3,1.098,0.19700001,1.08,-0.10700001,1.4807018,0,nan,0.0,4,1,15
95311527,1540574974800436,323876265,-1170763608,49328,14884,0.35200003,0.35967305,1.292,2.335,0.7,1.0799999,59,3,1.171,0.025,1.171,-0.079,1.5146005,0,nan,0.0,4,1,15
95511512,1540574975000436,323876265,-1170763578,49296,14852,0.35900003,0.31640008,1.2930001,2.338,0.74,1.22,59,3,1.335,-0.13100001,1.3290001,-0.044000003,1.6016166,0,nan,0.0,4,1,14
95717507,1540574975200436,323876265,-1170763547,49315,14871,0.354,0.30628362,1.2950001,2.342,0.74,1.22,59,3,1.424,-0.033,1.4230001,-0.109000005,1.5978159,0,nan,0.0,4,1,14
95921587,1540574975400436,323876266,-1170763515,49328,14884,0.344,0.28446037,1.296,2.345,0.74,1.22,59,3,1.544,0.007,1.544,-0.202,1.5807596,0,nan,0.0,4,1,14
96117186,1540574975600436,323876268,-1170763480,49338,14895,0.30200002,0.30218786,1.297,2.3490002,0.74,1.22,59,3,1.511,0.021000002,1.511,-0.109000005,1.5696731,0,nan,0.0,4,1,14
96322508,1540574975800436,323876270,-1170763447,49369,14925,0.3,0.27400377,1.297,2.351,0.74,1.22,59,1,1.58,0.078,1.5780001,-0.066,1.5433289,0,nan,0.0,4,1,14
96525509,1540574976000436,323876272,-1170763409,49381,14937,0.30400002,0.24926041,1.297,2.355,0.74,1.22,59,1,1.8560001,0.083000004,1.8540001,-0.18100001,1.5340092,0,nan,0.0,4,1,14
96749721,1540574976200436,323876271,-1170763369,49489,15045,0.275,0.20141919,1.297,2.354,0.69,1.18,59,1,2.046,-0.052,2.045,-0.245,1.5717721,0,nan,0.0,4,1,16
96922513,1540574976400436,323876272,-1170763317,49521,15077,0.312,0.14414708,1.297,2.3530002,0.69,1.18,59,1,2.936,0.12100001,2.933,-0.059000004,1.5438789,0,nan,0.0,4,1,16
97121497,1540574976600436,323876273,-1170763247,49576,15133,0.307,0.11280569,1.296,2.3490002,0.69,1.18,59,1,3.6230001,-0.05,3.6220002,-0.164,1.5692092,0,nan,0.0,4,1,16
97322508,1540574976800436,323876273,-1170763161,49674,15230,0.305,0.0953482,1.296,2.345,0.69,1.18,59,1,4.328,-0.05,4.328,-0.32900003,1.5769968,0,nan,0.0,4,1,16
97523564,1540574977000436,323876273,-1170763067,49692,15248,0.31100002,0.091621056,1.296,2.3470001,0.69,1.18,59,1,4.551,-0.002,4.551,-0.098000005,1.57392,0,nan,0.0,4,1,16
97722554,1540574977200436,323876271,-1170762965,49885,15441,0.316,0.08592814,1.296,2.3500001,0.69,1.18,59,1,4.953,-0.257,4.946,-0.20400001,1.6003145,0,nan,0.0,4,1,16
97926565,1540574977400436,323876269,-1170762862,49861,15417,0.323,0.091814265,1.2980001,2.352,0.69,1.18,59,1,4.801,-0.034,4.801,-0.19900002,1.589677,0,nan,0.0,4,1,16
98124501,1540574977600436,323876267,-1170762761,49892,15448,0.32000002,0.09291836,1.3000001,2.354,0.69,1.18,59,1,4.7910004,-0.058000002,4.7910004,-0.017,1.5863158,0,nan,0.0,4,1,16
98323536,1540574977800436,323876266,-1170762658,49839,15396,0.321,0.089773275,1.3010001,2.3560002,0.69,1.18,59,1,4.978,-0.066,4.978,0.25,1.5851351,0,nan,0.0,4,1,16
98524507,1540574978000436,323876266,-1170762553,49808,15365,0.35000002,0.08979003,1.304,2.358,0.69,1.18,59,1,4.829,-0.089,4.829,0.24400002,1.5872072,0,nan,0.0,4,1,16
98754508,1540574978200436,323876266,-1170762450,49738,15294,0.305,0.08670778,1.3050001,2.3590002,0.69,1.18,59,1,4.952,-0.031000001,4.952,0.42400002,1.5818373,0,nan,0.0,4,1,16
98927507,1540574978400436,323876267,-1170762346,49699,15255,0.31800002,0.087957606,1.3060001,2.3590002,0.69,1.18,59,1,4.821,-0.004,4.821,0.42100003,1.5766822,0,nan,0.0,4,1,16
99123499,1540574978600436,323876268,-1170762244,49648,15204,0.32900003,0.087876976,1.307,2.358,0.65999997,1.06,59,1,4.8050003,-0.058000002,4.8050003,0.64500004,1.5798601,0,nan,0.0,4,1,17
99324538,1540574978800436,323876271,-1170762140,49635,15192,0.32500002,0.092402264,1.3080001,2.3590002,0.69,1.18,59,4,4.9280005,0.26000002,4.921,0.52500004,1.5499827,0,nan,0.0,4,1,16
99525504,1540574979000436,323876276,-1170762037,49594,15150,0.31100002,0.093578614,1.3100001,2.3590002,0.69,1.18,59,4,4.8690004,0.13000001,4.867,0.42800003,1.5470479,0,nan,0.0,4,1,16
99723512,1540574979200436,323876277,-1170761933,49586,15143,0.30600002,0.09005357,1.3110001,2.3590002,0.65999997,1.06,59,4,5.059,-0.091000006,5.058,0.39800003,1.5690637,0,nan,0.0,4,1,17
99922553,1540574979400436,323876279,-1170761829,49541,15097,0.30900002,0.09369974,1.312,2.358,0.65999997,1.06,59,4,4.8650002,0.083000004,4.8640003,0.37600002,1.5615327,0,nan,0.0,4,1,17
100125576,1540574979600436,323876282,-1170761729,49468,15024,0.31800002,0.097165614,1.3130001,2.358,0.65999997,1.06,59,4,4.7330003,0.202,4.729,0.35200003,1.5451498,0,nan,0.0,4,1,17
100318584,1540574979800436,323876284,-1170761628,49435,14991,0.32900003,0.0983657,1.315,2.358,0.65999997,1.06,59,5,4.874,-0.071,4.873,0.44400004,1.5653002,0,nan,0.0,4,1,17
100523503,1540574980000436,323876285,-1170761523,49371,14928,0.31300002,0.0916413,1.317,2.357,0.65999997,1.06,59,5,5.076,0.09,5.0750003,0.279,1.5586427,0,nan,0.0,4,1,17
100723502,1540574980200436,323876287,-1170761417,49325,14881,0.30900002,0.09091455,1.3180001,2.3560002,0.65999997,1.06,59,5,4.9540005,0.106000006,4.953,0.263,1.5538917,0,nan,0.0,4,1,17
100922817,1540574980400436,323876287,-1170761313,49297,14853,0.317,0.0878967,1.319,2.352,0.65999997,1.06,59,5,4.927,0.002,4.927,0.53300005,1.562559,0,nan,0.0,4,1,17
101127500,1540574980600436,323876287,-1170761208,49256,14812,0.30600002,0.08696661,1.32,2.352,0.65999997,1.06,59,5,4.979,-0.022000002,4.978,0.43400002,1.5690476,0,nan,0.0,4,1,17
101318608,1540574980800436,323876286,-1170761101,49250,14806,0.30600002,0.080708034,1.32,2.3500001,0.65999997,1.06,59,1,5.076,-0.064,5.076,0.307,1.576878,0,nan,0.0,4,1,17
101518611,1540574981000435,323876286,-1170760995,49216,14772,0.29500002,0.081967115,1.32,2.3470001,0.65999997,1.06,59,1,4.925,0.023000002,4.925,0.31800002,1.5715014,0,nan,0.0,4,1,17
101719500,1540574981200435,323876286,-1170760890,49171,14728,0.294,0.08170828,1.32,2.345,0.65999997,1.06,59,1,4.9880004,-0.032,4.9880004,0.23600002,1.57439,0,nan,0.0,4,1,17
101918569,1540574981400435,323876289,-1170760785,49204,14760,0.29000002,0.08675263,1.319,2.3430002,0.65999997,1.06,59,1,4.8510003,0.021000002,4.8510003,0.115,1.5706123,0,nan,0.0,4,1,17
102122656,1540574981600435,323876290,-1170760680,49239,14795,0.30800003,0.08581539,1.32,2.342,0.65999997,1.06,59,1,5.0400004,0.098000005,5.039,0.032,1.5607473,0,nan,0.0,4,1,17
102322643,1540574981800435,323876294,-1170760573,49257,14814,0.321,0.09123935,1.3210001,2.341,0.65999997,1.06,59,1,5.006,0.096,5.005,0.08400001,1.5564135,0,nan,0.0,4,1,17
102528541,1540574982000435,323876297,-1170760467,49228,14784,0.31800002,0.09379713,1.3230001,2.341,0.65999997,1.06,59,1,4.9500003,0.098000005,4.9490004,-0.017,1.5537665,0,nan,0.0,4,1,17
102721599,1540574982200435,323876297,-1170760361,49180,14737,0.32900003,0.09159767,1.325,2.341,0.65999997,1.06,59,1,5.037,-0.125,5.0350003,0.21900001,1.5755088,0,nan,0.0,4,1,17
102911511,1540574982400435,323876297,-1170760255,49175,14732,0.316,0.08864946,1.3260001,2.341,0.65999997,1.06,59,1,5.0080004,-0.063,5.0080004,0.071,1.5796504,0,nan,0.0,4,1,17
103119502,1540574982600435,323876297,-1170760148,49207,14763,0.30200002,0.08377004,1.327,2.3390002,0.65999997,1.06,59,1,5.0730004,0.019000001,5.0730004,0.116000004,1.5728438,0,nan,0.0,4,1,17
103318558,1540574982800435,323876298,-1170760039,49216,14772,0.294,0.08009263,1.327,2.338,0.65999997,1.06,59,4,5.1400003,0.017,5.1400003,0.09,1.5699487,0,nan,0.0,4,1,17
103517841,1540574983000435,323876300,-1170759931,49277,14833,0.296,0.08479367,1.3280001,2.3370001,0.65999997,1.06,59,4,5.059,0.094000004,5.058,-0.09,1.5614007,0,nan,0.0,4,1,17
103719503,1540574983200435,323876301,-1170759823,49245,14802,0.323,0.0862231,1.3290001,2.338,0.65999997,1.06,59,4,5.137,-0.061000004,5.136,-0.046000004,1.5720704,0,nan,0.0,4,1,17
103918506,1540574983400435,323876303,-1170759714,49220,14776,0.317,0.08873428,1.33,2.341,0.65999997,1.06,59,4,5.0690002,0.062000003,5.0690002,0.079,1.5653752,0,nan,0.0,4,1,17
104122512,1540574983600435,323876307,-1170759604,49219,14776,0.33,0.08309512,1.3310001,2.3430002,0.65999997,1.06,59,4,5.2910004,0.12200001,5.2900004,-0.038000003,1.5558348,0,nan,0.0,4,1,17
104327542,1540574983800435,323876309,-1170759491,49276,14832,0.323,0.080357924,1.332,2.3430002,0.65999997,1.06,59,1,5.2980003,-0.0050000004,5.2980003,0.08400001,1.5642052,0,nan,0.0,4,1,17
104522669,1540574984000435,323876312,-1170759380,49329,14885,0.317,0.08220814,1.3330001,2.3430002,0.65999997,1.06,59,1,5.1530004,0.064,5.1520004,0.043,1.5612622,0,nan,0.0,4,1,17
104723535,1540574984200435,323876312,-1170759271,49317,14874,0.31100002,0.08407268,1.3330001,2.3430002,0.65999997,1.06,59,1,5.118,-0.018000001,5.117,-0.135,1.5678012,0,nan,0.0,4,1,17
104920505,1540574984400435,323876313,-1170759162,49371,14927,0.31100002,0.08302007,1.3340001,2.341,0.65999997,1.06,59,1,5.1130004,0.128,5.1120005,-0.115,1.5564533,0,nan,0.0,4,1,17
105115520,1540574984600435,323876315,-1170759055,49397,14954,0.307,0.082636446,1.3340001,2.341,0.65999997,1.06,59,1,5.0610003,0.019000001,5.0610003,-0.18,1.5618334,0,nan,0.0,4,1,17
105319542,1540574984800435,323876317,-1170758946,49491,15048,0.30400002,0.080250755,1.335,2.341,0.65999997,1.06,59,1,5.1780005,-0.018000001,5.1780005,-0.071,1.5683537,0,nan,0.0,4,1,17
105513632,1540574985000435,323876317,-1170758836,49487,15043,0.30600002,0.088495694,1.335,2.3390002,0.65999997,1.06,59,1,5.1740003,-0.057000004,5.1740003,-0.065000005,1.5745481,0,nan,0.0,4,1,17
105719532,1540574985200435,323876315,-1170758727,49552,15109,0.305,0.08703974,1.337,2.338,0.65999997,1.06,59,1,5.182,-0.17,5.1790004,-0.032,1.5895704,0,nan,0.0,4,1,17
105916518,1540574985400435,323876314,-1170758617,49645,15202,0.298,0.08478285,1.337,2.3360002,0.65999997,1.06,59,1,5.1320004,-0.11400001,5.131,-0.074,1.5913297,0,nan,0.0,4,1,17
106117510,1540574985600435,323876314,-1170758509,49734,15291,0.30200002,0.085591815,1.338,2.334,0.65999997,1.06,59,1,5.0410004,0.057000004,5.0400004,-0.095000006,1.5752611,0,nan,0.0,4,1,17
106321592,1540574985800435,323876316,-1170758400,49748,15305,0.30200002,0.080269955,1.338,2.332,0.65999997,1.06,59,3,5.1670003,0.093,5.1660004,-0.063,1.5630983,0,nan,0.0,4,1,17
106522648,1540574986000435,323876318,-1170758290,49819,15376,0.284,0.07580244,1.338,2.329,0.65999997,1.06,59,3,5.1540003,0.057000004,5.1540003,-0.106000006,1.5613036,0,nan,0.0,4,1,17
106721592,1540574986200435,323876323,-1170758180,50052,15609,0.277,0.068946786,1.3340001,2.3160002,0.65999997,1.06,59,3,5.142,0.05,5.142,-0.15200001,1.5611442,0,nan,0.0,4,1,17
106922500,1540574986400435,323876326,-1170758069,50091,15648,0.27400002,0.067850545,1.3290001,2.3000002,0.65999997,1.06,59,3,5.1450005,-0.10300001,5.144,-0.083000004,1.5766858,0,nan,0.0,4,1,17
107121028,1540574986600435,323876326,-1170757960,50089,15646,0.28,0.07651715,1.327,2.2970002,0.65999997,1.06,59,3,5.0730004,-0.021000002,5.0730004,-0.083000004,1.5758762,0,nan,0.0,4,1,17
107321111,1540574986800435,323876327,-1170757850,50050,15607,0.286,0.076169826,1.327,2.295,0.65999997,1.06,59,4,5.227,0.09,5.2260003,0.08400001,1.5644428,0,nan,0.0,4,1,17
107525504,1540574987000435,323876326,-1170757738,50016,15573,0.303,0.077089615,1.3260001,2.295,0.65999997,1.06,59,4,5.287,-0.134,5.2850003,0.076000005,1.5804708,0,nan,0.0,4,1,17
107725504,1540574987200435,323876325,-1170757628,49959,15516,0.31100002,0.079004765,1.3260001,2.2940001,0.65999997,1.06,59,4,5.123,0.11000001,5.122,0.108,1.5648997,0,nan,0.0,4,1,17
107923504,1540574987400435,323876325,-1170757521,49939,15496,0.31,0.08707674,1.327,2.2940001,0.65999997,1.06,59,4,4.9700003,-0.102000006,4.9690003,-0.007,1.5770884,0,nan,0.0,4,1,17
108115503,1540574987600435,323876324,-1170757414,49950,15507,0.30100003,0.08735494,1.3280001,2.295,0.65999997,1.06,59,4,5.07,0.058000002,5.0690002,-0.024,1.5680892,0,nan,0.0,4,1,17
108323511,1540574987800435,323876323,-1170757306,49994,15551,0.28300002,0.082944326,1.3280001,2.2940001,0.65999997,1.06,59,3,5.0470004,0.012,5.0470004,-0.049000002,1.568313,0,nan,0.0,4,1,17
108530685,1540574988000434,323876323,-1170757198,50021,15578,0.296,0.08213013,1.3280001,2.2930002,0.65999997,1.06,59,3,5.1250005,0.052,5.1250005,-0.047000002,1.5643437,0,nan,0.0,4,1,17
108723501,1540574988200434,323876321,-1170757090,50007,15564,0.33100003,0.092639975,1.33,2.2940001,0.65999997,1.06,59,3,5.0030003,-0.16700001,5.0010004,0.015000001,1.5822816,0,nan,0.0,4,1,17
108922678,1540574988400434,323876319,-1170756981,50007,15564,0.34100002,0.09148422,1.3340001,2.295,0.65999997,1.06,59,3,5.092,-0.052,5.092,0.030000001,1.5816025,0,nan,0.0,4,1,17
109123501,1540574988600434,323876317,-1170756873,49992,15549,0.30900002,0.08265809,1.335,2.296,0.65999997,1.06,59,3,5.0290003,-0.07,5.0280004,0.098000005,1.58334,0,nan,0.0,4,1,17
109323500,1540574988800434,323876310,-1170756764,50002,15559,0.26900002,0.07194334,1.3310001,2.2900002,0.65999997,1.06,55,2,5.1720004,-0.065000005,5.1710005,0.307,1.5833824,0,nan,0.0,4,1,17
109523512,1540574989000434,323876305,-1170756647,49884,15441,0.192,0.045713488,1.3080001,2.256,0.65999997,1.06,55,2,4.992,-0.016,4.992,0.023000002,1.5765337,0,nan,0.0,4,1,17
109723633,1540574989200434,323876304,-1170756538,49833,15390,0.259,0.06585109,1.3000001,2.2470002,0.65999997,1.06,55,2,5.0290003,0.011000001,5.0290003,-0.035,1.5737696,0,nan,0.0,4,1,17
109921515,1540574989400434,323876307,-1170756429,49818,15375,0.264,0.071317114,1.2950001,2.242,0.65999997,1.06,55,2,5.1410003,-0.101,5.1400003,0.134,1.5817338,0,nan,0.0,4,1,17
110121593,1540574989600434,323876309,-1170756321,49827,15384,0.277,0.082359985,1.2930001,2.24,0.65999997,1.06,55,2,5.0070004,0.064,5.006,-0.021000002,1.571246,0,nan,0.0,4,1,17
110322588,1540574989800434,323876313,-1170756213,49812,15369,0.282,0.0766477,1.291,2.2380002,0.65999997,1.06,55,1,5.09,0.19100001,5.0870004,0.14,1.550554,0,nan,0.0,4,1,17
110526587,1540574990000434,323876318,-1170756100,49685,15242,0.20400001,0.048585076,1.274,2.197,0.65999997,1.06,55,1,5.064,0.17,5.0620003,0.063,1.5409312,0,nan,0.0,4,1,17
110718572,1540574990200434,323876320,-1170755993,49645,15202,0.19600001,0.04600164,1.2540001,2.164,0.65999997,1.06,55,1,5.089,0.106000006,5.0880003,-0.014,1.5459515,0,nan,0.0,4,1,17
110926514,1540574990400434,323876315,-1170755886,49622,15179,0.21100001,0.045784872,1.2370001,2.1420002,0.65999997,1.06,55,1,5.13,0.20700002,5.1250005,-0.027,1.5377064,0,nan,0.0,4,1,17
111124501,1540574990600434,323876317,-1170755784,49733,15290,0.209,0.053009313,1.223,2.1220002,0.65999997,1.06,55,1,5.025,0.081,5.025,-0.124000005,1.5455157,0,nan,0.0,4,1,17
111329504,1540574990800434,323876315,-1170755680,49685,15242,0.22200002,0.06080692,1.215,2.102,0.65999997,1.06,63,2,5.0810003,0.07700001,5.0810003,-0.036000002,1.5501286,0,nan,0.0,4,1,17
111524526,1540574991000434,323876314,-1170755573,49742,15299,0.238,0.06310691,1.21,2.095,0.65999997,1.06,63,2,5.138,0.011000001,5.138,-0.104,1.5593714,0,nan,0.0,4,1,17
111723502,1540574991200434,323876313,-1170755466,49722,15279,0.268,0.065640606,1.2060001,2.0930002,0.65999997,1.06,63,2,5.124,0.13700001,5.122,-0.05,1.5517671,0,nan,0.0,4,1,17
111923499,1540574991400434,323876312,-1170755360,49707,15264,0.24900001,0.06155741,1.2010001,2.085,0.65999997,1.06,63,2,5.0820003,0.0050000004,5.0820003,-0.074,1.5616051,0,nan,0.0,4,1,17
112126804,1540574991600434,323876313,-1170755255,49711,15268,0.24700001,0.05980667,1.1960001,2.079,0.65999997,1.06,63,2,5.0150003,0.20700002,5.011,-0.022000002,1.544533,0,nan,0.0,4,1,17
112321575,1540574991800434,323876314,-1170755149,49717,15274,0.25500003,0.07239782,1.1930001,2.075,0.65999997,1.06,63,1,5.005,0.16600001,5.0020003,-0.060000002,1.5415791,0,nan,0.0,4,1,17
112523509,1540574992000434,323876314,-1170755041,49654,15211,0.23600002,0.0729764,1.1880001,2.069,0.65999997,1.06,63,1,4.9870005,0.046000004,4.9870005,0.09900001,1.5517086,0,nan,0.0,4,1,17
112721600,1540574992200434,323876313,-1170754933,49563,15120,0.256,0.070236236,1.1850001,2.0640001,0.65999997,1.06,63,1,5.056,-0.018000001,5.056,0.19800001,1.5637946,0,nan,0.0,4,1,17
112923503,1540574992400434,323876317,-1170754825,49570,15127,0.26000002,0.06495085,1.182,2.061,0.65999997,1.06,63,1,5.1740003,0.19800001,5.17,0.209,1.5464724,0,nan,0.0,4,1,17
113122504,1540574992600434,323876317,-1170754715,49480,15037,0.23,0.06642635,1.176,2.055,0.65999997,1.06,63,1,5.006,-0.063,5.005,0.24900001,1.5650678,0,nan,0.0,4,1,17
113321584,1540574992800434,323876315,-1170754608,49445,15003,0.238,0.061991125,1.171,2.0500002,0.65999997,1.06,63,2,5.0220003,0.007,5.0220003,0.17500001,1.567421,0,nan,0.0,4,1,17
113527505,1540574993000434,323876315,-1170754499,49510,15068,0.36800003,0.085309416,1.174,2.0540001,0.65999997,1.06,63,2,5.1990004,-0.143,5.197,0.15,1.5785981,0,nan,0.0,4,1,17
113727538,1540574993200434,323876314,-1170754394,49475,15032,0.38300002,0.09958307,1.1800001,2.0600002,0.65999997,1.06,63,2,4.756,0.060000002,4.756,0.035,1.5697936,0,nan,0.0,4,1,17
113922518,1540574993400434,323876318,-1170754290,49560,15118,0.39200002,0.10035573,1.187,2.0670002,0.65999997,1.06,63,2,5.097,0.23700002,5.091,0.059000004,1.5469025,0,nan,0.0,4,1,17
114122616,1540574993600434,323876321,-1170754184,49543,15100,0.37500003,0.104096666,1.195,2.075,0.65999997,1.06,63,2,4.926,0.056,4.926,0.21200001,1.5530089,0,nan,0.0,4,1,17
114324526,1540574993800434,323876322,-1170754082,49555,15112,0.37100002,0.10606453,1.2030001,2.0830002,0.65999997,1.06,67,13,4.789,-0.085,4.788,0.087000005,1.5706432,0,nan,0.0,4,1,17
114532526,1540574994000434,323876326,-1170753982,49525,15082,0.41500002,0.11807623,1.2110001,2.092,0.65999997,1.06,67,13,4.617,0.418,4.598,0.078,1.5297328,0,nan,0.0,4,1,17
114723529,1540574994200434,323876330,-1170753890,49508,15066,0.40500003,0.13123426,1.2210001,2.102,0.65999997,1.06,67,13,4.144,0.091000006,4.143,0.16000001,1.5383995,0,nan,0.0,4,1,17
114924504,1540574994400434,323876330,-1170753807,49488,15045,0.29900002,0.10887607,1.2260001,2.1090002,0.65999997,1.06,67,13,3.834,0.016,3.834,0.171,1.5551319,0,nan,0.0,4,1,17
115120510,1540574994600434,323876332,-1170753730,49517,15074,0.44500002,0.15439513,1.2320001,2.1190002,0.65999997,1.06,67,13,3.5010002,0.186,3.496,0.001,1.5425661,0,nan,0.0,4,1,17
115320512,1540574994800434,323876333,-1170753661,49521,15078,0.25,0.12599269,1.235,2.121,0.65999997,1.06,62,2,3.0370002,0.08400001,3.0360003,0.034,1.5428418,0,nan,0.0,4,1,17
115524314,1540574995000433,323876336,-1170753606,49529,15086,0.264,0.15428832,1.233,2.1230001,0.65999997,1.06,62,2,2.3360002,0.07700001,2.335,-0.155,1.5408841,0,nan,0.0,4,1,17
115720505,1540574995200433,323876338,-1170753562,49557,15114,0.33600003,0.21875729,1.2340001,2.1330001,0.65999997,1.06,62,2,1.9240001,0.257,1.9060001,-0.134,1.5062484,0,nan,0.0,4,1,17
115915510,1540574995400433,323876347,-1170753526,49739,15296,0.305,0.21220358,1.2320001,2.1320002,0.65999997,1.06,62,2,1.526,0.588,1.4080001,-0.256,1.3354796,0,nan,0.0,4,1,17
116121502,1540574995600433,323876356,-1170753500,49857,15415,0.31500003,0.34063518,1.2320001,2.135,0.65999997,1.06,62,2,1.1,0.404,1.023,-0.425,1.2960193,0,nan,0.0,4,1,17
116319538,1540574995800433,323876367,-1170753481,50041,15599,0.31800002,0.29175794,1.23,2.138,0.65999997,1.06,62,1,1.0890001,0.753,0.78800005,-0.462,1.0144248,0,nan,0.0,4,1,17
116521517,1540574996000433,323876381,-1170753467,50276,15833,0.365,0.40023732,1.228,2.1430001,0.65999997,1.06,62,1,0.90300006,0.69000006,0.582,-0.74,0.90537727,0,nan,0.0,4,1,17
116723503,1540574996200433,323876394,-1170753456,50441,15998,0.402,0.5311056,1.2290001,2.15,0.65999997,1.06,62,1,0.75500005,0.6,0.45700002,-0.48800004,0.8132312,0,nan,0.0,4,1,17
116918612,1540574996400433,323876408,-1170753450,50555,16112,0.462,0.40956417,1.2320001,2.161,0.65999997,1.06,62,1,0.90800005,0.906,0.057000004,-0.44200003,0.34231734,0,nan,0.0,4,1,17
117120531,1540574996600433,323876426,-1170753448,50715,16273,0.46,0.37987596,1.2360001,2.1720002,0.65999997,1.06,62,1,1.031,1.024,0.125,-0.56,0.22359185,0,nan,0.0,4,1,17
117323530,1540574996800433,323876446,-1170753446,50837,16395,0.41200003,0.3022212,1.2390001,2.1820002,0.65999997,1.06,62,6,1.2210001,1.2210001,0.023000002,-0.47000003,0.098261856,0,nan,0.0,4,1,17
117522537,1540574997000433,323876468,-1170753444,50819,16376,0.37500003,0.24114671,1.241,2.193,0.71,1.11,62,6,1.6,1.5990001,0.047000002,-0.28100002,0.05597131,0,nan,0.0,4,1,16
117723501,1540574997200433,323876501,-1170753444,50934,16491,0.395,0.1828454,1.243,2.203,0.65999997,1.06,62,6,1.9990001,1.9990001,-0.041,-0.19000001,0.0075181797,0,nan,0.0,4,1,17
117923511,1540574997400433,323876546,-1170753444,50989,16547,0.41000003,0.14158511,1.246,2.213,0.65999997,1.06,62,6,2.8530002,2.8530002,0.038000003,-0.09900001,0.011160856,0,nan,0.0,4,1,17
118123564,1540574997600433,323876607,-1170753444,51088,16646,0.437,0.111450784,1.25,2.223,0.65999997,1.06,62,6,3.7150002,3.7150002,-0.030000001,-0.078,6.2824597,0,nan,0.0,4,1,17
118319211,1540574997800433,323876677,-1170753442,51135,16693,0.372,0.101410255,1.2520001,2.2310002,0.65999997,1.06,62,4,4.136,4.1340003,0.135,-0.208,0.017643707,0,nan,0.0,4,1,17
