timestamp,states[0],states[1],states[2],states[3],states[4],states[5],states[6],states[7],states[8],states[9],states[10],states[11],states[12],states[13],states[14],states[15],states[16],states[17],states[18],states[19],states[20],states[21],states[22],states[23],vibe[0],vibe[1],vibe[2],covariances[0],covariances[1],covariances[2],covariances[3],covariances[4],covariances[5],covariances[6],covariances[7],covariances[8],covariances[9],covariances[10],covariances[11],covariances[12],covariances[13],covariances[14],covariances[15],covariances[16],covariances[17],covariances[18],covariances[19],covariances[20],covariances[21],covariances[22],covariances[23],control_mode_flags,pos_horiz_accuracy,pos_vert_accuracy,mag_test_ratio,vel_test_ratio,pos_test_ratio,hgt_test_ratio,tas_test_ratio,hagl_test_ratio,beta_test_ratio,time_slip,gps_check_fail_flags,filter_fault_flags,innovation_check_flags,solution_status_flags,n_states,pre_flt_fail,health_flags,timeout_flags
665269918,-0.848284,0.024496052,0.010970664,0.52886105,0.027455244,-0.024050606,-0.009643475,5.0797234,-4.227595,0.8662093,-2.6226742e-05,4.5747845e-05,4.562569e-06,-0.00042471508,0.00022787663,-0.00068377785,0.23858914,0.046439886,0.37384987,0.0014867022,-0.009161477,0.0016367057,0.0,0.0,1.2473454e-10,6.111421e-06,0.00035632253,9.596272e-06,5.9371328e-06,5.926446e-06,2.4653433e-05,0.011548024,0.011551314,0.010751166,0.04563317,0.045635402,0.056430772,1.0888921e-11,1.08774595e-11,1.7776662e-11,5.000007e-08,5.000007e-08,5.000007e-08,0.0,0.0,0.0,0.0,0.0,0.0,0.0,0.0,535,0.3021069,0.23755161,0.0135288285,0.01887463,0.006437215,0.002862349,0.0,0.0,0.0,-0.002168,0,0,0,831,24,0,0,0
665469905,-0.84828144,0.02452978,0.010970501,0.5288634,0.026350869,-0.023942888,-0.005720908,5.0808477,-4.2295656,0.8761567,-2.6216556e-05,4.5723835e-05,4.562862e-06,-0.00042505216,0.0002277529,-0.0006881675,0.23858914,0.046439886,0.37384987,0.0014867022,-0.009161477,0.0016367057,0.0,0.0,6.287614e-09,5.1774972e-05,0.0011948262,9.601265e-06,5.926166e-06,5.9159024e-06,2.4666022e-05,0.011538426,0.01154169,0.010733239,0.045577776,0.045579985,0.056165807,1.0874392e-11,1.0863219e-11,1.7778747e-11,5.000007e-08,5.000007e-08,5e-08,0.0,0.0,0.0,0.0,0.0,0.0,0.0,0.0,663,0.30192345,0.23699327,0.095663115,0.011730137,0.0076867393,0.008921075,0.0,0.0,0.0,-0.002181,0,0,0,831,24,0,0,0
665677911,-0.84828496,0.024581768,0.011004056,0.52885467,0.025818095,-0.028468374,-0.00452325,5.0815277,-4.2330422,0.87869006,-2.6193133e-05,4.570238e-05,4.6919135e-06,-0.00042501296,0.00022743073,-0.0006892345,0.23858914,0.046439886,0.37384987,0.0014867022,-0.009161477,0.0016367057,0.0,0.0,1.8664487e-08,0.00013926676,0.002742495,9.588166e-06,5.923136e-06,5.9132385e-06,2.4663657e-05,0.01158591,0.011589161,0.010832772,0.045819707,0.04582193,0.056948286,1.0864487e-11,1.0853628e-11,1.7773717e-11,5.0000043e-08,5.00001e-08,5.000007e-08,0.0,0.0,0.0,0.0,0.0,0.0,0.0,0.0,663,0.3027237,0.2386384,0.056317892,0.011656506,0.008030087,0.0082803685,0.0,0.0,0.0,-0.002174,0,0,0,831,24,0,0,0
665877904,-0.8478869,0.024509834,0.011060802,0.52949464,0.026882632,-0.032319054,0.00016643696,5.0819798,-4.237271,0.87664336,-2.617261e-05,4.5682278e-05,4.8031125e-06,-0.0004250006,0.00022715077,-0.0006873345,0.23858914,0.046439886,0.37384987,0.0014867022,-0.009161477,0.0016367057,0.0,0.0,2.8355112e-08,0.0002494096,0.005993951,9.623209e-06,5.912917e-06,5.903186e-06,2.4697432e-05,0.0115750935,0.011578315,0.010806369,0.04579776,0.04579998,0.05664875,1.0850919e-11,1.0840322e-11,1.7786718e-11,5.000007e-08,5.00001e-08,5.000007e-08,0.0,0.0,0.0,0.0,0.0,0.0,0.0,0.0,663,0.3026512,0.23800997,0.054148983,0.024158303,0.008093215,0.00043939383,0.0,0.0,0.0,-0.002183,0,0,0,831,24,0,0,0
666077899,-0.84746164,0.02459766,0.010562679,0.53018135,0.020851608,-0.027813904,-0.025087608,5.0864944,-4.23986,0.85279894,-2.6179041e-05,4.566224e-05,5.0050817e-06,-0.00042473868,0.00022720362,-0.00067871466,0.23858914,0.046439886,0.37384987,0.0014867022,-0.009161477,0.0016367057,0.0,0.0,9.0557745e-07,0.00049604475,0.011432469,9.639419e-06,5.902505e-06,5.893844e-06,2.4697749e-05,0.01158117,0.011584351,0.0107812565,0.045797583,0.045799803,0.056364343,1.08378246e-11,1.0827508e-11,1.7788456e-11,5.0000047e-08,5.00001e-08,5.0000036e-08,0.0,0.0,0.0,0.0,0.0,0.0,0.0,0.0,663,0.3026506,0.23741175,0.13199848,0.013487455,0.0082014715,0.05198851,0.0,0.0,0.0,-0.002187,0,0,0,831,24,0,0,0
666283528,-0.8356289,0.012404441,-0.07806052,0.5435779,-0.21707043,0.09890056,-0.8286057,5.066719,-4.2220592,0.7671266,-2.6198682e-05,4.5566816e-05,5.1993343e-06,-0.00042574128,0.00022748952,-0.0006805452,0.23858914,0.046439886,0.37384987,0.0014867022,-0.009161477,0.0016367057,0.0,0.0,1.8393075e-06,0.0008288589,0.021558713,1.016145e-05,6.0324764e-06,5.839778e-06,2.4125346e-05,0.012133566,0.012139331,0.010795722,0.046086222,0.04608845,0.056402367,1.082388e-11,1.0813509e-11,1.779391e-11,5.000007e-08,5.0000136e-08,5.000007e-08,0.0,0.0,0.0,0.0,0.0,0.0,0.0,0.0,663,0.3036028,0.23749183,0.060989995,0.06339261,0.008561517,0.05222812,0.0,0.0,0.0,-0.002165,0,0,0,831,24,0,0,0
666483532,-0.82423156,-0.0058362754,-0.0010666081,0.56622183,-0.5117806,0.4444078,-2.2715166,4.9855967,-4.169983,0.4797163,-2.6142843e-05,4.5588942e-05,5.475221e-06,-0.0004244049,0.0002264131,-0.0006859417,0.23858914,0.046439886,0.37384987,0.0014867022,-0.009161477,0.0016367057,0.0,0.0,2.3713005e-06,0.0011125312,0.026797848,1.0967605e-05,5.8455867e-06,5.8335645e-06,2.3443981e-05,0.0130615365,0.013066994,0.010778529,0.04611999,0.046121992,0.056107316,1.07948876e-11,1.0783577e-11,1.7791622e-11,5.0000114e-08,5.0000136e-08,5.000007e-08,0.0,0.0,0.0,0.0,0.0,0.0,0.0,0.0,663,0.30371365,0.23686983,0.09225487,0.030948125,0.0075510554,0.0031668814,0.0,0.0,0.0,-0.002154,0,0,0,831,24,0,0,0
666691508,-0.81470585,0.008344165,0.048771348,0.5777596,-0.4703933,0.56841356,-2.7231603,4.8736815,-4.055237,0.015979275,-2.6088994e-05,4.5542783e-05,5.707206e-06,-0.00042508938,0.00022546387,-0.00071134034,0.23858914,0.046439886,0.37384987,0.0014867022,-0.009161477,0.0016367057,0.0,0.0,1.8010915e-06,0.0011631907,0.026597153,1.1411056e-05,5.8943883e-06,5.7732636e-06,2.2900893e-05,0.013342014,0.013327106,0.010719498,0.04662241,0.046624146,0.055446405,1.0768269e-11,1.0755653e-11,1.7783124e-11,5.000017e-08,5.000017e-08,5e-08,0.0,0.0,0.0,0.0,0.0,0.0,0.0,0.0,663,0.305363,0.23547061,0.07209515,0.034837488,0.009606698,0.036558833,0.0,0.0,0.0,-0.002178,0,0,0,831,24,0,0,0
666891514,-0.80527633,0.01453292,0.05559101,0.59010893,-0.41464424,0.5566064,-2.7236102,4.783523,-3.9338615,-0.49198988,-2.6095968e-05,4.5489833e-05,5.9350227e-06,-0.0004258679,0.0002258425,-0.0007266331,0.23858914,0.046439886,0.37384987,0.0014867022,-0.009161477,0.0016367057,0.0,0.0,1.3567249e-06,0.0011558423,0.026428873,1.1896681e-05,5.8629334e-06,5.7156303e-06,2.2398579e-05,0.013158878,0.0131431725,0.010706693,0.0467241,0.04672511,0.055296205,1.073583e-11,1.0722051e-11,1.7782276e-11,5.0000068e-08,5.0000068e-08,5e-08,0.0,0.0,0.0,0.0,0.0,0.0,0.0,0.0,663,0.30569464,0.23515145,0.057400513,0.030561956,0.006500093,0.020392086,0.0,0.0,0.0,-0.00217,0,0,0,831,24,0,0,0
667092282,-0.7975344,0.012059735,0.052471388,0.6008663,-0.35268253,0.5392831,-2.7294202,4.703944,-3.8210769,-0.9953448,-2.6089723e-05,4.54689e-05,5.9806553e-06,-0.0004262579,0.00022580633,-0.00074126304,0.23438682,0.046084568,0.3912152,-0.007085457,-0.0026121128,-0.0013727704,0.0,0.0,9.974923e-07,0.0011407731,0.027389336,1.2461733e-05,5.808532e-06,5.6703957e-06,2.2213295e-05,0.0130272135,0.013011079,0.01078409,0.046923764,0.04692342,0.05593353,1.07107075e-11,1.069568e-11,1.7859056e-11,5e-08,5.0000153e-08,5.000007e-08,0.0013146062,0.00082401367,0.0013335134,0.00093901384,0.0013297746,0.0013297916,0.0,0.0,743,0.30634487,0.2365027,0.029560955,0.018217355,0.008729036,0.0006144491,0.0,0.0,0.0,-0.002204,0,0,0,831,24,0,0,0
667300340,-0.79212934,0.01445999,0.05362348,0.60782117,-0.29762867,0.5161392,-2.7404666,4.6216354,-3.7302449,-1.5527978,-2.594353e-05,4.5550387e-05,5.9650342e-06,-0.00042526703,0.00022244162,-0.0007443416,0.23433173,0.046015833,0.38999972,-0.00734494,-0.0028338337,-0.002522119,0.0,0.0,8.03566e-07,0.0011319432,0.025292484,1.2939573e-05,5.7808593e-06,5.6372483e-06,2.2231683e-05,0.012968583,0.0129524795,0.01073128,0.047439087,0.047437098,0.05537061,1.06947125e-11,1.0678581e-11,1.7964387e-11,5.0000036e-08,5.0000217e-08,5.0000036e-08,0.001259534,0.000553645,0.0012880457,0.0006287095,0.001282217,0.001281759,0.0,0.0,743,0.3080198,0.2353096,0.06656985,0.096654005,0.011951996,0.0071315593,0.0,0.0,0.0,-0.002147,0,0,0,831,24,0,0,0
667500290,-0.7858586,0.017283088,0.051786825,0.6159919,-0.26370835,0.5036471,-2.7057023,4.555863,-3.6293046,-2.0683239,-2.5903451e-05,4.5529527e-05,5.9599874e-06,-0.00042587728,0.00022182646,-0.0007528301,0.23425724,0.04619704,0.39016145,-0.00798933,-0.0032358696,-0.0022791384,0.0,0.0,7.0567296e-07,0.0011080797,0.024702273,1.34761885e-05,5.734836e-06,5.6000476e-06,2.2188078e-05,0.012805335,0.012791499,0.010727793,0.047553923,0.047550555,0.055281267,1.0673833e-11,1.0656784e-11,1.8064392e-11,5.0000065e-08,5.0000192e-08,5.0000036e-08,0.0012389027,0.00042555956,0.0012745964,0.00047793053,0.0012664027,0.0012667326,0.0,0.0,743,0.30839014,0.23511969,0.039957516,0.041589085,0.01234495,0.004121008,0.0,0.0,0.0,-0.002196,0,0,0,831,24,0,0,0
667708314,-0.77808654,0.018862931,0.051988512,0.6257178,-0.25364825,0.49668348,-2.729329,4.490984,-3.5225878,-2.593057,-2.5855667e-05,4.5480698e-05,5.9529034e-06,-0.0004271717,0.00022130583,-0.0007658914,0.23459657,0.04613995,0.3901296,-0.007886538,-0.0028953615,-0.002208853,0.0,0.0,6.0752626e-07,0.0011384035,0.026146207,1.4108779e-05,5.7048014e-06,5.5693677e-06,2.207024e-05,0.012739102,0.012727793,0.01068084,0.04790933,0.047904722,0.05475623,1.06583405e-11,1.0640513e-11,1.8168867e-11,5.0000068e-08,5.000018e-08,5e-08,0.0012215063,0.00034247854,0.001267514,0.0003790664,0.0012527597,0.0012585003,0.0,0.0,743,0.30953845,0.23400049,0.061611474,0.049731232,0.009952153,0.042383436,0.0,0.0,0.0,-0.002173,0,0,0,831,24,0,0,0
667908305,-0.7726734,0.019507421,0.05398307,0.63220346,-0.23789711,0.49008152,-2.7114522,4.435355,-3.4227788,-3.1219602,-2.5830923e-05,4.545909e-05,5.9496865e-06,-0.00042770006,0.00022107508,-0.0007700337,0.23530765,0.04639086,0.39039752,-0.0085704615,-0.0035924194,-0.0017080099,0.0,0.0,5.15006e-07,0.0011173637,0.025667034,1.4605116e-05,5.6798717e-06,5.5352543e-06,2.2070284e-05,0.01260309,0.012594042,0.0106808795,0.047982544,0.047977105,0.054704323,1.064242e-11,1.0623938e-11,1.8269584e-11,5.0000104e-08,5.00002e-08,5e-08,0.0012051027,0.0002935305,0.0012638228,0.00032066173,0.0012388044,0.001253852,0.0,0.0,743,0.30977353,0.23388955,0.03962471,0.04305236,0.012337794,0.040964156,0.0,0.0,0.0,-0.002184,0,0,0,831,24,0,0,0
668108302,-0.7682461,0.022052485,0.054581974,0.6374421,-0.22120526,0.47951233,-2.6965806,4.383017,-3.3310273,-3.640748,-2.5788038e-05,4.548177e-05,5.947028e-06,-0.0004276444,0.00022010962,-0.00077501393,0.23584858,0.046545874,0.39043313,-0.00897407,-0.0040853815,-0.0014631705,0.0,0.0,6.171843e-07,0.0010927832,0.024679514,1.5056913e-05,5.6506033e-06,5.5062433e-06,2.2123759e-05,0.012467712,0.012460836,0.010681774,0.047989126,0.04798312,0.05466961,1.0627822e-11,1.0608753e-11,1.8370468e-11,5.0000086e-08,5.0000146e-08,5e-08,0.0011885122,0.00025827804,0.0012612037,0.00027875957,0.0012239624,0.0012503336,0.0,0.0,743,0.3097939,0.23381534,0.055070188,0.059201367,0.01243947,0.055288047,0.0,0.0,0.0,-0.002184,0,0,0,831,24,0,0,0
668313918,-0.7681986,0.029369213,0.0959384,0.6323008,-0.17099243,0.41769084,-2.673913,4.342485,-3.2237349,-4.136812,-2.5840654e-05,4.5427896e-05,5.9475456e-06,-0.00042795824,0.00022150826,-0.00079301506,0.23666327,0.046657532,0.3904229,-0.009414899,-0.004976754,-0.0016869775,0.0,0.0,1.4212198e-06,0.0011065449,0.025974164,1.5059316e-05,5.85598e-06,5.4643815e-06,2.246154e-05,0.0123940855,0.012391912,0.010802297,0.048218917,0.04821261,0.055601567,1.0619215e-11,1.0599717e-11,1.8474165e-11,5.000016e-08,5.000021e-08,5.0000075e-08,0.0011719657,0.00023175018,0.0012537219,0.00024758797,0.0012090009,0.0012414717,0.0,0.0,743,0.31053427,0.23579985,0.1046299,0.054337557,0.0077848956,0.105058946,0.0,0.0,0.0,-0.002168,0,0,0,831,24,0,0,0
668513906,-0.78284955,0.04852779,0.13071908,0.6063863,0.0005959556,0.19568397,-2.7044706,4.3209615,-3.1543274,-4.6291766,-2.5849025e-05,4.5393557e-05,5.9448175e-06,-0.00042845242,0.00022200054,-0.0008077442,0.24029283,0.04599245,0.39421254,-0.010777632,-0.008315068,-0.007119384,0.0,0.0,1.5782708e-06,0.0012277997,0.028644009,1.4092601e-05,6.099925e-06,5.448594e-06,2.3675355e-05,0.012331831,0.0123362625,0.010766481,0.04825344,0.048247732,0.055475306,1.060969e-11,1.0590283e-11,1.8575747e-11,5.0000132e-08,5.0000157e-08,5e-08,0.0011553764,0.00021124718,0.0011512917,0.00022382425,0.0011945231,0.0011362316,0.0,0.0,743,0.31064638,0.23553196,0.16129042,0.06339347,0.0067059705,0.053717513,0.0,0.0,0.0,-0.00218,0,0,0,831,24,0,0,0
668713894,-0.80266714,0.045121975,0.11006989,0.58444345,0.17286111,-0.055456314,-2.7754822,4.341012,-3.1395953,-5.141585,-2.5880781e-05,4.539038e-05,5.9418226e-06,-0.00042796347,0.00022255251,-0.0008154248,0.24420059,0.045739178,0.39732757,-0.011768151,-0.011988298,-0.011783551,0.0,0.0,1.518924e-06,0.0012713164,0.029189812,1.3249184e-05,5.9007634e-06,5.4478724e-06,2.5199044e-05,0.012317825,0.012318038,0.010821988,0.048338853,0.048335023,0.05611849,1.0601409e-11,1.0582842e-11,1.8677008e-11,5.0000178e-08,5.0000175e-08,5.0000075e-08,0.0011370884,0.00019607591,0.0010928469,0.00020816705,0.0011737297,0.0010780457,0.0,0.0,743,0.31092423,0.23689342,0.11091644,0.08517089,0.004174617,0.029271284,0.0,0.0,0.0,-0.002192,0,0,0,831,24,0,0,0
668921932,-0.8181447,0.041689057,0.090133175,0.5663723,0.28227478,-0.26750413,-2.9194424,4.3801036,-3.183836,-5.714126,-2.5804804e-05,4.5429155e-05,5.9533913e-06,-0.0004283155,0.00022095429,-0.0008175495,0.24784596,0.04588987,0.3986289,-0.012132924,-0.015475978,-0.014664147,0.0,0.0,1.3441494e-06,0.0012952618,0.029579585,1.2599111e-05,5.7440484e-06,5.4504485e-06,2.6527741e-05,0.012420627,0.012406425,0.010748539,0.048832137,0.04883064,0.05550399,1.0598051e-11,1.0580851e-11,1.878154e-11,5.00001e-08,5.0000068e-08,5e-08,0.0010900589,0.00017901442,0.001070841,0.00019261418,0.0011209749,0.0010575535,0.0,0.0,743,0.31251043,0.23559284,0.049471054,0.07914463,0.006480143,0.0055916714,0.0,0.0,0.0,-0.002153,0,0,0,831,24,0,0,0
669123492,-0.8283693,0.038967893,0.07551906,0.553699,0.3438667,-0.37543747,-3.0794213,4.4421654,-3.2571325,-6.308083,-2.57815e-05,4.5474662e-05,5.9594104e-06,-0.00042775163,0.00022014316,-0.00081591087,0.25022915,0.046207026,0.3987643,-0.0120425485,-0.017861208,-0.015651703,0.0,0.0,1.132979e-06,0.0013244882,0.03077638,1.2191127e-05,5.637378e-06,5.4411275e-06,2.7547374e-05,0.012469316,0.012447671,0.010812317,0.049137093,0.049137298,0.056129295,1.0591276e-11,1.0575741e-11,1.8881641e-11,5.0000114e-08,5.0000068e-08,5e-08,0.0010261096,0.00016502937,0.0010654485,0.00018057028,0.0010520568,0.001053072,0.0,0.0,743,0.31348747,0.23691621,0.07959495,0.07153091,0.004637619,0.008841951,0.0,0.0,0.0,-0.002192,0,0,0,831,24,0,0,0
669323493,-0.8355007,0.036601197,0.06418233,0.5444993,0.3597426,-0.42429772,-3.2584088,4.5070453,-3.342229,-6.9458566,-2.57417e-05,4.547442e-05,5.964739e-06,-0.00042801074,0.00021975896,-0.0008128991,0.25247982,0.046704084,0.398189,-0.011619067,-0.02000218,-0.015951214,0.0,0.0,9.4289703e-07,0.0014058973,0.032458942,1.1938354e-05,5.5636756e-06,5.430241e-06,2.8390823e-05,0.012527828,0.012503117,0.010785118,0.049533717,0.049534656,0.055993717,1.05884294e-11,1.0574622e-11,1.898548e-11,5.0000075e-08,5e-08,5e-08,0.0009537641,0.00015253715,0.001061179,0.00016992074,0.0009757847,0.0010489953,0.0,0.0,743,0.3147513,0.23662992,0.08152063,0.059729286,0.008347083,0.021592187,0.0,0.0,0.0,-0.002194,0,0,0,831,24,0,0,0
669531468,-0.8401725,0.033468314,0.05874354,0.5380886,0.359569,-0.4340963,-3.412727,4.5688896,-3.43239,-7.627259,-2.5681855e-05,4.5456844e-05,5.9704234e-06,-0.00042875143,0.0002192232,-0.0008137267,0.25353158,0.04698889,0.39761886,-0.011312676,-0.02095657,-0.015952189,0.0,0.0,8.161812e-07,0.0014992104,0.034170978,1.1816203e-05,5.5287564e-06,5.4176735e-06,2.9104696e-05,0.012594928,0.012573464,0.010795221,0.05012279,0.050123632,0.05609796,1.0585619e-11,1.0573386e-11,1.9090052e-11,5.0000047e-08,5.0000036e-08,5.0000036e-08,0.0008836679,0.00014161196,0.0010556346,0.00016058108,0.0009026851,0.0010431891,0.0,0.0,743,0.31661716,0.23685008,0.044164985,0.08001053,0.014225259,0.011622714,0.0,0.0,0.0,-0.002216,0,0,0,831,24,0,0,0
669731506,-0.8433681,0.031587712,0.051415972,0.5339373,0.31996658,-0.40158066,-3.6143591,4.6227384,-3.524882,-8.346956,-2.5610185e-05,4.546603e-05,5.9789827e-06,-0.00042872527,0.00021864074,-0.00080172817,0.25424346,0.04726674,0.3967335,-0.010920285,-0.021566741,-0.01581393,0.0,0.0,6.341512e-07,0.0015177004,0.03473279,1.1784178e-05,5.4829543e-06,5.4023435e-06,2.9714989e-05,0.0126151955,0.012599919,0.01084574,0.050369196,0.050369248,0.05663389,1.0578907e-11,1.0568038e-11,1.9191015e-11,5e-08,5e-08,5e-08,0.000821155,0.00013217947,0.0010474614,0.00015231044,0.0008380496,0.0010345017,0.0,0.0,743,0.3173932,0.23797876,0.05750561,0.1009043,0.017781913,0.0016248786,0.0,0.0,0.0,-0.002181,0,0,0,831,24,0,0,0
669932312,-0.84478426,0.028964104,0.050032694,0.53197503,0.28460962,-0.37972823,-3.8106964,4.6743555,-3.6144054,-9.1108055,-2.5559671e-05,4.548894e-05,5.9849926e-06,-0.00042810908,0.00021832687,-0.0007873333,0.25491363,0.047549244,0.3958117,-0.0105319,-0.02215313,-0.015548105,0.0,0.0,4.8002465e-07,0.0014960387,0.034032468,1.1852956e-05,5.4608454e-06,5.382144e-06,3.021418e-05,0.012628396,0.012617651,0.01089444,0.050577167,0.05057644,0.057152487,1.0572261e-11,1.0562468e-11,1.9292486e-11,5.000006e-08,5.000007e-08,5.000007e-08,0.0007687977,0.00012410531,0.0010388726,0.00014512842,0.00078402885,0.001025409,0.0,0.0,743,0.31804657,0.23906587,0.072477944,0.10921812,0.016228024,0.015185407,0.0,0.0,0.0,-0.002175,0,0,0,831,24,0,0,0
670132294,-0.8452559,0.028019007,0.050497737,0.5312319,0.2592801,-0.34514868,-3.927815,4.727153,-3.6949387,-9.8577,-2.5552488e-05,4.551661e-05,5.9853764e-06,-0.00042783027,0.00021781973,-0.0007941308,0.25564075,0.047782138,0.39509827,-0.0102679925,-0.02287205,-0.0153128235,0.0,0.0,4.0771505e-07,0.0014868742,0.033670083,1.1979815e-05,5.445599e-06,5.365484e-06,3.065609e-05,0.0126066245,0.012601912,0.010767183,0.050791968,0.05079067,0.05610686,1.0567725e-11,1.0558682e-11,1.9396217e-11,5e-08,5e-08,5e-08,0.0007271309,0.000117228,0.0010315701,0.00013898943,0.0007409775,0.0010176663,0.0,0.0,743,0.3187203,0.23686887,0.06564918,0.099427916,0.014190714,0.015605559,0.0,0.0,0.0,-0.002192,0,0,0,831,24,0,0,0
670340305,-0.84615326,0.02820001,0.050345894,0.5298064,0.24235764,-0.30951983,-3.9561238,4.7760086,-3.7815619,-10.663983,-2.550716e-05,4.559409e-05,5.9887784e-06,-0.0004270099,0.00021676238,-0.00079365296,0.25626403,0.04798975,0.39444277,-0.0100633595,-0.023457263,-0.01510291,0.0,0.0,3.516442e-07,0.0014283968,0.03352663,1.2082488e-05,5.438358e-06,5.361295e-06,3.1152733e-05,0.012588108,0.012589772,0.010779084,0.051278945,0.05127732,0.0561834,1.0567624e-11,1.0559061e-11,1.9502325e-11,5.0000036e-08,5.0000036e-08,5.0000036e-08,0.0006931538,0.00011126764,0.0010256215,0.00013368018,0.00070572237,0.0010114149,0.0,0.0,743,0.32024407,0.23703039,0.06333558,0.087888405,0.01745216,0.037163265,0.0,0.0,0.0,-0.002181,0,0,0,831,24,0,0,0
670540288,-0.84694284,0.026944026,0.047903396,0.5288358,0.23131207,-0.29749638,-3.9397233,4.8170614,-3.8585865,-11.432786,-2.5463727e-05,4.5656154e-05,5.9899057e-06,-0.00042651928,0.00021580771,-0.0007963754,0.25666592,0.048115276,0.39391944,-0.009922104,-0.023875205,-0.015046613,0.0,0.0,3.4242188e-07,0.001415264,0.0335419,1.2198246e-05,5.418689e-06,5.349684e-06,3.16286e-05,0.012486786,0.012491437,0.010755817,0.05139583,0.051394403,0.05598084,1.0563647e-11,1.0555273e-11,1.9604398e-11,5e-08,5e-08,5e-08,0.0006643755,0.00010602334,0.0010198188,0.00012897306,0.00067584234,0.0010053667,0.0,0.0,743,0.32060915,0.23660271,0.08474099,0.090087734,0.01763427,0.06898503,0.0,0.0,0.0,-0.002198,0,0,0,831,24,0,0,0
670740303,-0.8475338,0.024889005,0.04601797,0.5281565,0.2074338,-0.25834525,-3.954128,4.858276,-3.9179766,-12.204871,-2.54744e-05,4.5665165e-05,5.991479e-06,-0.00042640913,0.0002156581,-0.000799766,0.25673896,0.048171278,0.39356816,-0.009800375,-0.02399666,-0.015071014,0.0,0.0,3.1312584e-07,0.001372337,0.031462178,1.2329075e-05,5.404579e-06,5.339681e-06,3.209537e-05,0.012414701,0.012421842,0.010812837,0.05149444,0.051493507,0.05651673,1.0561052e-11,1.0552629e-11,1.9706408e-11,5.0000036e-08,5.0000036e-08,5.0000036e-08,0.0006401736,0.000101383564,0.0010140561,0.00012478886,0.00065076357,0.0009993125,0.0,0.0,743,0.32091734,0.23773247,0.0414118,0.069321826,0.015108221,0.025402486,0.0,0.0,0.0,-0.002184,0,0,0,831,24,0,0,0
670948280,-0.848032,0.02543727,0.04377573,0.5275211,0.19678774,-0.20753035,-3.9418993,4.895473,-3.9766176,-12.993019,-2.5456235e-05,4.570408e-05,5.9907884e-06,-0.00042639443,0.0002149726,-0.00080808,0.25692487,0.048251405,0.39310563,-0.009670287,-0.02423057,-0.015033316,0.0,0.0,2.9955729e-07,0.0013482192,0.031260077,1.2469552e-05,5.3992458e-06,5.3437843e-06,3.2580214e-05,0.0123953745,0.012404577,0.010818732,0.051883213,0.051883195,0.05655329,1.0563883e-11,1.0555171e-11,1.9812341e-11,5e-08,5e-08,5e-08,0.0006192918,9.722948e-05,0.0010081463,0.00012100481,0.0006291287,0.0009931572,0.0,0.0,743,0.32212794,0.23780936,0.047509167,0.07996598,0.012809378,0.0488923,0.0,0.0,0.0,-0.002206,0,0,0,831,24,0,0,0
671145966,-0.8479113,0.025486456,0.044388007,0.5276613,0.16512744,-0.1786606,-3.9055593,4.925955,-4.0226984,-13.748414,-2.5442007e-05,4.5726294e-05,5.9902113e-06,-0.0004264275,0.00021450574,-0.0008132571,0.2567892,0.048302297,0.39267832,-0.009498419,-0.024086801,-0.014992656,0.0,0.0,2.8466033e-07,0.0013728489,0.030946858,1.2643687e-05,5.396676e-06,5.3402027e-06,3.3006396e-05,0.012298462,0.012307651,0.010869829,0.05186213,0.051863194,0.056977946,1.0562269e-11,1.0553027e-11,1.9912237e-11,5.0000065e-08,5.000007e-08,5.0000075e-08,0.000601456,9.351006e-05,0.0010020022,0.000117555,0.00061063346,0.0009868529,0.0,0.0,743,0.32206416,0.23870054,0.02238235,0.04934901,0.0139114335,0.049438495,0.0,0.0,0.0,-0.002165,0,0,0,831,24,0,0,0
671353902,-0.8479341,0.025019692,0.04334815,0.5277336,0.14352176,-0.1238285,-3.8972657,4.9513474,-4.053736,-14.54341,-2.544042e-05,4.5701432e-05,5.9917447e-06,-0.00042671777,0.00021424763,-0.00081717863,0.25687188,0.04833363,0.39246726,-0.009416253,-0.024205113,-0.014995929,0.0,0.0,2.9439488e-07,0.0013932205,0.032202784,1.2822015e-05,5.400099e-06,5.3466433e-06,3.346485e-05,0.01229598,0.012304205,0.010865157,0.05220176,0.052204017,0.056953445,1.05669e-11,1.0556841e-11,2.0017548e-11,5e-08,5e-08,5e-08,0.0005879348,9.05088e-05,0.000997221,0.00011478087,0.00059656875,0.0009819521,0.0,0.0,743,0.32311884,0.2386492,0.0031582795,0.05643774,0.009417446,0.036320817,0.0,0.0,0.0,-0.002184,0,0,0,831,24,0,0,0
671553938,-0.84800065,0.02458784,0.042518497,0.52771443,0.086570166,-0.09243262,-3.9134283,4.9659066,-4.07945,-15.301563,-2.5404732e-05,4.5692435e-05,5.9877148e-06,-0.00042705043,0.00021365852,-0.00082373107,0.25688067,0.04837458,0.3921674,-0.009301836,-0.024206785,-0.014961338,0.0,0.0,2.7853721e-07,0.0014504552,0.032570753,1.2991185e-05,5.3995263e-06,5.348049e-06,3.3913082e-05,0.012262929,0.012271197,0.0108240545,0.052214984,0.0522184,0.056630567,1.0568197e-11,1.0557088e-11,2.0118174e-11,5e-08,5e-08,5e-08,0.0005746329,8.7423345e-05,0.0009920718,0.000111918955,0.0005826978,0.0009767133,0.0,0.0,743,0.32316154,0.23797178,0.022959888,0.042397376,0.010509363,0.011683981,0.0,0.0,0.0,-0.002147,0,0,0,831,24,0,0,0
671753913,-0.8480218,0.02449696,0.04313042,0.52763504,0.08001814,-0.07749051,-3.8910468,4.9804506,-4.1051526,-16.064135,-2.5377827e-05,4.572801e-05,5.983205e-06,-0.0004269808,0.0002133265,-0.0008269978,0.256962,0.04840894,0.39191574,-0.009242421,-0.02431299,-0.014946644,0.0,0.0,2.8606058e-07,0.0014849219,0.03326016,1.3160224e-05,5.406347e-06,5.3530152e-06,3.4363286e-05,0.012224749,0.01223181,0.010789412,0.05226809,0.052272435,0.05633863,1.0571303e-11,1.0558933e-11,2.0218266e-11,5e-08,5e-08,5e-08,0.00056315446,8.460171e-05,0.0009879476,0.00010933936,0.0005706635,0.0009725169,0.0,0.0,743,0.32332727,0.2373576,0.019327074,0.053994324,0.009700986,0.012773008,0.0,0.0,0.0,-0.002174,0,0,0,831,24,0,0,0
671963522,-0.8481053,0.026102168,0.045296445,0.52724224,0.07184359,-0.047334768,-3.8878074,4.9850607,-4.1307607,-16.864882,-2.5303825e-05,4.5773217e-05,5.9718186e-06,-0.0004265364,0.00021296971,-0.00082645984,0.25710368,0.048463833,0.39160922,-0.009176659,-0.024438249,-0.014872476,0.0,0.0,3.0308743e-07,0.0015568,0.03454266,1.32952355e-05,5.42564e-06,5.3682616e-06,3.476937e-05,0.0122580975,0.012262201,0.010800235,0.052607108,0.052612375,0.05637738,1.0578762e-11,1.0564976e-11,2.0300931e-11,5.0000036e-08,5.0000036e-08,5.0000036e-08,0.0,0.0,0.0,0.0,0.0,0.0,0.0,0.0,663,0.32437554,0.23743922,0.0060823415,0.0717109,0.01377903,0.001416282,0.0,0.0,0.0,-0.002164,0,0,0,831,24,0,0,0
672163498,-0.8482466,0.025816169,0.0452489,0.52703315,0.053061944,-0.028565487,-3.8836844,4.990438,-4.139704,-17.6207,-2.5286075e-05,4.5758974e-05,5.9508893e-06,-0.00042682493,0.00021247294,-0.0008316872,0.25710368,0.048463833,0.39160922,-0.009176659,-0.024438249,-0.014872476,0.0,0.0,2.6390805e-07,0.0014319438,0.03211862,1.3207496e-05,5.43425e-06,5.376857e-06,3.456767e-05,0.012255819,0.01225916,0.010780633,0.052699294,0.05270513,0.05620623,1.0585829e-11,1.0570827e-11,2.0217475e-11,5.0000036e-08,5.0000036e-08,5.0000036e-08,0.0,0.0,0.0,0.0,0.0,0.0,0.0,0.0,663,0.32466048,0.23707853,0.0064306217,0.09250304,0.012054588,0.011080499,0.0,0.0,0.0,-0.0021859999,0,0,0,831,24,0,0,0
672363499,-0.84840196,0.025048755,0.044835374,0.52685535,0.046378687,-0.02934227,-3.8858604,4.994964,-4.1483164,-18.379597,-2.526717e-05,4.574856e-05,5.9289196e-06,-0.00042680424,0.00021216362,-0.00083213235,0.25710368,0.048463833,0.39160922,-0.009176659,-0.024438249,-0.014872476,0.0,0.0,2.4351922e-07,0.001464654,0.032648597,1.3122405e-05,5.4417656e-06,5.3845943e-06,3.436953e-05,0.012244941,0.012248497,0.010759997,0.052718084,0.052724093,0.055990018,1.0589345e-11,1.0573017e-11,2.0132623e-11,5e-08,5e-08,5e-08,0.0,0.0,0.0,0.0,0.0,0.0,0.0,0.0,663,0.32471862,0.2366221,0.001636635,0.10005938,0.010150334,0.024135396,0.0,0.0,0.0,-0.002187,0,0,0,831,24,0,0,0
672571502,-0.8482729,0.024899473,0.044962622,0.52705926,0.021697704,-0.010820567,-3.8791347,4.995181,-4.154414,-19.186424,-2.5238647e-05,4.57292e-05,5.898447e-06,-0.0004263555,0.00021202577,-0.0008256736,0.25710368,0.048463833,0.39160922,-0.009176659,-0.024438249,-0.014872476,0.0,0.0,2.4249138e-07,0.0013756996,0.03100574,1.3065999e-05,5.458846e-06,5.40114e-06,3.4171175e-05,0.012288393,0.012291956,0.010781079,0.053051952,0.05305803,0.056088753,1.0597153e-11,1.0579388e-11,2.0054137e-11,5.0000036e-08,5.0000036e-08,5.0000036e-08,0.0,0.0,0.0,0.0,0.0,0.0,0.0,0.0,663,0.32574525,0.23683064,0.00017755758,0.120283484,0.011223668,0.01359514,0.0,0.0,0.0,-0.002184,0,0,0,831,24,0,0,0
672772298,-0.8482131,0.025269678,0.04681282,0.5269768,0.045388013,0.0004926211,-3.8790116,4.9994855,-4.155277,-19.972376,-2.5245277e-05,4.571551e-05,5.887485e-06,-0.0004259709,0.00021213245,-0.0008168012,0.25710368,0.048463833,0.39160922,-0.009176659,-0.024438249,-0.014872476,0.0,0.0,2.0689991e-07,0.00142327,0.03100447,1.2989983e-05,5.474887e-06,5.411821e-06,3.3968063e-05,0.012283581,0.012283983,0.010765223,0.053087328,0.05309318,0.055906754,1.0601066e-11,1.0581751e-11,1.9973818e-11,5.0000036e-08,5.0000036e-08,5.0000036e-08,0.0,0.0,0.0,0.0,0.0,0.0,0.0,0.0,663,0.3258535,0.2364461,0.007256546,0.09346237,0.010860358,0.04026587,0.0,0.0,0.0,-0.002188,0,0,0,831,24,0,0,0
672972313,-0.8483641,0.025662316,0.04724571,0.526676,0.014396836,-0.0131133385,-3.8833191,4.994847,-4.1701384,-20.745804,-2.517578e-05,4.5763256e-05,5.857657e-06,-0.00042528182,0.00021225342,-0.00081261195,0.25710368,0.048463833,0.39160922,-0.009176659,-0.024438249,-0.014872476,0.0,0.0,2.472864e-07,0.0014833773,0.03262933,1.29049595e-05,5.488296e-06,5.4244597e-06,3.3784458e-05,0.012294201,0.012297872,0.010756995,0.053174574,0.053180117,0.05579,1.0606868e-11,1.0585949e-11,1.9897771e-11,5.0000036e-08,5.0000036e-08,5.0000036e-08,0.0,0.0,0.0,0.0,0.0,0.0,0.0,0.0,663,0.32612067,0.23619907,0.0049693817,0.11519011,0.012001868,0.017013315,0.0,0.0,0.0,-0.002174,0,0,0,831,24,0,0,0
673180276,-0.8485284,0.025113693,0.047053967,0.5264549,0.02399521,-0.023559839,-3.8619447,4.995385,-4.176317,-21.545311,-2.516795e-05,4.5768167e-05,5.8338455e-06,-0.0004251431,0.00021219034,-0.00080904056,0.25710368,0.048463833,0.39160922,-0.009176659,-0.024438249,-0.014872476,0.0,0.0,2.8301986e-07,0.001609112,0.035250247,1.2831489e-05,5.5054406e-06,5.4412085e-06,3.362127e-05,0.012329725,0.012333638,0.010787626,0.05348885,0.05349406,0.05595937,1.061385e-11,1.0591232e-11,1.9826115e-11,5.000007e-08,5.000007e-08,5.000007e-08,0.0,0.0,0.0,0.0,0.0,0.0,0.0,0.0,663,0.32708243,0.23655733,0.0069867023,0.10823286,0.013694541,0.03523904,0.0,0.0,0.0,-0.002209,0,0,0,831,24,0,0,0
673380317,-0.8485606,0.02237632,0.048960775,0.52635276,0.021142717,-0.007870108,-3.8805287,4.9972644,-4.1742473,-22.339872,-2.5180469e-05,4.57281e-05,5.833107e-06,-0.00042464232,0.00021217804,-0.00079623103,0.25710368,0.048463833,0.39160922,-0.009176659,-0.024438249,-0.014872476,0.0,0.0,2.7911952e-07,0.0014889177,0.033351004,1.27327585e-05,5.5235196e-06,5.447669e-06,3.3368004e-05,0.012336636,0.012339802,0.010774045,0.053506237,0.05351104,0.05581131,1.0616881e-11,1.0592641e-11,1.9733989e-11,5e-08,5e-08,5e-08,0.0,0.0,0.0,0.0,0.0,0.0,0.0,0.0,663,0.32713497,0.23624417,0.004539356,0.093868904,0.010627005,0.00090760266,0.0,0.0,0.0,-0.002168,0,0,0,831,24,0,0,0
673588288,-0.8481682,0.022057189,0.048228018,0.5270657,0.04072748,-0.00457513,-3.876904,4.9979863,-4.174675,-23.16226,-2.5173124e-05,4.570875e-05,5.8154374e-06,-0.00042417357,0.00021219693,-0.00078680005,0.25710368,0.048463833,0.39160922,-0.009176659,-0.024438249,-0.014872476,0.0,0.0,2.5486318e-07,0.0015034487,0.033299778,1.2706686e-05,5.540316e-06,5.4666293e-06,3.3170574e-05,0.012388545,0.01238986,0.010792975,0.05382759,0.053831946,0.055929873,1.0623971e-11,1.0598003e-11,1.9667242e-11,5e-08,5e-08,5e-08,0.0,0.0,0.0,0.0,0.0,0.0,0.0,0.0,663,0.32811514,0.23649497,0.0050997045,0.06946451,0.011209796,0.0016833579,0.0,0.0,0.0,-0.002198,0,0,0,831,24,0,0,0
673789144,-0.8484662,0.026041491,0.045523185,0.5266447,0.03650512,0.0067208344,-3.841368,5.001389,-4.1668663,-23.919735,-2.5188641e-05,4.56649e-05,5.815384e-06,-0.00042452474,0.0002116486,-0.00078795734,0.25710368,0.048463833,0.39160922,-0.009176659,-0.024438249,-0.014872476,0.0,0.0,2.6567128e-07,0.0015371112,0.033555243,1.2617955e-05,5.5440196e-06,5.487104e-06,3.301712e-05,0.0123738805,0.012375332,0.010855867,0.05383331,0.053837,0.056507118,1.0627061e-11,1.0599391e-11,1.9598772e-11,5.0000036e-08,5.0000057e-08,5.0000036e-08,0.0,0.0,0.0,0.0,0.0,0.0,0.0,0.0,663,0.32813153,0.23771226,0.0064849746,0.078202784,0.014700434,0.011671356,0.0,0.0,0.0,-0.002142,0,0,0,831,24,0,0,0
673989090,-0.84900653,0.02385612,0.04724054,0.5257255,0.04668388,0.024079695,-3.8444078,5.0108275,-4.1562657,-24.698133,-2.5233086e-05,4.5622197e-05,5.804454e-06,-0.00042465384,0.00021135402,-0.00078052125,0.25710368,0.048463833,0.39160922,-0.009176659,-0.024438249,-0.014872476,0.0,0.0,2.7195782e-07,0.0015034877,0.033491284,1.25122615e-05,5.5636624e-06,5.4966763e-06,3.288408e-05,0.012387808,0.012388164,0.0108295195,0.05386645,0.05386965,0.056317028,1.06320334e-11,1.0602636e-11,1.9534305e-11,5.0000036e-08,5.0000097e-08,5.0000036e-08,0.0,0.0,0.0,0.0,0.0,0.0,0.0,0.0,663,0.32823178,0.2373121,0.01750395,0.09321918,0.009377468,0.015446271,0.0,0.0,0.0,-0.002197,0,0,0,831,24,0,0,0
674197123,-0.84945416,0.026731003,0.045317527,0.52503276,0.030847859,0.026538204,-3.8762531,5.0112653,-4.1454496,-25.504065,-2.5212132e-05,4.5563756e-05,5.777008e-06,-0.00042424732,0.00021088884,-0.00077360554,0.25710368,0.048463833,0.39160922,-0.009176659,-0.024438249,-0.014872476,0.0,0.0,2.5358568e-07,0.0014107523,0.03180162,1.2399098e-05,5.5772266e-06,5.5225005e-06,3.2698616e-05,0.012468662,0.0124710575,0.01092497,0.054175023,0.05417775,0.057164278,1.0638763e-11,1.0607736e-11,1.945634e-11,5.0000047e-08,5.0000178e-08,5.000006e-08,0.0,0.0,0.0,0.0,0.0,0.0,0.0,0.0,663,0.3291698,0.23909052,0.014530935,0.10443239,0.009168621,0.011893174,0.0,0.0,0.0,-0.002161,0,0,0,831,24,0,0,0
674397105,-0.84929156,0.028744187,0.046461675,0.52508944,0.04585716,0.0174991,-3.8920186,5.011096,-4.1472516,-26.315779,-2.5175937e-05,4.5569377e-05,5.7590446e-06,-0.000423089,0.00021128022,-0.00075393665,0.25710368,0.048463833,0.39160922,-0.009176659,-0.024438249,-0.014872476,0.0,0.0,2.819599e-07,0.0015071454,0.033706993,1.2342968e-05,5.592843e-06,5.538441e-06,3.2522177e-05,0.012474743,0.012477315,0.010800475,0.054155868,0.054158278,0.056106884,1.0641169e-11,1.0608414e-11,1.9394365e-11,5e-08,5.0000125e-08,5e-08,0.0,0.0,0.0,0.0,0.0,0.0,0.0,0.0,663,0.32911113,0.23686892,0.006772119,0.10628809,0.012219566,0.02254111,0.0,0.0,0.0,-0.002181,0,0,0,831,24,0,0,0
674597102,-0.848757,0.029003631,0.04812647,0.52578926,0.027522508,-0.0038169003,-3.8779337,5.01208,-4.1480484,-27.113352,-2.5160176e-05,4.5564873e-05,5.751668e-06,-0.00042251742,0.00021140852,-0.00074243004,0.25710368,0.048463833,0.39160922,-0.009176659,-0.024438249,-0.014872476,0.0,0.0,2.5562738e-07,0.0015552677,0.034721825,1.23179e-05,5.6105805e-06,5.550663e-06,3.232126e-05,0.012466459,0.012472934,0.010774886,0.054138575,0.054140855,0.055895194,1.06433e-11,1.0608855e-11,1.9334439e-11,5e-08,5.0000178e-08,5e-08,0.0,0.0,0.0,0.0,0.0,0.0,0.0,0.0,663,0.3290584,0.23642164,0.0077361786,0.07564879,0.0120438095,0.0028307354,0.0,0.0,0.0,-0.002185,0,0,0,831,24,0,0,0
674797141,-0.8488818,0.029138437,0.0454576,0.5258179,0.019934349,-0.027689895,-3.866787,5.0082016,-4.1606565,-27.898691,-2.510537e-05,4.558337e-05,5.7242087e-06,-0.00042174128,0.00021163563,-0.0007327235,0.25710368,0.048463833,0.39160922,-0.009176659,-0.024438249,-0.014872476,0.0,0.0,3.1247433e-07,0.0015354584,0.034048405,1.2260838e-05,5.615525e-06,5.565369e-06,3.2169668e-05,0.012466197,0.012475138,0.010753809,0.054139577,0.05414221,0.05570784,1.0645512e-11,1.06094855e-11,1.9276719e-11,5e-08,5.0000228e-08,5e-08,0.0,0.0,0.0,0.0,0.0,0.0,0.0,0.0,663,0.32906199,0.23602508,0.017447364,0.09952655,0.0122076245,0.015205952,0.0,0.0,0.0,-0.002151,0,0,0,831,24,0,0,0
675005950,-0.8492997,0.024106044,0.0454888,0.5253948,0.027058527,-0.042106062,-3.8748724,5.014292,-4.169954,-28.729822,-2.5135041e-05,4.5578585e-05,5.7082234e-06,-0.00042152288,0.0002117782,-0.0007185173,0.25710368,0.048463833,0.39160922,-0.009176659,-0.024438249,-0.014872476,0.0,0.0,2.7197382e-07,0.0014516668,0.031762287,1.2191815e-05,5.6373424e-06,5.5766195e-06,3.2059208e-05,0.01253553,0.012545555,0.010778497,0.054470833,0.054474037,0.055853974,1.0651661e-11,1.0614103e-11,1.9225016e-11,5.0000036e-08,5.000031e-08,5.0000036e-08,0.0,0.0,0.0,0.0,0.0,0.0,0.0,0.0,663,0.330068,0.23633446,0.00646105,0.076762885,0.012263468,0.0064761606,0.0,0.0,0.0,-0.0021859999,0,0,0,831,24,0,0,0
675205947,-0.84962016,0.024879994,0.04669473,0.5247344,0.045046315,-0.02866589,-3.866886,5.0226927,-4.169315,-29.550482,-2.5183383e-05,4.5526413e-05,5.702804e-06,-0.00042123505,0.00021162788,-0.0007006684,0.25710368,0.048463833,0.39160922,-0.009176659,-0.024438249,-0.014872476,0.0,0.0,3.1411815e-07,0.0016605832,0.03570428,1.2107844e-05,5.655932e-06,5.592489e-06,3.1934327e-05,0.0125535745,0.012562255,0.010768852,0.05455737,0.054561105,0.055749852,1.065621e-11,1.0617192e-11,1.9173054e-11,5.0000036e-08,5.0000413e-08,5.0000036e-08,0.0,0.0,0.0,0.0,0.0,0.0,0.0,0.0,663,0.33033085,0.23611407,0.01651387,0.05379331,0.0070640477,0.008181298,0.0,0.0,0.0,-0.002182,0,0,0,831,24,0,0,0
675405938,-0.85008997,0.024528507,0.04429304,0.524198,0.05402544,-0.0155645255,-3.8779123,5.03453,-4.166325,-30.342182,-2.5232654e-05,4.5477194e-05,5.727585e-06,-0.00042136875,0.00021128106,-0.0006919171,0.25710368,0.048463833,0.39160922,-0.009176659,-0.024438249,-0.014872476,0.0,0.0,2.7284537e-07,0.0015062818,0.032589182,1.2025512e-05,5.662586e-06,5.607045e-06,3.182248e-05,0.012577663,0.012585739,0.010758711,0.054585688,0.054589752,0.055625897,1.0658381e-11,1.0617933e-11,1.9120969e-11,5e-08,5.000043e-08,5e-08,0.0,0.0,0.0,0.0,0.0,0.0,0.0,0.0,663,0.33041707,0.23585144,0.0073831636,0.05453854,0.0074426914,0.034962464,0.0,0.0,0.0,-0.002192,0,0,0,831,24,0,0,0
675613918,-0.85001796,0.025802102,0.045003682,0.52419317,0.034516662,-0.013292836,-3.8747993,5.044877,-4.1705413,-31.176153,-2.5239147e-05,4.546697e-05,5.7257316e-06,-0.00042099648,0.00021134842,-0.0006785642,0.25710368,0.048463833,0.39160922,-0.009176659,-0.024438249,-0.014872476,0.0,0.0,2.5143e-07,0.0016705662,0.03562534,1.197969e-05,5.6843337e-06,5.6289314e-06,3.1691336e-05,0.012646047,0.012655817,0.010869489,0.05493008,0.05493452,0.056553688,1.06641935e-11,1.0622362e-11,1.9074688e-11,5.000004e-08,5.0000533e-08,5.000004e-08,0.0,0.0,0.0,0.0,0.0,0.0,0.0,0.0,663,0.3314583,0.2378102,0.00017802966,0.060415283,0.008399331,0.017586669,0.0,0.0,0.0,-0.002168,0,0,0,831,24,0,0,0
675813908,-0.84996796,0.025558464,0.046403546,0.52416414,0.047789507,-0.002836843,-3.8608184,5.0497355,-4.1548715,-31.968552,-2.5261359e-05,4.53503e-05,5.7226966e-06,-0.00042089334,0.00021043966,-0.00066924415,0.25710368,0.048463833,0.39160922,-0.009176659,-0.024438249,-0.014872476,0.0,0.0,2.2511239e-07,0.0014788822,0.032459237,1.1928123e-05,5.7014367e-06,5.640385e-06,3.154713e-05,0.012648935,0.0126581015,0.010929434,0.05493641,0.054941066,0.057124216,1.0665503e-11,1.06222895e-11,1.9025776e-11,5.0000057e-08,5.0000562e-08,5.0000065e-08,0.0,0.0,0.0,0.0,0.0,0.0,0.0,0.0,663,0.3314777,0.23900673,0.007118621,0.09158587,0.004706267,0.0043501216,0.0,0.0,0.0,-0.002178,0,0,0,831,24,0,0,0
676013913,-0.85018873,0.028327446,0.044870775,0.52379704,0.03540866,0.001124031,-3.8365839,5.061139,-4.140607,-32.755596,-2.530979e-05,4.52774e-05,5.7108964e-06,-0.0004210461,0.00020991846,-0.00065841037,0.25710368,0.048463833,0.39160922,-0.009176659,-0.024438249,-0.014872476,0.0,0.0,2.7112432e-07,0.0016068495,0.035262983,1.1861831e-05,5.7080424e-06,5.6585072e-06,3.1424945e-05,0.012640925,0.0126517,0.010885424,0.05490606,0.0549111,0.056819316,1.0666536e-11,1.0621987e-11,1.8978487e-11,5e-08,5.000057e-08,5e-08,0.0,0.0,0.0,0.0,0.0,0.0,0.0,0.0,663,0.33138672,0.23836802,0.011388956,0.077692464,0.0012922743,0.0032000644,0.0,0.0,0.0,-0.002172,0,0,0,831,24,0,0,0
676219496,-0.8514466,0.026033245,0.04382566,0.521958,0.03120314,-0.024664875,-3.830911,5.0674424,-4.1314683,-33.56005,-2.533143e-05,4.5209905e-05,5.7029183e-06,-0.00042115466,0.00020936954,-0.0006529803,0.25710368,0.048463833,0.39160922,-0.009176659,-0.024438249,-0.014872476,0.0,0.0,2.3123368e-07,0.001440163,0.031864353,1.1735899e-05,5.7253624e-06,5.6743643e-06,3.139626e-05,0.012709284,0.012722042,0.010889519,0.055210695,0.055216514,0.056874223,1.06731915e-11,1.0627363e-11,1.8938549e-11,5.0000054e-08,5.000065e-08,5.0000054e-08,0.0,0.0,0.0,0.0,0.0,0.0,0.0,0.0,663,0.3323059,0.23848318,0.004579967,0.069245346,0.004131751,0.06592275,0.0,0.0,0.0,-0.002191,0,0,0,831,24,0,0,0
676419501,-0.8515585,0.027488066,0.04297965,0.5217715,0.038048327,-0.04802024,-3.8741696,5.0751786,-4.1312866,-34.36565,-2.535616e-05,4.516999e-05,5.6837025e-06,-0.00042082273,0.00020927061,-0.0006327124,0.25710368,0.048463833,0.39160922,-0.009176659,-0.024438249,-0.014872476,0.0,0.0,3.1388277e-07,0.0015682973,0.034906045,1.1680735e-05,5.7319185e-06,5.687008e-06,3.1269396e-05,0.01271432,0.012727677,0.010853765,0.05504591,0.055052616,0.056504257,1.0670327e-11,1.062337e-11,1.8890903e-11,5.0000036e-08,5.0000626e-08,5.0000036e-08,0.0,0.0,0.0,0.0,0.0,0.0,0.0,0.0,663,0.33181098,0.23770624,0.014266877,0.0510797,0.0028591189,0.025797596,0.0,0.0,0.0,-0.002183,0,0,0,831,24,0,0,0
676627506,-0.85079783,0.026509063,0.043699082,0.5230018,0.027169582,-0.05452629,-3.896872,5.0776114,-4.1369376,-35.201183,-2.5364212e-05,4.5133755e-05,5.66662e-06,-0.00042062326,0.00020909065,-0.0006182811,0.25710368,0.048463833,0.39160922,-0.009176659,-0.024438249,-0.014872476,0.0,0.0,2.6754722e-07,0.0015349307,0.033763345,1.1696858e-05,5.7506786e-06,5.7013294e-06,3.1100033e-05,0.012781512,0.012795777,0.010864505,0.05529697,0.055304978,0.05657532,1.0673623e-11,1.0625599e-11,1.8852364e-11,5.0000036e-08,5.0000658e-08,5.0000036e-08,0.0,0.0,0.0,0.0,0.0,0.0,0.0,0.0,663,0.3325687,0.23785567,0.019267436,0.07645993,0.0047762734,0.0051240954,0.0,0.0,0.0,-0.002181,0,0,0,831,24,0,0,0
676827509,-0.85013384,0.026201993,0.043522295,0.5241106,0.0040904726,-0.056097705,-3.900361,5.0813346,-4.136058,-36.004967,-2.5409681e-05,4.5066678e-05,5.6445665e-06,-0.00042079476,0.00020870377,-0.00060732575,0.25710368,0.048463833,0.39160922,-0.009176659,-0.024438249,-0.014872476,0.0,0.0,2.6721722e-07,0.0016459702,0.036067203,1.1724321e-05,5.7594552e-06,5.710196e-06,3.0981733e-05,0.012781254,0.012797009,0.010919991,0.055240322,0.055249427,0.057109624,1.0672831e-11,1.0623739e-11,1.8826546e-11,5.0000097e-08,5.0000672e-08,5.0000036e-08,0.0,0.0,0.0,0.0,0.0,0.0,0.0,0.0,663,0.3324,0.2389762,0.016427336,0.055239797,0.0052665365,0.0001552881,0.0,0.0,0.0,-0.002175,0,0,0,831,24,0,0,0
677028288,-0.8494772,0.026541172,0.042958368,0.5252037,4.193792e-05,-0.06321015,-3.856936,5.082678,-4.140632,-36.793926,-2.5426622e-05,4.50311e-05,5.6167014e-06,-0.00042084622,0.00020850252,-0.000600233,0.25710368,0.048463833,0.39160922,-0.009176659,-0.024438249,-0.014872476,0.0,0.0,2.432609e-07,0.00147478,0.03276086,1.1729727e-05,5.766559e-06,5.7199836e-06,3.0807383e-05,0.012752547,0.012768444,0.010883566,0.055172607,0.055182528,0.056827713,1.0671863e-11,1.0621852e-11,1.8786233e-11,5.0000125e-08,5.000069e-08,5.0000036e-08,0.0,0.0,0.0,0.0,0.0,0.0,0.0,0.0,663,0.33219743,0.23838563,0.0030239846,0.034847952,0.007147756,0.030436033,0.0,0.0,0.0,-0.002197,0,0,0,831,24,0,0,0
677236329,-0.84926283,0.025952099,0.04310398,0.5255676,-0.014611706,-0.063068084,-3.86241,5.0815697,-4.1457334,-37.596912,-2.544104e-05,4.5002947e-05,5.6034796e-06,-0.0004209989,0.00020830706,-0.00060010236,0.25710368,0.048463833,0.39160922,-0.009176659,-0.024438249,-0.014872476,0.0,0.0,2.2440115e-07,0.0015929074,0.03410375,1.1686811e-05,5.7838092e-06,5.735518e-06,3.0628027e-05,0.012823899,0.0128405085,0.010896695,0.05544982,0.05546079,0.05692283,1.0676864e-11,1.0626045e-11,1.8737885e-11,5.0000253e-08,5.0000747e-08,5.000006e-08,0.0,0.0,0.0,0.0,0.0,0.0,0.0,0.0,663,0.33303246,0.23858505,0.0045753145,0.01793367,0.008421126,0.0036457093,0.0,0.0,0.0,-0.002188,0,0,0,831,24,0,0,0
677436303,-0.8491921,0.023913918,0.04595215,0.52553725,-0.011451893,-0.06998611,-3.873505,5.0760145,-4.154451,-38.40691,-2.5438185e-05,4.497709e-05,5.596248e-06,-0.00042073842,0.00020821695,-0.000585484,0.25710368,0.048463833,0.39160922,-0.009176659,-0.024438249,-0.014872476,0.0,0.0,2.0932897e-07,0.0014008986,0.031198671,1.1643692e-05,5.8011838e-06,5.738637e-06,3.0504681e-05,0.012823503,0.012839378,0.01086961,0.055366058,0.055377718,0.05668679,1.0675565e-11,1.0623903e-11,1.8700305e-11,5.000035e-08,5.0000732e-08,5.0000025e-08,0.0,0.0,0.0,0.0,0.0,0.0,0.0,0.0,663,0.33278188,0.23808987,0.004527081,0.021346364,0.0062835813,0.034418225,0.0,0.0,0.0,-0.002184,0,0,0,831,24,0,0,0
677644314,-0.85011595,0.0249721,0.043115452,0.5242332,-0.0029616528,-0.0622129,-3.8840287,5.0609045,-4.1618066,-39.230263,-2.5397529e-05,4.491968e-05,5.5607893e-06,-0.0004204598,0.00020781493,-0.0005772051,0.25710368,0.048463833,0.39160922,-0.009176659,-0.024438249,-0.014872476,0.0,0.0,3.0746284e-07,0.0016812966,0.036950458,1.1550901e-05,5.8071437e-06,5.7562697e-06,3.0466812e-05,0.012886366,0.0129009485,0.010963616,0.05561859,0.055631023,0.057512008,1.0678261e-11,1.0625796e-11,1.8668121e-11,5.0000438e-08,5.0000782e-08,5.0000097e-08,0.0,0.0,0.0,0.0,0.0,0.0,0.0,0.0,663,0.333541,0.2398166,0.029238705,0.042321086,0.0077692308,0.0056037786,0.0,0.0,0.0,-0.002171,0,0,0,831,24,0,0,0
677844278,-0.8493633,0.024243478,0.04530015,0.52530193,-0.022004196,-0.05340705,-3.8953333,5.0541897,-4.1614914,-40.03857,-2.5430936e-05,4.485324e-05,5.5434557e-06,-0.00042061767,0.00020752088,-0.0005639547,0.25710368,0.048463833,0.39160922,-0.009176659,-0.024438249,-0.014872476,0.0,0.0,3.007154e-07,0.0015470062,0.033971373,1.1559075e-05,5.8211654e-06,5.7610946e-06,3.029891e-05,0.012887421,0.012902505,0.0109180575,0.05554416,0.055556994,0.057171576,1.0676691e-11,1.0623451e-11,1.8633099e-11,5.0000462e-08,5.000079e-08,5.0000036e-08,0.0,0.0,0.0,0.0,0.0,0.0,0.0,0.0,663,0.33331838,0.23910579,0.008602414,0.051232696,0.009811692,0.0087725725,0.0,0.0,0.0,-0.002208,0,0,0,831,24,0,0,0
678041906,-0.84888804,0.02325784,0.044848163,0.5261531,-0.036507323,-0.044522453,-3.8895338,5.0328407,-4.166183,-40.847656,-2.5375039e-05,4.479934e-05,5.521045e-06,-0.00042028233,0.00020709987,-0.0005456323,0.25710368,0.048463833,0.39160922,-0.009176659,-0.024438249,-0.014872476,0.0,0.0,2.645802e-07,0.0016581579,0.035910983,1.1555783e-05,5.661693e-06,5.600626e-06,3.0149833e-05,0.011494027,0.011506459,0.0107610915,0.04800723,0.048016086,0.057021677,1.0573742e-11,1.051841e-11,1.8597129e-11,5e-08,5e-08,5e-08,0.0,0.0,0.0,0.0,0.0,0.0,0.0,0.0,663,0.3098763,0.23879212,0.011482192,0.035391334,0.0067704567,0.01796126,0.0,0.0,0.0,-0.002178,0,0,0,831,24,0,0,0
678249897,-0.84933996,0.023569673,0.045309342,0.5253696,-0.016278468,-0.03087588,-3.9038792,5.026993,-4.173362,-41.674004,-2.53762e-05,4.479577e-05,5.5046353e-06,-0.00042017203,0.00020712176,-0.0005354823,0.25710368,0.048463833,0.39160922,-0.009176659,-0.024438249,-0.014872476,0.0,0.0,2.4770293e-07,0.0014122705,0.031448994,1.148948e-05,5.8432297e-06,5.7815687e-06,3.0089801e-05,0.01294063,0.01295389,0.010962301,0.055686958,0.055700354,0.05753588,1.067769e-11,1.0623083e-11,1.856912e-11,5.0000654e-08,5.000088e-08,5.000007e-08,0.0,0.0,0.0,0.0,0.0,0.0,0.0,0.0,663,0.3337474,0.23986638,0.012386925,0.035391334,0.0067704567,0.015661893,0.0,0.0,0.0,-0.002188,0,0,0,831,24,0,0,0
678449923,-0.8495719,0.02652153,0.047193542,0.5246875,-0.0016149748,-0.019652259,-3.9371026,5.017659,-4.1842465,-42.479607,-2.532852e-05,4.4817967e-05,5.4878988e-06,-0.00041982313,0.00020711402,-0.0005242134,0.25710368,0.048463833,0.39160922,-0.009176659,-0.024438249,-0.014872476,0.0,0.0,2.8669982e-07,0.0015838869,0.0357388,1.1423943e-05,5.8546634e-06,5.791345e-06,3.0001578e-05,0.012960617,0.0129725635,0.010922893,0.05564149,0.055654652,0.057214424,1.06760226e-11,1.0620744e-11,1.8537552e-11,5.0000683e-08,5.0000843e-08,5.000007e-08,0.0,0.0,0.0,0.0,0.0,0.0,0.0,0.0,663,0.33361077,0.23919536,0.0032897438,0.053702064,0.0065615824,0.0023096846,0.0,0.0,0.0,-0.002162,0,0,0,831,24,0,0,0
678649890,-0.84866977,0.025679162,0.047937315,0.52612,-0.003455868,-0.030629545,-3.930353,5.008223,-4.190425,-43.294952,-2.5292647e-05,4.4803102e-05,5.457537e-06,-0.00041962057,0.00020693729,-0.00051070785,0.25710368,0.048463833,0.39160922,-0.009176659,-0.024438249,-0.014872476,0.0,0.0,2.633185e-07,0.0014440744,0.031858534,1.1450261e-05,5.8622754e-06,5.7946395e-06,2.9832783e-05,0.012947388,0.012959312,0.010892686,0.055568267,0.05558125,0.056939676,1.0673864e-11,1.0617981e-11,1.8507152e-11,5.0000708e-08,5.0000843e-08,5.000007e-08,0.0,0.0,0.0,0.0,0.0,0.0,0.0,0.0,663,0.33339095,0.23862036,0.008904858,0.051042758,0.007137468,0.013064675,0.0,0.0,0.0,-0.002197,0,0,0,831,24,0,0,0
678857926,-0.84882694,0.022837143,0.04939694,0.5258626,0.0059601874,-0.032853957,-3.934259,5.0080743,-4.1938224,-44.14394,-2.530933e-05,4.4782122e-05,5.427475e-06,-0.0004196914,0.00020687986,-0.0004959607,0.25710368,0.048463833,0.39160922,-0.009176659,-0.024438249,-0.014872476,0.0,0.0,3.0345902e-07,0.0016421526,0.035932362,1.1389412e-05,5.879283e-06,5.8012483e-06,2.9700986e-05,0.0130002545,0.013011769,0.010820512,0.055831634,0.055844456,0.056219302,1.0675605e-11,1.0619238e-11,1.8467537e-11,5.0000775e-08,5.0000875e-08,5e-08,0.0,0.0,0.0,0.0,0.0,0.0,0.0,0.0,663,0.33417973,0.2371061,0.013195712,0.05368694,0.0075991517,0.039661624,0.0,0.0,0.0,-0.00216,0,0,0,831,24,0,0,0
679059501,-0.84910786,0.022628732,0.0474643,0.5255958,0.037146233,-0.027255042,-3.9488947,5.0083723,-4.1917286,-44.96547,-2.529871e-05,4.4732693e-05,5.4083516e-06,-0.00041973937,0.00020662523,-0.00048334163,0.25710368,0.048463833,0.39160922,-0.009176659,-0.024438249,-0.014872476,0.0,0.0,2.7146575e-07,0.001661966,0.03515855,1.1341093e-05,5.707659e-06,5.6371046e-06,2.9619387e-05,0.0116039645,0.011612861,0.0106041515,0.048254114,0.048262678,0.055465203,1.05734015e-11,1.0515348e-11,1.8441425e-11,5.0000054e-08,5.0000054e-08,5.0000054e-08,0.0,0.0,0.0,0.0,0.0,0.0,0.0,0.0,663,0.3106715,0.23551051,0.0057249283,0.037953045,0.0073377173,0.07044009,0.0,0.0,0.0,-0.002185,0,0,0,831,24,0,0,0
679259504,-0.8491993,0.025971008,0.045733564,0.52544695,0.04897374,-0.027720712,-3.9092863,5.002649,-4.201807,-45.780563,-2.5214278e-05,4.4722718e-05,5.352947e-06,-0.0004194791,0.00020626486,-0.0004712868,0.25710368,0.048463833,0.39160922,-0.009176659,-0.024438249,-0.014872476,0.0,0.0,2.613066e-07,0.0013914021,0.031666346,1.13028145e-05,5.7078723e-06,5.650035e-06,2.952661e-05,0.011598533,0.011607237,0.010596455,0.048318256,0.04832654,0.055313505,1.0573127e-11,1.0514689e-11,1.841441e-11,5.000006e-08,5.0000068e-08,5.0000036e-08,0.0,0.0,0.0,0.0,0.0,0.0,0.0,0.0,663,0.31087747,0.23518823,0.023396494,0.056162618,0.010057825,0.009054965,0.0,0.0,0.0,-0.002182,0,0,0,831,24,0,0,0
679467470,-0.8482183,0.035772387,0.057806764,0.5252661,0.029251225,-0.021586569,-3.4526894,4.9881535,-4.211183,-46.58854,-2.5098496e-05,4.468772e-05,5.2541186e-06,-0.00041919813,0.00020590921,-0.00045404205,0.25710368,0.048463833,0.39160922,-0.009176659,-0.024438249,-0.014872476,0.0,0.0,2.2877828e-07,0.0011017851,0.02526399,1.1285571e-05,5.765907e-06,5.6799163e-06,2.9384293e-05,0.011405999,0.011415032,0.010625003,0.048677307,0.048685446,0.055464156,1.057871e-11,1.0519925e-11,1.8392359e-11,5.0000057e-08,5.0000068e-08,5.0000036e-08,0.0,0.0,0.0,0.0,0.0,0.0,0.0,0.0,663,0.31203005,0.2355083,0.030898865,0.083895005,0.017769916,0.058633402,0.0,0.0,0.0,-0.002215,0,0,0,831,24,0,0,0
679667493,-0.8475056,0.037780076,0.0649972,0.5254353,0.031840455,-0.0572989,-2.8402705,4.9827166,-4.216686,-47.267303,-2.5072492e-05,4.4646047e-05,5.1834973e-06,-0.00041906282,0.00020571915,-0.0004325344,0.25710368,0.048463833,0.39160922,-0.009176659,-0.024438249,-0.014872476,0.0,0.0,1.7705462e-07,0.00090117025,0.021197807,1.1270738e-05,5.8145974e-06,5.6993836e-06,2.9243827e-05,0.0111053195,0.011115663,0.010613511,0.048760355,0.04876838,0.05532232,1.058461e-11,1.0525656e-11,1.836726e-11,5.0000097e-08,5.0000104e-08,5.0000036e-08,0.0,0.0,0.0,0.0,0.0,0.0,0.0,0.0,663,0.3122959,0.23520698,0.015206846,0.049495284,0.019012716,0.015070125,0.0,0.0,0.0,-0.002194,0,0,0,831,24,0,0,0
679868319,-0.848001,0.029947737,0.06163804,0.5255457,0.03936427,-0.10343723,-2.2941558,4.9782324,-4.2372885,-47.857746,-2.5024148e-05,4.462448e-05,5.1038096e-06,-0.00041887985,0.00020567536,-0.00039883054,0.25710368,0.048463833,0.39160922,-0.009176659,-0.024438249,-0.014872476,0.0,0.0,1.4646258e-07,0.0007567551,0.018828088,1.1241769e-05,5.826862e-06,5.7103957e-06,2.91761e-05,0.010859818,0.010870754,0.010678314,0.04880787,0.048815962,0.055903696,1.05925164e-11,1.0533604e-11,1.8343198e-11,5.0000065e-08,5.0000068e-08,5e-08,0.0,0.0,0.0,0.0,0.0,0.0,0.0,0.0,663,0.3124481,0.23643963,0.023513494,0.070018075,0.018064754,0.03792795,0.0,0.0,0.0,-0.002167,0,0,0,831,24,0,0,0
680076294,-0.84811217,0.025118772,0.058098115,0.5260224,0.04998188,-0.107704245,-1.811253,4.9797335,-4.2617173,-48.374355,-2.5004441e-05,4.459622e-05,5.030127e-06,-0.00041869233,0.0002055274,-0.00036273853,0.25710368,0.048463833,0.39160922,-0.009176659,-0.024438249,-0.014872476,0.0,0.0,2.5302867e-07,0.00077159016,0.017444571,1.1236341e-05,5.852472e-06,5.744794e-06,2.9102015e-05,0.010738169,0.010749535,0.010771425,0.04918905,0.04919749,0.056748893,1.0609496e-11,1.0550741e-11,1.8326108e-11,5.000014e-08,5.000014e-08,5.000007e-08,0.0,0.0,0.0,0.0,0.0,0.0,0.0,0.0,663,0.31366628,0.23822026,0.023516761,0.031417027,0.017029896,0.07347142,0.0,0.0,0.0,-0.002192,0,0,0,831,24,0,0,0
680276305,-0.85443693,0.02229919,0.06735264,0.5146882,0.07322343,-0.09483265,-1.3403881,4.9787784,-4.283619,-48.788803,-2.4967807e-05,4.4558474e-05,4.9288906e-06,-0.0004160905,0.00020475748,-0.00032521947,0.25717226,0.047769126,0.38974857,-0.0083796475,-0.026534874,-0.017557751,0.0,0.0,1.592959e-06,0.0008695399,0.020057654,1.0689947e-05,5.917383e-06,5.7428247e-06,2.9266204e-05,0.010574733,0.010579967,0.010820984,0.049248893,0.049244717,0.057249,1.0617231e-11,1.0552392e-11,1.8256776e-11,5.000007e-08,5.000007e-08,5.000007e-08,0.00032414563,6.9761685e-05,0.00055950455,8.9073284e-05,0.000324253,0.0005581963,0.0,0.0,743,0.3138369,0.23926763,0.010479584,0.029891659,0.021014579,0.098571345,0.0,0.0,0.0,-0.002182,0,0,0,831,24,0,0,0
680476289,-0.8990201,0.023052135,0.063865304,0.4326116,0.12872209,-0.07619022,-0.8864083,4.9917693,-4.29624,-49.112625,-2.4962002e-05,4.449496e-05,4.9479345e-06,-0.00041615614,0.00020445022,-0.00028716956,0.25658318,0.047926873,0.3889323,-0.008633575,-0.026288273,-0.018014945,0.0,0.0,2.9895007e-06,0.0009270448,0.020874703,7.6136776e-06,5.94415e-06,5.778061e-06,3.254318e-05,0.010444357,0.010446491,0.010774628,0.049285,0.049272113,0.056907423,1.0631476e-11,1.0561968e-11,1.8289752e-11,5.0000075e-08,5.000007e-08,5.0000036e-08,0.00027046437,6.359176e-05,0.0005154818,8.0924096e-05,0.00026705133,0.00051641586,0.0,0.0,743,0.31393808,0.23855276,0.03627143,0.039060038,0.019549461,0.09828884,0.0,0.0,0.0,-0.002195,0,0,0,831,24,0,0,0
680684315,-0.9499021,0.022632621,0.057250075,0.30642498,0.16799667,-0.015311824,-0.6294,5.0215325,-4.3111153,-49.4147,-2.4953482e-05,4.447361e-05,5.002267e-06,-0.00041797993,0.00020358844,-0.00023215609,0.25427288,0.048251886,0.38918796,-0.009126254,-0.023757992,-0.017228149,0.0,0.0,3.3744964e-06,0.00085072446,0.018981962,3.8959015e-06,5.96644e-06,5.825116e-06,3.670705e-05,0.010472627,0.0104727335,0.010760952,0.04958216,0.049567632,0.05682581,1.0650276e-11,1.057894e-11,1.8364497e-11,5e-08,5e-08,5e-08,0.0002250589,6.026509e-05,0.0005010063,7.760469e-05,0.0002188527,0.0005026821,0.0,0.0,743,0.3148806,0.23838164,0.0631768,0.025302652,0.016006203,0.11371601,0.0,0.0,0.0,-0.002172,0,0,0,831,24,0,0,0
680885074,-0.98094743,0.03288892,0.06848465,0.17880227,0.18902479,0.021108154,-0.32090273,5.0562024,-4.324718,-49.61743,-2.4921937e-05,4.450905e-05,5.0170875e-06,-0.00041907968,0.00020296173,-0.000191405,0.25178078,0.048243362,0.38926905,-0.009194987,-0.021192506,-0.016712755,0.0,0.0,3.2125088e-06,0.00078668457,0.017886613,1.4067865e-06,6.0515144e-06,5.8602604e-06,3.9583832e-05,0.010451777,0.010448097,0.010800554,0.049614955,0.049599778,0.05725543,1.0665205e-11,1.0593172e-11,1.8443325e-11,5.0000036e-08,5.0000033e-08,5e-08,0.0001829595,5.7500838e-05,0.0004945997,7.520917e-05,0.00017455549,0.0004967101,0.0,0.0,743,0.3149837,0.23928106,0.06630529,0.04032393,0.018051574,0.07227754,0.0,0.0,0.0,-0.002211,0,0,0,831,24,0,0,0
681085098,-0.99438024,0.033427484,0.06754916,0.07434789,0.24986415,0.051729016,-0.12953593,5.0938635,-4.321017,-49.729538,-2.4893512e-05,4.4477634e-05,5.001344e-06,-0.00041902924,0.00020099782,-0.00016691077,0.24894625,0.047998812,0.3894253,-0.008944568,-0.01837537,-0.01593048,0.0,0.0,2.9909534e-06,0.00081333733,0.020888887,3.2075928e-07,6.062887e-06,5.8761475e-06,4.1059644e-05,0.01054295,0.010536702,0.010749679,0.04973544,0.049717188,0.056887936,1.0681969e-11,1.0608989e-11,1.8513824e-11,5.0000036e-08,5.0000036e-08,5.0000036e-08,0.00014741067,5.4175303e-05,0.0004902769,7.1821545e-05,0.00013733559,0.0004928527,0.0,0.0,743,0.3153611,0.23851192,0.044218197,0.03249394,0.01809146,0.035672933,0.0,0.0,0.0,-0.002188,0,0,0,831,24,0,0,0
681293094,-0.9967949,0.033125214,0.07274074,-0.0033893387,0.29997525,0.08689108,-0.04011012,5.143089,-4.319204,-49.79806,-2.4843786e-05,4.4488705e-05,4.9921714e-06,-0.00041858255,0.00020039962,-0.00014964589,0.24702732,0.047848586,0.38978037,-0.008522668,-0.016356507,-0.015445716,0.0,0.0,3.000754e-06,0.0010238222,0.02292452,9.434369e-08,6.0941434e-06,5.872615e-06,4.1639476e-05,0.010792718,0.010781375,0.010748217,0.050172243,0.050149325,0.056844935,1.0700126e-11,1.0625892e-11,1.85815e-11,5.000007e-08,5.000007e-08,5.000007e-08,0.00012326172,5.0989045e-05,0.0004879524,6.8172725e-05,0.00011247093,0.0004906028,0.0,0.0,743,0.3167358,0.23842175,0.09451738,0.046249483,0.022819553,0.02034078,0.0,0.0,0.0,-0.002191,0,0,0,831,24,0,0,0
681493085,-0.9926917,0.033317525,0.10371085,-0.05193565,0.47724545,0.14275229,-0.014820231,5.216844,-4.3008795,-49.83837,-2.4835297e-05,4.4477623e-05,4.9717264e-06,-0.000418683,0.00019909277,-0.00014001185,0.24501838,0.04758399,0.3899381,-0.007993197,-0.014380381,-0.0146507295,0.0,0.0,2.672226e-06,0.0011443433,0.027989326,2.3745203e-07,6.287157e-06,5.819833e-06,4.1617783e-05,0.011075758,0.0110744,0.010802285,0.05033281,0.050303973,0.05732852,1.07122184e-11,1.0636354e-11,1.863584e-11,5.000007e-08,5.000007e-08,5.000007e-08,0.00010474309,4.756349e-05,0.00048448294,6.411829e-05,9.326454e-05,0.00048736582,0.0,0.0,743,0.317233,0.23943375,0.052672993,0.051091537,0.014607729,0.07536802,0.0,0.0,0.0,-0.002199,0,0,0,831,24,0,0,0
681701084,-0.9871972,0.042528428,0.12979071,-0.08238531,0.7407833,0.21955885,-0.015732184,5.3338466,-4.2616396,-49.882565,-2.4786508e-05,4.4427758e-05,4.953167e-06,-0.00041749506,0.00019653134,-0.00012848002,0.2431563,0.047401424,0.3900973,-0.0071855076,-0.012694306,-0.01323503,0.0,0.0,2.1932788e-06,0.0013086925,0.030481745,4.4894188e-07,6.48326e-06,5.7770803e-06,4.1484094e-05,0.0114835575,0.011517466,0.010706397,0.050777134,0.050742414,0.056451347,1.0726708e-11,1.0649011e-11,1.8688995e-11,5e-08,5e-08,5e-08,9.1974616e-05,4.4278964e-05,0.00047597667,6.0178747e-05,7.97348e-05,0.00047936128,0.0,0.0,743,0.31862134,0.23759492,0.1285483,0.053942334,0.003636835,0.05408282,0.0,0.0,0.0,-0.002202,0,0,0,831,24,0,0,0
681901113,-0.98315555,0.045644127,0.14783193,-0.09730207,1.1033734,0.2848527,0.0125309285,5.513956,-4.21125,-49.91336,-2.4764915e-05,4.4389933e-05,4.9608925e-06,-0.00041748915,0.00019543478,-0.00011917525,0.24181356,0.04737945,0.3905776,-0.0063588154,-0.01173451,-0.011854591,0.0,0.0,1.6492658e-06,0.0013907042,0.03145139,5.953438e-07,6.6098182e-06,5.709121e-06,4.150309e-05,0.011835646,0.011954828,0.010762335,0.05090045,0.05086515,0.056921374,1.0734707e-11,1.0656032e-11,1.8749157e-11,5.000007e-08,5.000007e-08,5.000007e-08,8.542413e-05,4.2103755e-05,0.00046627916,5.752747e-05,7.26621e-05,0.00047015696,0.0,0.0,743,0.31900722,0.238582,0.15227287,0.044321913,0.0029913068,0.05934226,0.0,0.0,0.0,-0.002172,0,0,0,831,24,0,0,0
682105953,-0.9806061,0.049552657,0.15968813,-0.10225513,1.5286856,0.34870812,0.028005121,5.7876396,-4.1445775,-49.925804,-2.4762094e-05,4.4358374e-05,4.9644445e-06,-0.00041768776,0.00019506253,-0.000115088646,0.24045572,0.04729116,0.39080718,-0.005552288,-0.010867878,-0.0102578765,0.0,0.0,1.2355305e-06,0.0014465628,0.03219294,6.639397e-07,6.667252e-06,5.649851e-06,4.163338e-05,0.012293818,0.012551531,0.010688476,0.051329162,0.051299382,0.056101,1.07465035e-11,1.0667329e-11,1.8806305e-11,5e-08,5e-08,5e-08,7.9914484e-05,3.989691e-05,0.00045314734,5.486568e-05,6.662894e-05,0.00045757985,0.0,0.0,743,0.3203569,0.2368565,0.118116185,0.037347298,0.0062200683,0.0179976,0.0,0.0,0.0,-0.002181,0,0,0,831,24,0,0,0
