timestamp,states[0],states[1],states[2],states[3],states[4],states[5],states[6],states[7],states[8],states[9],states[10],states[11],states[12],states[13],states[14],states[15],states[16],states[17],states[18],states[19],states[20],states[21],states[22],states[23],vibe[0],vibe[1],vibe[2],covariances[0],covariances[1],covariances[2],covariances[3],covariances[4],covariances[5],covariances[6],covariances[7],covariances[8],covariances[9],covariances[10],covariances[11],covariances[12],covariances[13],covariances[14],covariances[15],covariances[16],covariances[17],covariances[18],covariances[19],covariances[20],covariances[21],covariances[22],covariances[23],control_mode_flags,pos_horiz_accuracy,pos_vert_accuracy,mag_test_ratio,vel_test_ratio,pos_test_ratio,hgt_test_ratio,tas_test_ratio,hagl_test_ratio,beta_test_ratio,time_slip,gps_check_fail_flags,filter_fault_flags,innovation_check_flags,solution_status_flags,n_states,pre_flt_fail,health_flags,timeout_flags
51048296,0.9934958,-0.02593725,-0.0012293247,0.11086909,0.033431146,0.03252555,-0.0033015092,0.21152347,0.14994569,-1.0332198,-5.122582e-05,7.672918e-06,4.83667e-06,-4.5558165e-05,2.6330526e-06,6.896376e-05,0.22386378,0.037371535,0.37640738,0.0,0.0,0.0,0.0,0.0,1.2403024e-10,6.119442e-06,0.0003917892,1.0406766e-06,0.000101153,0.00010122004,5.1378225e-05,0.01617979,0.016182356,0.01052913,0.10451663,0.10451893,0.058031775,1.08352815e-11,1.088046e-11,2.93754e-11,2.4115905e-06,2.4064595e-06,5.0000036e-08,0.0,0.0,0.0,0.0,0.0,0.0,0.0,0.0,535,0.45720407,0.24089785,0.007234214,0.03628974,0.036238935,0.01833245,0.0,0.0,0.0,-0.005944,0,0,0,831,24,0,0,0
51256326,0.9934903,-0.025907705,-0.001255695,0.11092513,0.03823375,0.035341006,0.000718235,0.2362716,0.1556955,-1.0280827,-5.1227053e-05,7.699064e-06,4.805245e-06,-4.5724333e-05,2.3582388e-06,6.462276e-05,0.22386378,0.037371535,0.37640738,0.0,0.0,0.0,0.0,0.0,1.2396145e-10,6.1108876e-06,0.0002650226,1.0349238e-06,0.0001011522,0.00010121874,5.1150397e-05,0.0161928,0.01619552,0.010477688,0.10461873,0.10462093,0.057678945,1.0837893e-11,1.088249e-11,2.9140863e-11,2.4115766e-06,2.4064461e-06,5e-08,0.0,0.0,0.0,0.0,0.0,0.0,0.0,0.0,535,0.45742723,0.24016441,0.022406787,0.046790957,0.038718652,0.02180997,0.0,0.0,0.0,-0.005913,0,0,0,831,24,0,0,0
51457103,0.9934772,-0.02595712,-0.0012738509,0.11103054,0.04334403,0.0335616,0.004126514,0.26197794,0.15300687,-1.024599,-5.118651e-05,7.721762e-06,4.75767e-06,-4.6315654e-05,2.1607973e-06,6.07886e-05,0.22386378,0.037371535,0.37640738,0.0,0.0,0.0,0.0,0.0,4.7883515e-09,4.9179096e-05,0.0007157967,1.0332577e-06,0.00010114695,0.00010121341,5.1126903e-05,0.01614487,0.016147736,0.010489892,0.10427061,0.10427272,0.05790141,1.0836512e-11,1.0880756e-11,2.8980802e-11,2.4115634e-06,2.4064332e-06,5.0000036e-08,0.0,0.0,0.0,0.0,0.0,0.0,0.0,0.0,535,0.45666546,0.24062711,0.021915095,0.05709384,0.036435597,0.00043570957,0.0,0.0,0.0,-0.005936,0,0,0,831,24,0,0,0
51657096,0.99345636,-0.025920648,-0.0012049258,0.11122575,0.041175306,0.037218906,0.0007440515,0.27392292,0.16382107,-1.0369952,-5.1219897e-05,7.695975e-06,4.6670907e-06,-4.5817913e-05,2.2310562e-06,6.58224e-05,0.22386378,0.037371535,0.37640738,0.0,0.0,0.0,0.0,0.0,6.3940515e-09,9.5450676e-05,0.0011488489,1.025815e-06,0.00010114354,0.00010120976,5.0754086e-05,0.016101064,0.016104093,0.01042048,0.10396209,0.103964165,0.05734136,1.0836302e-11,1.0879895e-11,2.8715644e-11,2.4115504e-06,2.4064207e-06,5e-08,0.0,0.0,0.0,0.0,0.0,0.0,0.0,0.0,535,0.45598933,0.23946056,0.02980159,0.03986204,0.033806697,0.0023106926,0.0,0.0,0.0,-0.005944,0,0,0,831,24,0,0,0
51865084,0.9934466,-0.025992101,-0.00121137,0.11129609,0.043237917,0.026715497,-0.0023153396,0.29378346,0.14632155,-1.0480711,-5.111352e-05,7.679246e-06,4.6599616e-06,-4.686194e-05,2.4463113e-06,6.825914e-05,0.22386378,0.037371535,0.37640738,0.0,0.0,0.0,0.0,0.0,2.3644066e-08,0.00024386267,0.0026689833,1.0228698e-06,0.00010114801,0.00010121391,5.064871e-05,0.0161362,0.016139446,0.0104019875,0.10419615,0.10419819,0.057125766,1.0839274e-11,1.0882437e-11,2.8530917e-11,2.4115388e-06,2.406409e-06,5.0000036e-08,0.0,0.0,0.0,0.0,0.0,0.0,0.0,0.0,535,0.4565023,0.23900998,0.030468911,0.06975452,0.029914226,0.017963368,0.0,0.0,0.0,-0.005956,0,0,0,831,24,0,0,0
52065103,0.99351,-0.025969127,-0.0013546207,0.11073244,0.051005017,0.029093908,0.0012584097,0.32018077,0.15106557,-1.0402113,-5.110951e-05,7.719858e-06,4.6388154e-06,-4.710268e-05,2.0973707e-06,6.368307e-05,0.22386378,0.037371535,0.37640738,0.0,0.0,0.0,0.0,0.0,3.5874237e-08,0.00027652035,0.003225921,1.0089283e-06,0.00010114649,0.00010121209,5.040729e-05,0.01610447,0.016107896,0.010432812,0.10402344,0.104025476,0.057420153,1.0837403e-11,1.0880053e-11,2.8310104e-11,2.4115275e-06,2.406398e-06,5e-08,0.0,0.0,0.0,0.0,0.0,0.0,0.0,0.0,535,0.4561238,0.23962502,0.0029025504,0.0351224,0.028267339,0.0059773456,0.0,0.0,0.0,-0.005937,0,0,0,831,24,0,0,0
52265920,0.99347836,-0.025375947,-0.0016995823,0.111148894,0.052365527,0.032415412,-0.0036948347,0.33895874,0.15575974,-1.0733734,-5.111255e-05,7.721202e-06,4.6007053e-06,-4.6924702e-05,1.870797e-06,7.26428e-05,0.22386378,0.037371535,0.37640738,0.0,0.0,0.0,0.0,0.0,3.8061216e-08,0.00029163092,0.0035344167,1.0042041e-06,0.00010115162,0.000101214864,5.0156905e-05,0.016078467,0.01608204,0.010382225,0.103936665,0.10393871,0.056923676,1.0835661e-11,1.0877806e-11,2.8094456e-11,2.4115154e-06,2.4063863e-06,5e-08,0.0,0.0,0.0,0.0,0.0,0.0,0.0,0.0,535,0.4559335,0.23858683,0.013339838,0.05224718,0.027320636,0.028187767,0.0,0.0,0.0,-0.005921,0,0,0,831,24,0,0,0
52473911,0.9934405,-0.025314933,-0.0017524039,0.11149929,0.048122063,0.03418084,-0.0048388513,0.3470832,0.16498277,-1.0742741,-5.1138933e-05,7.678267e-06,4.577538e-06,-4.6640846e-05,2.1599608e-06,6.8788046e-05,0.22386378,0.037371535,0.37640738,0.0,0.0,0.0,0.0,0.0,2.8291801e-08,0.0002578741,0.003289211,1.0031063e-06,0.00010116284,0.000101225785,4.99449e-05,0.016147543,0.016151309,0.010375664,0.10447114,0.10447321,0.05677923,1.0840716e-11,1.08823705e-11,2.7890088e-11,2.4115045e-06,2.4063756e-06,5.000007e-08,0.0,0.0,0.0,0.0,0.0,0.0,0.0,0.0,535,0.4571043,0.23828392,0.001225422,0.07156648,0.024159828,0.0014366215,0.0,0.0,0.0,-0.005929,0,0,0,831,24,0,0,0
52673928,0.9934472,-0.025285723,-0.0016344824,0.11144886,0.045950256,0.03591407,-0.0060213576,0.3566978,0.17207345,-1.0887835,-5.1139552e-05,7.679358e-06,4.5582938e-06,-4.6521836e-05,2.0710443e-06,7.3544834e-05,0.22386378,0.037371535,0.37640738,0.0,0.0,0.0,0.0,0.0,5.3520857e-08,0.00036762704,0.0040017804,9.945497e-07,0.00010133701,0.00010139924,4.95998e-05,0.017860318,0.017864864,0.010522227,0.1168192,0.11682231,0.056958478,1.09431e-11,1.0983781e-11,2.7651215e-11,2.4115045e-06,2.4063756e-06,5e-08,0.0,0.0,0.0,0.0,0.0,0.0,0.0,0.0,535,0.48336476,0.23865975,0.00225099,0.07156648,0.024159828,0.007163185,0.0,0.0,0.0,-0.005912,0,0,0,831,24,0,0,0
52873902,0.9934354,-0.025472552,-0.0015647849,0.111511804,0.04458785,0.034116913,-0.00744866,0.36906084,0.16808715,-1.09471,-5.1103518e-05,7.655556e-06,4.538609e-06,-4.6743575e-05,2.337284e-06,7.384008e-05,0.22386378,0.037371535,0.37640738,0.0,0.0,0.0,0.0,0.0,4.5821352e-08,0.00034069282,0.00372078,9.904908e-07,0.00010130638,0.000101368845,4.9370745e-05,0.017579857,0.017584424,0.010544886,0.11568581,0.11568876,0.057273846,1.09197295e-11,1.0960041e-11,2.7451366e-11,2.4114918e-06,2.4063638e-06,5.0000036e-08,0.0,0.0,0.0,0.0,0.0,0.0,0.0,0.0,535,0.4810141,0.23931955,0.01626362,0.027445104,0.019139767,0.0074874707,0.0,0.0,0.0,-0.005937,0,0,0,831,24,0,0,0
53082818,0.9934436,-0.02545761,-0.0015813577,0.111441955,0.0488406,0.028157564,-0.0007943487,0.3911258,0.1565752,-1.0838985,-5.102808e-05,7.66842e-06,4.550224e-06,-4.773323e-05,2.614161e-06,6.637009e-05,0.22386378,0.037371535,0.37640738,0.0,0.0,0.0,0.0,0.0,1.338126e-07,0.00041693065,0.0054030837,9.844009e-07,0.00010129218,0.00010135387,4.917584e-05,0.017413963,0.017418597,0.010518022,0.11526771,0.11527063,0.057076342,1.0904494e-11,1.0944432e-11,2.7259814e-11,2.4114793e-06,2.4063522e-06,5e-08,0.0,0.0,0.0,0.0,0.0,0.0,0.0,0.0,663,0.48014408,0.23890656,0.003848357,0.063726656,0.017046977,0.010095365,0.0,0.0,0.0,-0.005859,0,0,0,831,24,0,0,0
53282732,0.9940529,-0.01403105,-0.006874177,0.10777231,0.086543985,-0.0016206799,-0.5357629,0.4121505,0.15673605,-1.235603,-5.1027404e-05,7.6879205e-06,4.4781013e-06,-4.6540474e-05,1.6281962e-06,0.00010926792,0.22386378,0.037371535,0.37640738,0.0,0.0,0.0,0.0,0.0,4.4328047e-07,0.0007466026,0.008495928,8.789218e-07,0.0001013206,0.00010134631,4.9205464e-05,0.017698051,0.017702783,0.010542651,0.11455717,0.11456005,0.057403192,1.089001e-11,1.0929755e-11,2.7134545e-11,2.41147e-06,2.4063381e-06,5.000007e-08,0.0,0.0,0.0,0.0,0.0,0.0,0.0,0.0,663,0.4786619,0.23958963,0.002619903,0.037031583,0.0151786795,0.17576681,0.0,0.0,0.0,-0.005908,0,0,0,831,24,0,0,0
53482748,0.9949776,-0.011440615,0.0055840844,0.09928561,0.067806825,-0.009887333,-1.6380581,0.37386554,0.113658756,-1.5612859,-5.0914663e-05,7.3976557e-06,4.3904374e-06,-0.00010152035,-1.515344e-05,0.00014551806,0.22386378,0.037371535,0.37640738,0.0,0.0,0.0,0.0,0.0,6.486582e-07,0.0008211669,0.01011374,7.586112e-07,0.00010085509,0.00010086391,4.9077575e-05,0.019065361,0.019070886,0.010488507,0.11398211,0.11398499,0.05692437,1.0868414e-11,1.0907691e-11,2.6945597e-11,2.4078454e-06,2.4027033e-06,5e-08,0.0,0.0,0.0,0.0,0.0,0.0,0.0,0.0,663,0.477459,0.23858829,0.016328298,0.1642303,0.014758704,0.033728812,0.0,0.0,0.0,-0.005891,0,0,0,831,24,0,0,0
53690695,0.9949772,-0.0077927364,-0.03975188,0.09154036,0.17255564,0.021335717,-2.4697177,0.41615772,0.115148306,-1.9342793,-5.091208e-05,7.494408e-06,4.3690266e-06,-7.153885e-05,-1.5829635e-05,0.00012246579,0.22386378,0.037371535,0.37640738,0.0,0.0,0.0,0.0,0.0,1.5889582e-06,0.00092320173,0.011128903,8.0693695e-07,9.966367e-05,9.963139e-05,4.908165e-05,0.02056384,0.020572029,0.0105629675,0.11418355,0.1141865,0.05755349,1.0848683e-11,1.0887607e-11,2.6764455e-11,2.3956359e-06,2.39049e-06,5.0000036e-08,0.0,0.0,0.0,0.0,0.0,0.0,0.0,0.0,663,0.4778808,0.23990308,0.015352959,0.053301483,0.009150497,0.054578196,0.0,0.0,0.0,-0.005944,0,0,0,831,24,0,0,0
53891503,0.9799973,-0.0034434474,-0.17808075,0.08877474,0.5781923,0.09787703,-2.347597,0.50263375,0.11748373,-2.3694324,-5.0861276e-05,7.5638077e-06,4.210684e-06,-5.3034022e-05,-3.7859925e-05,9.782325e-05,0.22386378,0.037371535,0.37640738,0.0,0.0,0.0,0.0,0.0,1.668598e-06,0.0009961764,0.011479105,3.7041457e-06,9.671053e-05,9.534564e-05,5.060946e-05,0.019821608,0.0198115,0.010498973,0.11395266,0.11395551,0.057085905,1.0825466e-11,1.0864174e-11,2.6612847e-11,2.3781952e-06,2.3732553e-06,5e-08,0.0,0.0,0.0,0.0,0.0,0.0,0.0,0.0,663,0.4773973,0.23892657,0.06594004,0.052094314,0.008476818,0.05276417,0.0,0.0,0.0,-0.005937,0,0,0,831,24,0,0,0
54092341,0.9723723,0.00959327,-0.21426904,0.09213468,1.2831296,0.2502143,-2.0594401,0.65260947,0.15324524,-2.7657866,-5.0903138e-05,7.434007e-06,3.8411745e-06,-0.00010859457,-2.170943e-05,8.062619e-05,0.22559711,0.032096498,0.37784973,-0.0004113576,-0.006537525,3.917671e-05,0.0,0.0,1.1298675e-06,0.0010675605,0.011533082,5.093752e-06,9.491731e-05,9.291405e-05,5.1213683e-05,0.01905104,0.019084651,0.010408973,0.11392951,0.11393102,0.056662742,1.0813387e-11,1.0851858e-11,2.6462766e-11,2.366309e-06,2.362663e-06,5e-08,0.0016677876,0.0014863159,0.0016703829,0.0016692072,0.0016275361,0.001672396,0.0,0.0,743,0.4773474,0.23803937,0.07177831,0.099837065,0.0040342496,0.0251717,0.0,0.0,0.0,-0.005901,0,0,0,831,24,0,0,0
54300296,0.9736591,0.0147164315,-0.20711878,0.09419844,2.1444263,0.4629749,-1.9943793,0.9882201,0.23069796,-3.1386569,-5.0942173e-05,7.346729e-06,3.8129647e-06,-0.00013692834,-1.0739145e-05,6.153745e-05,0.22403283,0.03053871,0.3785241,-0.0019224328,-0.008278781,0.0013796311,0.0,0.0,8.4548697e-07,0.0011272278,0.01199323,4.8080647e-06,9.409742e-05,9.226675e-05,5.1753017e-05,0.018867375,0.019200511,0.010388728,0.114401154,0.11440101,0.0565272,1.08063315e-11,1.0845205e-11,2.6541139e-11,2.3559476e-06,2.3526152e-06,5.0000036e-08,0.0013208119,0.0007397059,0.00132674,0.0013260256,0.0008727481,0.001331265,0.0,0.0,743,0.4783327,0.2377545,0.054098804,0.06504335,0.0030878827,0.010821523,0.0,0.0,0.0,-0.005943,0,0,0,831,24,0,0,0
54500331,0.97088337,0.016408332,-0.21968408,0.0941028,2.9886982,0.67610955,-2.0330129,1.4905558,0.33346105,-3.502062,-5.0907554e-05,7.2917105e-06,3.831038e-06,-0.00015816363,-1.885411e-05,4.574311e-05,0.22430284,0.030401818,0.37792972,-0.0023331402,-0.008932658,0.00080508145,0.0,0.0,7.0130426e-07,0.0011298629,0.012156076,5.299653e-06,9.2975846e-05,9.089634e-05,5.267595e-05,0.018983644,0.019748205,0.010449826,0.11486643,0.11487198,0.056928013,1.08071425e-11,1.0846101e-11,2.6592019e-11,2.3461741e-06,2.344661e-06,5e-08,0.0012799741,0.00049155916,0.0012885974,0.0012873748,0.0005948885,0.0012939428,0.0,0.0,743,0.47931036,0.23859592,0.038561855,0.034906436,0.0042689885,0.030624617,0.0,0.0,0.0,-0.00591,32,0,0,831,24,0,0,0
54701107,0.96681863,0.017206622,-0.23674606,0.09442982,3.8825684,0.90607864,-2.0487864,2.1969674,0.48538107,-3.8628728,-5.0865114e-05,7.3702563e-06,3.872262e-06,-0.00013680701,-3.9494644e-05,2.4347622e-05,0.22483262,0.030354107,0.37730858,-0.003087353,-0.009588369,0.000382841,0.0,0.0,5.4680754e-07,0.001070537,0.012230846,5.985433e-06,9.167801e-05,8.916511e-05,5.3633674e-05,0.018978072,0.020275896,0.0104957465,0.11501248,0.115035206,0.057269588,1.0802696e-11,1.0840965e-11,2.6601239e-11,2.3342866e-06,2.3378227e-06,5.0000036e-08,0.0012615047,0.00037306116,0.0012710289,0.0012692484,0.00046077158,0.0012770441,0.0,0.0,743,0.47963285,0.23931065,0.05547486,0.061181642,0.0034000007,0.03625862,0.0,0.0,0.0,-0.005932,0,0,0,831,24,0,0,0
54909116,0.96344864,0.01641594,-0.25012234,0.094531365,4.8287964,1.143725,-2.0462823,3.1263134,0.70263547,-4.2506785,-5.086418e-05,7.469056e-06,3.874846e-06,-0.000106436266,-5.0436716e-05,8.9451405e-06,0.22514962,0.030290363,0.37690488,-0.0038117669,-0.0102975825,0.00054112746,0.0,0.0,8.5621326e-07,0.0011484446,0.015171039,6.5231884e-06,9.049906e-05,8.755763e-05,5.4460717e-05,0.019069511,0.021015175,0.010495121,0.11578362,0.11584603,0.057043843,1.0806248e-11,1.0842491e-11,2.657418e-11,2.3217995e-06,2.332339e-06,5e-08,0.0012417578,0.00030267765,0.0012513268,0.0012488894,0.0003811251,0.0012578588,0.0,0.0,743,0.48127916,0.23883852,0.030632338,0.05214092,0.010813436,0.037938282,0.0,0.0,0.0,-0.005923,0,0,0,831,24,0,0,0
55109087,0.9628659,0.051262185,-0.24288912,0.10614335,5.684383,1.4083914,-2.0300372,4.1921916,0.90952975,-4.609509,-5.0670867e-05,7.4611517e-06,4.1424473e-06,-0.00012585046,-9.336866e-05,-1.3318318e-05,0.22531703,0.030268839,0.37660664,-0.0040103514,-0.010439967,0.0007985703,0.0,0.0,1.8430438e-06,0.0011788021,0.016283868,6.428687e-06,8.971162e-05,8.6711996e-05,5.461188e-05,0.01909482,0.021591118,0.01053505,0.116087094,0.11620813,0.05728816,1.0810042e-11,1.0842343e-11,2.649854e-11,2.3083835e-06,2.3280072e-06,5e-08,0.00122659,0.00025984878,0.001233865,0.0012341976,0.00033320664,0.0012389272,0.0,0.0,743,0.48197013,0.23934945,0.038334113,0.12774536,0.0106727965,0.060242772,0.0,0.0,0.0,-0.005953,0,0,0,831,24,0,0,0
55317151,0.9621011,0.12266369,-0.19090857,0.15122525,6.35233,1.9816612,-2.03628,5.4864645,1.274186,-4.980103,-5.0715847e-05,7.6323695e-06,4.085162e-06,-6.478349e-05,-9.9585384e-05,-2.939239e-05,0.22438163,0.030801527,0.37705722,-0.0032601042,-0.011090878,-0.00055151514,0.0,0.0,2.2700237e-06,0.0011749938,0.016521644,5.91768e-06,8.937152e-05,8.720633e-05,5.341286e-05,0.01931558,0.0218862,0.010531585,0.116904184,0.11711086,0.05705335,1.082196e-11,1.0848261e-11,2.638628e-11,2.2945414e-06,2.3246987e-06,5e-08,0.0011782079,0.00022208376,0.001162388,0.0012209292,0.0002897995,0.001126263,0.0,0.0,743,0.48375103,0.23885843,0.031098172,0.09114527,0.00903365,0.03684232,0.0,0.0,0.0,-0.005908,0,0,0,831,24,0,0,0
55517910,0.9560366,0.16395393,-0.14181505,0.19748813,6.598392,2.7447274,-2.1376615,6.776164,1.75572,-5.3837,-5.0766288e-05,7.577836e-06,3.97397e-06,-8.788842e-05,-9.4535215e-05,-3.498815e-05,0.22177652,0.031130448,0.37773854,-0.00037781414,-0.0115861865,-0.0027570736,0.0,0.0,2.4140663e-06,0.0011233813,0.016510058,6.194191e-06,8.894793e-05,8.708209e-05,5.2014224e-05,0.0198291,0.021503717,0.0105434805,0.117287174,0.11756831,0.056574985,1.08362095e-11,1.0855323e-11,2.6255643e-11,2.280497e-06,2.3216903e-06,5e-08,0.0010249151,0.00019373921,0.001023849,0.0011442561,0.00025301386,0.0008994839,0.0,0.0,743,0.4846189,0.23785497,0.04836344,0.053883474,0.0045402837,0.008688809,0.0,0.0,0.0,-0.0059309998,0,0,0,831,24,0,0,0
55717919,0.94168365,0.1899246,-0.105107166,0.2571244,6.5337048,3.5628428,-2.1699624,8.091912,2.408582,-5.812079,-5.0853603e-05,7.5921516e-06,3.8293474e-06,-8.658241e-05,-7.887918e-05,-3.4201665e-05,0.2195533,0.03155769,0.37686327,0.0030246507,-0.012252431,-0.002851362,0.0,0.0,3.5324783e-06,0.0013305435,0.020310327,7.414055e-06,8.842185e-05,8.636385e-05,5.0303486e-05,0.020470856,0.02063934,0.010837631,0.11755793,0.11788125,0.05691048,1.0852171e-11,1.086437e-11,2.6131316e-11,2.2661338e-06,2.3172436e-06,5.0000036e-08,0.000820224,0.00016997104,0.00089824473,0.0009995286,0.0002210018,0.0007016919,0.0,0.0,743,0.48522076,0.23855917,0.067050114,0.06364145,0.00789959,0.011951409,0.0,0.0,0.0,-0.005922,0,0,0,831,24,0,0,0
55925912,0.9147512,0.20353895,-0.07806422,0.34015906,6.232782,4.414902,-2.2016983,9.429553,3.2292247,-6.292999,-5.081573e-05,7.584976e-06,3.8879375e-06,-7.764572e-05,-8.226411e-05,-2.5882773e-05,0.2200167,0.03248467,0.37442097,0.00448225,-0.013074905,1.1725715e-05,0.0,0.0,4.3139944e-06,0.0014282172,0.022051444,9.786962e-06,8.789976e-05,8.535898e-05,4.759638e-05,0.021831911,0.020059269,0.011464886,0.118255675,0.11856443,0.056768432,1.0875133e-11,1.0881587e-11,2.6028412e-11,2.25039e-06,2.3082482e-06,5e-08,0.000592671,0.00014641536,0.0008083144,0.0007984938,0.00019125218,0.00057193945,0.0,0.0,743,0.48664165,0.23826127,0.07704747,0.025759773,0.0066482304,0.0049289037,0.0,0.0,0.0,-0.005928,0,0,0,831,24,0,0,0
56125899,0.8800995,0.20783155,-0.06401084,0.42205888,5.7651186,5.180028,-2.1899605,10.657671,4.176816,-6.745365,-5.0747363e-05,7.648635e-06,4.055743e-06,-4.1885683e-05,-7.164516e-05,-2.295699e-05,0.22031862,0.033440553,0.37267318,0.0051511694,-0.0143190995,0.0022552265,0.0,0.0,4.4715953e-06,0.0014525208,0.021191332,1.2774226e-05,8.7086126e-05,8.3908795e-05,4.437009e-05,0.023875311,0.020307433,0.012620629,0.118438646,0.118637405,0.056422897,1.0897155e-11,1.0900658e-11,2.5938633e-11,2.2286108e-06,2.2893107e-06,5e-08,0.00042269783,0.00012656543,0.00076335,0.00062064524,0.00016807232,0.0005234695,0.0,0.0,743,0.48690456,0.23753504,0.06336088,0.06171957,0.012647625,0.009596497,0.0,0.0,0.0,-0.005941,0,0,0,831,24,0,0,0
56326778,0.84203714,0.2094237,-0.047005553,0.4948795,5.162907,5.843992,-2.1623478,11.758828,5.2719126,-7.1857977,-5.06963e-05,7.6228257e-06,4.0695404e-06,-4.2328982e-05,-0.00010937426,-2.608566e-05,0.21824378,0.034805875,0.36922196,0.008357796,-0.016767874,0.0043902807,0.0,0.0,4.5527513e-06,0.0014988837,0.021604707,1.5932816e-05,8.569565e-05,8.182078e-05,4.0901807e-05,0.026946628,0.022216745,0.014524793,0.11872678,0.11871536,0.05706176,1.0924504e-11,1.0929174e-11,2.5863985e-11,2.192895e-06,2.2519953e-06,5e-08,0.00030296325,0.000108837165,0.00072909775,0.00047773332,0.0001475571,0.00050335017,0.0,0.0,743,0.48728034,0.23887604,0.05456018,0.048402727,0.013877065,0.003409355,0.0,0.0,0.0,-0.005864,0,0,0,831,24,0,0,0
56534709,0.79823434,0.21553604,-0.032465246,0.56152666,4.4582515,6.4329576,-2.1226413,12.774148,6.5516706,-7.6358953,-5.069442e-05,7.657054e-06,4.125837e-06,-3.112362e-05,-7.7541445e-05,-2.391659e-05,0.21723352,0.036008384,0.36701402,0.010009232,-0.019021476,0.0061266604,0.0,0.0,5.0628432e-06,0.0017244685,0.027102351,1.9527402e-05,8.2762024e-05,7.840631e-05,3.7370246e-05,0.031227078,0.026429549,0.01705805,0.11949769,0.11918043,0.057342365,1.0957797e-11,1.0968062e-11,2.579712e-11,2.1280405e-06,2.1822764e-06,5e-08,0.00022237412,9.322843e-05,0.0006995022,0.00037392968,0.00012884973,0.0004908061,0.0,0.0,743,0.48854697,0.23946266,0.022149567,0.026534567,0.007893524,0.020571614,0.0,0.0,0.0,-0.00593,0,0,0,831,24,0,0,0
56734718,0.75346255,0.22533125,-0.029847536,0.6169515,3.6994207,6.950312,-2.119513,13.641477,7.8862915,-8.080534,-5.0635354e-05,7.753254e-06,4.3609925e-06,0.00011029894,5.2760555e-05,-1.32862115e-05,0.2162499,0.036191314,0.36661994,0.010294385,-0.020407718,0.0064252615,0.0,0.0,4.76909e-06,0.0016825671,0.026200088,2.3194947e-05,7.786065e-05,7.34796e-05,3.4139997e-05,0.036043376,0.03246854,0.020315977,0.11978172,0.11916104,0.059230626,1.0994226e-11,1.1014456e-11,2.5729764e-11,2.0257553e-06,2.0741768e-06,5.000007e-08,0.00017319479,8.0809616e-05,0.0006802208,0.0003087461,0.000112938214,0.00048465817,0.0,0.0,743,0.48881772,0.24337342,0.055375416,0.12267462,0.011258799,0.006222577,0.0,0.0,0.0,-0.005939,0,0,0,831,24,0,0,0
56934704,0.7079558,0.23457834,-0.032554958,0.665366,2.8735123,7.4060946,-2.090061,14.287722,9.321656,-8.518051,-5.0647213e-05,7.719847e-06,4.2907513e-06,8.069003e-05,3.8969747e-06,-9.521164e-06,0.21662015,0.036482807,0.36640963,0.009842868,-0.020558275,0.0061783316,0.0,0.0,4.0686327e-06,0.0015029836,0.02371274,2.6861462e-05,7.1105875e-05,6.708254e-05,3.0866257e-05,0.04110282,0.039713006,0.023475029,0.12014562,0.11926267,0.05966259,1.1040628e-11,1.1071735e-11,2.5663423e-11,1.8778214e-06,1.9264319e-06,5e-08,0.0001397233,7.025527e-05,0.0006663542,0.00026400166,9.826957e-05,0.00048186514,0.0,0.0,743,0.48929366,0.24425927,0.039565977,0.038401674,0.0073212385,0.022585215,0.0,0.0,0.0,-0.005936,0,0,0,831,24,0,0,0
57143515,0.66148686,0.24732198,-0.036913946,0.70703924,2.0057917,7.8500013,-2.0154262,14.810771,10.916148,-8.938905,-5.0643455e-05,7.747538e-06,4.348352e-06,7.8661666e-05,4.9613456e-05,-1.0768973e-05,0.21728085,0.036755834,0.36670864,0.008809841,-0.020998452,0.005784987,0.0,0.0,3.4511088e-06,0.0014325632,0.021977648,3.0506171e-05,6.2882544e-05,5.9570946e-05,2.7578611e-05,0.046298113,0.047586005,0.026747705,0.12129703,0.12020483,0.06076473,1.1105185e-11,1.1145971e-11,2.560652e-11,1.6912235e-06,1.7476185e-06,5.0000036e-08,0.00011775729,6.212487e-05,0.00065563153,0.00023613637,8.611669e-05,0.00047935345,0.0,0.0,743,0.4914284,0.24650504,0.033579577,0.02370867,0.008844555,0.05876851,0.0,0.0,0.0,-0.005924,0,0,0,831,24,0,0,0
57343499,0.6271453,0.2547937,-0.04551496,0.73464096,1.1608618,8.268522,-1.9127373,15.137738,12.5429535,-9.307331,-5.0654966e-05,7.792712e-06,4.452981e-06,-1.4628907e-05,0.00013194478,-1.4899334e-05,0.21838145,0.037112243,0.36710194,0.0076010404,-0.021580609,0.0052035027,0.0,0.0,2.6526723e-06,0.0012916549,0.021872757,3.3177806e-05,5.420996e-05,5.1638606e-05,2.478237e-05,0.050021693,0.053656656,0.029113663,0.12178276,0.12065474,0.061568286,1.1175688e-11,1.1222791e-11,2.5550144e-11,1.482463e-06,1.552453e-06,5.0000036e-08,9.942859e-05,5.4530494e-05,0.0006432503,0.00021328533,7.4704294e-05,0.0004751813,0.0,0.0,743,0.49237943,0.24812958,0.03317938,0.056299254,0.00783229,0.012108299,0.0,0.0,0.0,-0.005941,0,0,0,831,24,0,0,0
57543502,0.61474884,0.25887495,-0.08149965,0.74055755,0.31721643,8.729163,-1.8407731,15.282797,14.235675,-9.658091,-5.0646755e-05,7.811592e-06,4.468927e-06,-5.759576e-05,0.00011919975,-2.330731e-05,0.21975364,0.037571244,0.3676925,0.0059748692,-0.021619914,0.0046168463,0.0,0.0,2.5721713e-06,0.0013462359,0.023225894,3.4538916e-05,4.5727633e-05,4.364033e-05,2.3245817e-05,0.05242927,0.057511684,0.030827947,0.12217072,0.12111791,0.063375905,1.12558565e-11,1.1305604e-11,2.5507627e-11,1.2708175e-06,1.3550493e-06,5e-08,8.490972e-05,4.7427446e-05,0.0006192957,0.00019267111,6.354426e-05,0.0004624067,0.0,0.0,743,0.49324298,0.2517457,0.058375467,0.01971323,0.009234024,0.020723367,0.0,0.0,0.0,-0.00594,0,0,0,831,24,0,0,0
57743526,0.6246389,0.20316471,-0.09266353,0.7483073,-0.333265,9.23742,-1.7571155,15.300779,16.06073,-9.964173,-5.0635386e-05,7.859218e-06,4.6164896e-06,-0.00011265803,0.00026865964,-3.304403e-05,0.22077587,0.037517086,0.36819327,0.004858612,-0.02186053,0.004115979,0.0,0.0,2.5398133e-06,0.0013519257,0.022130547,3.3833898e-05,3.963424e-05,3.7281086e-05,2.1481861e-05,0.0535887,0.058974802,0.030737698,0.12258606,0.121673435,0.06406621,1.134217e-11,1.1390792e-11,2.548511e-11,1.0747176e-06,1.1765379e-06,5e-08,7.54166e-05,4.310349e-05,0.0005932967,0.00017647528,5.7319256e-05,0.00044777704,0.0,0.0,743,0.49422616,0.25311303,0.03330852,0.062660895,0.0088155735,0.009918119,0.0,0.0,0.0,-0.005913,0,0,0,831,24,0,0,0
57952310,0.64017636,0.13530298,-0.09548464,0.7501667,-0.71427405,9.559237,-1.8546647,15.201506,18.025364,-10.349808,-5.062571e-05,7.854366e-06,4.620276e-06,-4.4341283e-05,0.00030127133,-3.3612494e-05,0.22072233,0.037315533,0.36816853,0.0046707173,-0.021692097,0.004008853,0.0,0.0,3.0605663e-06,0.0012974408,0.021314781,3.256872e-05,3.4188663e-05,3.196716e-05,2.07388e-05,0.054434184,0.059342235,0.028574714,0.12374901,0.12301366,0.06403423,1.1437603e-11,1.1482454e-11,2.5496699e-11,9.017407e-07,1.0190466e-06,5.0000036e-08,6.5921005e-05,3.9106228e-05,0.0005450155,0.00015149961,5.2351745e-05,0.000418939,0.0,0.0,743,0.4967521,0.25304985,0.038091496,0.040807746,0.005782398,0.021393446,0.0,0.0,0.0,-0.0059309998,0,0,0,831,24,0,0,0
58152323,0.6572779,0.05122954,-0.15656413,0.73542446,-0.6384331,9.729879,-1.9462391,15.115765,19.966093,-10.775283,-5.059969e-05,7.814578e-06,4.653793e-06,0.00010836055,0.00046797935,-2.3647975e-05,0.22073889,0.036506563,0.36806032,0.004328912,-0.021195278,0.00416153,0.0,0.0,3.1615032e-06,0.0013162032,0.022943342,3.084855e-05,3.0053814e-05,2.7570024e-05,2.0507809e-05,0.05350993,0.05722871,0.025435865,0.12392926,0.123385526,0.06502206,1.1528138e-11,1.1569487e-11,2.5539753e-11,7.586448e-07,8.8170805e-07,5.0000068e-08,5.7318848e-05,3.51708e-05,0.00043933067,0.00011349846,4.609124e-05,0.00034758588,0.0,0.0,743,0.49730754,0.25499424,0.058878385,0.11139182,0.0063714655,0.05138986,0.0,0.0,0.0,-0.005918,0,0,0,831,24,0,0,0
58352302,0.6668718,-0.020425163,-0.19553843,0.71876955,-0.14025421,9.809861,-1.9953501,15.082692,21.91664,-11.23664,-5.059188e-05,7.761925e-06,4.609283e-06,0.00028541428,0.00055487937,-1.2838466e-05,0.22081946,0.03581275,0.36888847,0.0035471905,-0.020609442,0.0036225223,0.0,0.0,2.833008e-06,0.0014631433,0.023872914,2.9224946e-05,2.659165e-05,2.4292527e-05,2.0625714e-05,0.051803857,0.054349132,0.021723516,0.124129,0.123757996,0.064590834,1.1618294e-11,1.1657e-11,2.5613976e-11,6.427641e-07,7.6720147e-07,5.000007e-08,5.220979e-05,3.2726995e-05,0.00033388168,8.4429674e-05,4.0703904e-05,0.00027150262,0.0,0.0,743,0.49788252,0.25414726,0.100752495,0.09451008,0.005663742,0.03853484,0.0,0.0,0.0,-0.005939,0,0,0,831,24,0,0,0
58560313,0.6710475,-0.0691344,-0.21056111,0.7075167,0.6462532,9.795453,-2.0047774,15.1869955,23.947632,-11.732109,-5.0595518e-05,7.70038e-06,4.5394368e-06,0.00047012328,0.00062244973,-1.0169316e-06,0.22086073,0.03511225,0.3700262,0.002659271,-0.02001831,0.0028321564,0.0,0.0,2.473579e-06,0.0017241471,0.024763834,2.82158e-05,2.3386194e-05,2.1802261e-05,2.0893174e-05,0.049966373,0.051890414,0.018480571,0.12502585,0.12480932,0.064241074,1.1711253e-11,1.1749717e-11,2.5703158e-11,5.5055716e-07,6.701778e-07,5.0000036e-08,4.8518505e-05,3.0787978e-05,0.00024891846,6.34917e-05,3.6208876e-05,0.0002086624,0.0,0.0,743,0.49983513,0.25345823,0.07668448,0.095422395,0.007227681,0.029071687,0.0,0.0,0.0,-0.005926,0,0,0,831,24,0,0,0
58761149,0.6714724,-0.10709024,-0.21003246,0.70252615,1.5079702,9.711507,-2.0080423,15.423497,25.93136,-12.200531,-5.059766e-05,7.652501e-06,4.4565695e-06,0.0005310518,0.000702889,1.8301092e-05,0.22106549,0.03454895,0.3699509,0.0023842293,-0.019517798,0.00291431,0.0,0.0,2.299587e-06,0.0018678796,0.025873624,2.7723656e-05,2.0381454e-05,1.9995909e-05,2.1096976e-05,0.04771195,0.049560513,0.015913043,0.12499897,0.12490293,0.06317233,1.1800048e-11,1.1841484e-11,2.5775042e-11,4.7720334e-07,5.877892e-07,5e-08,4.615367e-05,2.9554487e-05,0.00020305939,5.3027303e-05,3.3602e-05,0.00017420934,0.0,0.0,743,0.4999019,0.25134107,0.091835395,0.056349322,0.021139706,0.055608205,0.0,0.0,0.0,-0.005932,0,0,0,831,24,0,0,0
58961105,0.67321336,-0.1347581,-0.20878647,0.69644266,2.394346,9.500326,-1.897362,15.82483,27.854937,-12.623735,-5.0612187e-05,7.629619e-06,4.440242e-06,0.0005835387,0.00070349,2.0561918e-05,0.22123563,0.034013484,0.37039042,0.0019256594,-0.018949108,0.0025258542,0.0,0.0,1.9945467e-06,0.0016410683,0.02398058,2.733579e-05,1.7855897e-05,1.8498647e-05,2.1427286e-05,0.045494605,0.04753686,0.014168678,0.124951474,0.124958254,0.06287096,1.1885246e-11,1.193268e-11,2.5806303e-11,4.1959353e-07,5.1780745e-07,5.0000036e-08,4.409229e-05,2.8284845e-05,0.00016170059,4.4113243e-05,3.1031108e-05,0.00014272073,0.0,0.0,743,0.49990973,0.25074083,0.07823878,0.05409315,0.030316437,0.014482454,0.0,0.0,0.0,-0.005935,0,0,0,831,24,0,0,0
59161113,0.6933315,-0.1546022,-0.19439882,0.67646044,3.2015693,9.191846,-1.7633113,16.347761,29.712866,-13.013906,-5.0670493e-05,7.631024e-06,4.495429e-06,0.00056713534,0.0006053335,2.4759398e-05,0.22134055,0.033814684,0.3706922,0.0016946162,-0.018597703,0.0021685692,0.0,0.0,2.5397785e-06,0.0015863309,0.023422087,2.582574e-05,1.5575626e-05,1.7214086e-05,2.3002442e-05,0.04337997,0.045602288,0.01297897,0.12493931,0.12502573,0.06244676,1.196653e-11,1.2023241e-11,2.5759322e-11,3.7290536e-07,4.5756792e-07,5.000007e-08,4.271351e-05,2.7417047e-05,0.00013972032,3.9664304e-05,2.9541481e-05,0.00012578383,0.0,0.0,743,0.49996504,0.24989349,0.06817416,0.07155493,0.027693186,0.0011644993,0.0,0.0,0.0,-0.005926,0,0,0,831,24,0,0,0
59369105,0.7385167,-0.17336774,-0.18052784,0.6260564,4.011703,8.768397,-1.6835746,17.055222,31.564524,-13.352257,-5.072514e-05,7.64944e-06,4.4891062e-06,0.00052054843,0.0005093179,1.649847e-05,0.22129284,0.03353638,0.37125704,0.0013137142,-0.018405229,0.0016477903,0.0,0.0,3.5488176e-06,0.0015322512,0.022226648,2.218067e-05,1.3768229e-05,1.6119977e-05,2.6316548e-05,0.041559357,0.04382463,0.012102799,0.12560783,0.12577282,0.061382513,1.204456e-11,1.2114758e-11,2.5595057e-11,3.3411962e-07,4.055801e-07,5.0000036e-08,4.1482468e-05,2.6399377e-05,0.000117843,3.5710455e-05,2.797709e-05,0.00010851655,0.0,0.0,743,0.5013788,0.24775495,0.079984084,0.069862194,0.0135083,0.018006863,0.0,0.0,0.0,-0.005935,0,0,0,831,24,0,0,0
59569928,0.793179,-0.17718332,-0.18634093,0.55204195,4.766101,8.197883,-1.6923069,17.852442,33.23939,-13.700532,-5.084717e-05,7.645659e-06,4.6918058e-06,0.00044263562,0.0003666569,1.8665343e-05,0.22105867,0.033491407,0.37202698,0.0008865927,-0.018564578,0.00096251897,0.0,0.0,3.749566e-06,0.0013668784,0.020925831,1.7631417e-05,1.2708406e-05,1.4750528e-05,3.0465282e-05,0.039537817,0.04148212,0.011529903,0.12562378,0.12584338,0.060064036,1.2116542e-11,1.22035e-11,2.5377953e-11,3.0258795e-07,3.619109e-07,5e-08,4.049405e-05,2.5613055e-05,0.0001040178,3.3807773e-05,2.6868001e-05,9.7093194e-05,0.0,0.0,743,0.501465,0.24507965,0.0896485,0.16159472,0.010435766,0.01786466,0.0,0.0,0.0,-0.005913,0,0,0,831,24,0,0,0
59769890,0.8419668,-0.17418645,-0.19574854,0.4716286,5.5376997,7.5823274,-1.6537547,18.894392,34.78339,-14.044398,-5.0893617e-05,7.5868866e-06,4.7075537e-06,0.00048810456,0.00031979498,6.138006e-06,0.22030722,0.033284012,0.37300867,0.0004838459,-0.01890953,0.00028024073,0.0,0.0,4.0637306e-06,0.0013843582,0.021461423,1.331009e-05,1.19119395e-05,1.3473469e-05,3.436119e-05,0.037310135,0.038659185,0.011320713,0.12576279,0.12602739,0.059797257,1.2189333e-11,1.2294622e-11,2.5115035e-11,2.7731713e-07,3.2583085e-07,5e-08,3.949058e-05,2.4971107e-05,9.503394e-05,3.298736e-05,2.5939162e-05,8.921968e-05,0.0,0.0,743,0.50178695,0.24453478,0.07978802,0.117800064,0.0049959314,0.005710051,0.0,0.0,0.0,-0.005951,0,0,0,831,24,0,0,0
59977923,0.88062227,-0.1720434,-0.19450387,0.39632532,6.2692194,6.900105,-1.60876,20.127735,36.235386,-14.37295,-5.0922183e-05,7.4826926e-06,4.8664047e-06,0.00052500964,0.00026419788,-2.0525442e-05,0.2194588,0.03315603,0.3737678,0.00013173623,-0.019397844,-0.00020270671,0.0,0.0,3.4828588e-06,0.0011989442,0.021573646,9.615699e-06,1.01134565e-05,1.1759943e-05,3.6608362e-05,0.029902052,0.030270653,0.010932794,0.111182004,0.11112142,0.058162533,1.223935e-11,1.2374681e-11,2.4425042e-11,2.418404e-07,2.738469e-07,5e-08,3.80874e-05,2.4317735e-05,8.8339424e-05,3.256822e-05,2.4997069e-05,8.303589e-05,0.0,0.0,743,0.47149065,0.2411691,0.11556881,0.13039005,0.010038078,0.013514477,0.0,0.0,0.0,-0.005917,0,0,0,831,24,0,0,0
60177901,0.90917045,-0.17562214,-0.18287936,0.33033502,6.880544,6.2351613,-1.61903,21.439116,37.54263,-14.69001,-5.0948198e-05,7.445336e-06,4.9266914e-06,0.0005167365,0.00025337376,-2.7598526e-05,0.21903816,0.033171717,0.37407005,-9.0139285e-05,-0.019753624,-0.00039359767,0.0,0.0,3.3343044e-06,0.0011986353,0.02093028,6.934339e-06,9.410493e-06,1.1314673e-05,3.852183e-05,0.028352804,0.028005816,0.010883542,0.11155698,0.11154306,0.057346273,1.2305085e-11,1.24569305e-11,2.4053298e-11,2.2855137e-07,2.5605334e-07,5e-08,3.679795e-05,2.3656468e-05,8.326738e-05,3.226661e-05,2.4006897e-05,7.8013785e-05,0.0,0.0,743,0.47233465,0.23947082,0.049999878,0.08761549,0.012930027,0.04292318,0.0,0.0,0.0,-0.005939,0,0,0,831,24,0,0,0
60378712,0.9294177,-0.1860901,-0.1756531,0.26589328,7.4211345,5.471827,-1.6985718,22.849495,38.69087,-15.042285,-5.104566e-05,7.359718e-06,5.235745e-06,0.00051587564,0.00021019697,-2.9482959e-05,0.21862023,0.033280782,0.37437874,-0.00037201252,-0.020169638,-0.00049728836,0.0,0.0,3.6021809e-06,0.0012709907,0.021090636,4.8356555e-06,8.889371e-06,1.1109305e-05,3.9524482e-05,0.027084975,0.02588688,0.010976164,0.11191973,0.11194651,0.057489652,1.2368879e-11,1.2534741e-11,2.3655328e-11,2.1820364e-07,2.424582e-07,5e-08,3.535995e-05,2.2961805e-05,7.91638e-05,3.1942574e-05,2.2964692e-05,7.373077e-05,0.0,0.0,743,0.47314504,0.23977,0.05329397,0.07816778,0.010039676,0.0047458126,0.0,0.0,0.0,-0.005928,0,0,0,831,24,0,0,0
60578725,0.9448878,-0.20488434,-0.17128438,0.18939663,7.8213544,4.63627,-1.6738613,24.322142,39.677998,-15.387887,-5.119807e-05,7.236568e-06,5.875148e-06,0.00048783293,0.0001328458,-3.7415586e-05,0.21846841,0.033369616,0.37454727,-0.00069945137,-0.020527264,-0.0006185932,0.0,0.0,4.136387e-06,0.0012960263,0.022442019,2.984999e-06,8.512981e-06,1.1162442e-05,3.996678e-05,0.025987735,0.02378901,0.01110886,0.11233292,0.112392284,0.057699062,1.2431908e-11,1.2609255e-11,2.3244861e-11,2.1010658e-07,2.3227778e-07,5.0000036e-08,3.375918e-05,2.2227216e-05,7.569421e-05,3.1540436e-05,2.184753e-05,6.9913716e-05,0.0,0.0,743,0.4740519,0.24020629,0.04418619,0.18391955,0.009401699,0.037152022,0.0,0.0,0.0,-0.005916,0,0,0,831,24,0,0,0
60786732,0.95620686,-0.22000785,-0.17302276,0.08560365,8.164848,3.6913667,-1.5662587,25.97802,40.515907,-15.768571,-5.126541e-05,7.1238364e-06,6.105893e-06,0.0005119156,0.00010977385,-3.2624397e-05,0.21798281,0.033499423,0.37478486,-0.000986603,-0.02094894,-0.00071620924,0.0,0.0,4.4112976e-06,0.0012690191,0.0232479,1.3804522e-06,8.320201e-06,1.1179141e-05,4.0007002e-05,0.025156932,0.021744646,0.011166215,0.11312138,0.11319508,0.05665721,1.249087e-11,1.2677559e-11,2.280051e-11,2.0369025e-07,2.248032e-07,5e-08,3.169185e-05,2.132662e-05,7.2352515e-05,3.094346e-05,2.043846e-05,6.598108e-05,0.0,0.0,743,0.4757273,0.23802775,0.031943806,0.098280214,0.011542874,0.06545041,0.0,0.0,0.0,-0.005907,0,0,0,831,24,0,0,0
60986744,0.9619546,-0.20813902,-0.1767324,-0.009343262,8.423897,2.7167091,-1.5396558,27.615873,41.110615,-16.124823,-5.1345938e-05,6.955841e-06,6.538793e-06,0.000534479,7.601845e-05,-3.0035464e-05,0.21777315,0.03366941,0.37491623,-0.0012897897,-0.021261977,-0.0006277417,0.0,0.0,4.3650357e-06,0.0013838818,0.023782741,6.9290985e-07,8.269087e-06,1.0596105e-05,3.961858e-05,0.024555333,0.0199047,0.011412622,0.113332845,0.11339453,0.057072353,1.2545555e-11,1.2735638e-11,2.235668e-11,1.9902886e-07,2.1963889e-07,5.0000036e-08,2.9869023e-05,2.0552985e-05,7.06225e-05,3.0262623e-05,1.9259436e-05,6.371998e-05,0.0,0.0,743,0.47615898,0.2388982,0.07207165,0.10315955,0.017048927,0.005942717,0.0,0.0,0.0,-0.005895,0,0,0,831,24,0,0,0
61188304,0.9546949,-0.18946,-0.21843538,-0.07034579,8.665509,1.8289115,-1.5037807,29.28647,41.52086,-16.427364,-5.138771e-05,6.7528185e-06,7.0408555e-06,0.0005341285,5.3559415e-05,-4.201027e-05,0.21762684,0.033814322,0.37497497,-0.0015653616,-0.02164686,-0.00052653684,0.0,0.0,4.7368653e-06,0.0014397355,0.024570936,7.3665404e-07,8.646828e-06,9.76359e-06,3.829464e-05,0.024060242,0.01842667,0.011585916,0.113490164,0.11350557,0.05672625,1.2593457e-11,1.278367e-11,2.190359e-11,1.9541417e-07,2.1608524e-07,5e-08,2.7827728e-05,1.9682808e-05,6.944311e-05,2.9403158e-05,1.7950411e-05,6.196934e-05,0.0,0.0,743,0.4764407,0.23817274,0.07940551,0.102162205,0.023503484,0.0051585506,0.0,0.0,0.0,-0.005938,0,0,0,831,24,0,0,0
61396340,0.9388353,-0.18583488,-0.23945722,-0.1634437,8.9719515,0.94200677,-1.4195856,31.109064,41.76478,-16.752476,-5.1417184e-05,6.526593e-06,7.498586e-06,0.000544058,4.2251286e-05,-4.6301186e-05,0.2174018,0.034015577,0.37496185,-0.0017974892,-0.022093952,-0.00023281088,0.0,0.0,4.2917973e-06,0.0012186668,0.0246549,1.3242734e-06,8.815508e-06,9.384379e-06,3.6229616e-05,0.023892725,0.017416652,0.011856039,0.11422079,0.114136115,0.056878407,1.2644031e-11,1.2829753e-11,2.1464542e-11,1.9257261e-07,2.1363354e-07,5.0000036e-08,2.5593643e-05,1.8749492e-05,6.8630696e-05,2.8385231e-05,1.6531189e-05,6.059596e-05,0.0,0.0,743,0.47786704,0.23849194,0.103702635,0.12292789,0.025239037,0.023209406,0.0,0.0,0.0,-0.005899,0,0,0,831,24,0,0,0
61596299,0.9184357,-0.18692186,-0.22195072,-0.26883796,9.192909,-0.005178102,-1.387245,32.93594,41.814297,-17.07235,-5.1375035e-05,6.4158585e-06,7.669276e-06,0.0005631532,3.565222e-05,-3.9458384e-05,0.21770748,0.03435863,0.37486103,-0.0021267135,-0.021956133,0.00027251826,0.0,0.0,4.1415074e-06,0.0010975011,0.023568382,2.6752095e-06,8.487692e-06,9.254353e-06,3.3615954e-05,0.02411499,0.01666639,0.012127302,0.11433155,0.11411775,0.056685537,1.2679127e-11,1.28587314e-11,2.1031175e-11,1.901982e-07,2.1189011e-07,5e-08,2.3600433e-05,1.7897031e-05,6.818801e-05,2.7309246e-05,1.528133e-05,5.973081e-05,0.0,0.0,743,0.47796372,0.23808725,0.08995807,0.11748076,0.02839929,0.051632926,0.0,0.0,0.0,-0.005941,0,0,0,831,24,0,0,0
61797097,0.8815756,-0.18623677,-0.21602346,-0.37613082,9.200352,-0.93906635,-1.3311822,34.756298,41.674187,-17.349138,-5.1324154e-05,6.231237e-06,8.08114e-06,0.0005580933,3.8217928e-05,-4.6559126e-05,0.21858752,0.034710575,0.37477952,-0.002732209,-0.021591643,0.00079843344,0.0,0.0,5.561784e-06,0.0013123566,0.02412794,4.853243e-06,8.295409e-06,9.0033745e-06,3.0092879e-05,0.024543425,0.016158037,0.012447331,0.11431762,0.11392874,0.056613322,1.2705464e-11,1.2877903e-11,2.0599803e-11,1.8791592e-07,2.1032434e-07,5.0000036e-08,2.1435813e-05,1.6929027e-05,6.7939836e-05,2.5902202e-05,1.3923982e-05,5.914445e-05,0.0,0.0,743,0.47775134,0.23793554,0.10381496,0.13532388,0.033453323,0.012192507,0.0,0.0,0.0,-0.005943,0,0,0,831,24,0,0,0
62005102,0.82682514,-0.18697576,-0.20644006,-0.48865405,9.029578,-1.9455742,-1.2355912,36.634933,41.316444,-17.634819,-5.1208917e-05,6.031637e-06,8.430382e-06,0.00054450356,3.5671543e-05,-4.3918437e-05,0.21950029,0.034897372,0.37473455,-0.0031969917,-0.021123055,0.0011698478,0.0,0.0,6.51637e-06,0.0024562562,0.028963817,7.9106285e-06,8.0311775e-06,8.766398e-06,2.5831456e-05,0.025476031,0.016063148,0.012812279,0.1147781,0.11412086,0.056216143,1.2728416e-11,1.2897349e-11,2.021257e-11,1.8534726e-07,2.0861434e-07,5e-08,1.9582374e-05,1.608005e-05,6.776713e-05,2.461433e-05,1.2774521e-05,5.8747577e-05,0.0,0.0,743,0.47843388,0.23709944,0.06260157,0.15990998,0.03561816,0.036762457,0.0,0.0,0.0,-0.005937,0,0,0,831,24,0,0,0
62205104,0.8129583,-0.16656108,-0.18866706,-0.52512944,8.798869,-2.8416817,-1.2750453,38.41146,40.815502,-17.906296,-5.1174833e-05,6.0153066e-06,8.453518e-06,0.00053499837,2.925983e-05,-4.4183587e-05,0.22036007,0.03491092,0.37486944,-0.003449862,-0.020427378,0.0013881056,0.0,0.0,5.189582e-06,0.0024744978,0.033468533,8.862759e-06,7.688262e-06,8.17982e-06,2.4078641e-05,0.026427366,0.016444057,0.013272904,0.11472771,0.113781326,0.057080425,1.2739523e-11,1.2905313e-11,1.9852233e-11,1.8237415e-07,2.0646016e-07,5e-08,1.7911956e-05,1.5258895e-05,6.762376e-05,2.3273698e-05,1.1746963e-05,5.854008e-05,0.0,0.0,743,0.47802618,0.2389151,0.087452725,0.17000271,0.037580047,0.06548932,0.0,0.0,0.0,-0.005937,0,0,0,831,24,0,0,0
62405136,0.81182724,-0.17894441,-0.14302994,-0.5370829,8.393718,-3.6064806,-1.343744,40.081734,40.108047,-18.208998,-5.1043982e-05,5.761864e-06,8.865858e-06,0.0005036453,3.9638257e-05,-3.215434e-05,0.22154577,0.034912582,0.3748386,-0.0039274013,-0.019807536,0.0016310505,0.0,0.0,4.189373e-06,0.002321141,0.03381018,8.948903e-06,7.1530226e-06,7.986347e-06,2.3103861e-05,0.02713764,0.017185919,0.013507236,0.114747666,0.11345968,0.0571276,1.2739729e-11,1.2908878e-11,1.9538779e-11,1.7854151e-07,2.0360514e-07,5e-08,1.652036e-05,1.449474e-05,6.741441e-05,2.2048525e-05,1.0898313e-05,5.8347367e-05,0.0,0.0,743,0.47771052,0.2390138,0.091916814,0.19885992,0.041381925,0.054517984,0.0,0.0,0.0,-0.005906,0,0,0,831,24,0,0,0
62613902,0.8129025,-0.2055947,-0.09631653,-0.53632414,7.793067,-4.3492217,-1.4518366,41.723206,39.235767,-18.501795,-5.0899973e-05,5.561534e-06,9.140451e-06,0.00046544275,5.9921065e-05,-3.1613068e-05,0.22264768,0.03491054,0.3744796,-0.0042652325,-0.019237349,0.0020884576,0.0,0.0,3.2857613e-06,0.0021332724,0.033225134,8.675681e-06,6.725134e-06,7.851924e-06,2.2516335e-05,0.028070623,0.018392546,0.013767206,0.115435645,0.113686554,0.057567928,1.2738648e-11,1.2914601e-11,1.9283517e-11,1.7393438e-07,2.0002835e-07,5e-08,1.5363275e-05,1.3787122e-05,6.695888e-05,2.1012656e-05,1.02062795e-05,5.7891164e-05,0.0,0.0,743,0.4786671,0.23993318,0.0912507,0.19677451,0.044645652,0.01677744,0.0,0.0,0.0,-0.005937,32,0,0,831,24,0,0,0
62813929,0.80999655,-0.2404129,-0.08436617,-0.52819467,7.1015797,-5.003038,-1.3539873,43.15958,38.237602,-18.777514,-5.065783e-05,5.267538e-06,9.452844e-06,0.00040519945,9.9269906e-05,-2.853292e-05,0.22374971,0.03488985,0.37383798,-0.0045086853,-0.018783737,0.002647624,0.0,0.0,4.3626374e-06,0.0023180621,0.036432438,8.326826e-06,6.3665575e-06,7.667647e-06,2.2091941e-05,0.028435176,0.019515106,0.013981588,0.115750395,0.11358574,0.05843503,1.273174e-11,1.2914939e-11,1.9072148e-11,1.6861821e-07,1.9573788e-07,5e-08,1.43948755e-05,1.3137793e-05,6.625167e-05,2.0179117e-05,9.646382e-06,5.716045e-05,0.0,0.0,743,0.47889054,0.24173339,0.08083523,0.21818268,0.056425188,0.026801912,0.0,0.0,0.0,-0.005911,0,0,0,831,24,0,0,0
63013908,0.8002639,-0.27840918,-0.13383646,-0.513959,6.5415955,-5.6193795,-0.91890514,44.515614,37.130886,-18.962305,-5.040538e-05,5.2429878e-06,9.304893e-06,0.00034571526,9.743807e-05,-3.5647106e-05,0.22427885,0.03512309,0.37337467,-0.004523532,-0.018491626,0.003201665,0.0,0.0,3.8664966e-06,0.002157448,0.034428384,8.129129e-06,6.08402e-06,7.4076306e-06,2.1678497e-05,0.028390508,0.020377496,0.014169144,0.11603232,0.11347228,0.059208594,1.27210855e-11,1.2911957e-11,1.890367e-11,1.6265577e-07,1.9083747e-07,5.0000036e-08,1.3582126e-05,1.2574786e-05,6.560895e-05,1.9679976e-05,9.1805705e-06,5.639251e-05,0.0,0.0,743,0.47906637,0.24332817,0.042494796,0.20741068,0.052024465,0.037383813,0.0,0.0,0.0,-0.005933,0,0,0,831,24,0,0,0
63221923,0.7892712,-0.29196876,-0.1704346,-0.5125987,6.042773,-6.3351727,-0.32317954,45.817043,35.839622,-19.00194,-5.0091956e-05,5.220025e-06,9.098519e-06,0.00027049048,0.000100456906,-5.0784925e-05,0.2246951,0.03544175,0.3730174,-0.0044787405,-0.018329075,0.0037155654,0.0,0.0,2.7495917e-06,0.0018302152,0.029779622,8.324583e-06,5.9334407e-06,6.937508e-06,2.1090967e-05,0.028501337,0.021192659,0.014229446,0.11682353,0.113815844,0.058590002,1.2711433e-11,1.2913291e-11,1.8768181e-11,1.5602976e-07,1.8548259e-07,5e-08,1.2755441e-05,1.2015755e-05,6.486393e-05,1.9352943e-05,8.6817945e-06,5.5430024e-05,0.0,0.0,743,0.4802493,0.24205372,0.09647566,0.1820416,0.05330916,0.042123333,0.0,0.0,0.0,-0.005918,0,0,0,831,24,0,0,0
63422757,0.79727226,-0.25725698,-0.15986413,-0.52212954,5.627922,-7.129533,-0.07166228,46.98255,34.44965,-18.97005,-4.987099e-05,5.236022e-06,8.90864e-06,0.00021452332,9.517148e-05,-6.171051e-05,0.22498286,0.03567849,0.37281418,-0.0044206483,-0.018176956,0.0040639597,0.0,0.0,2.5641905e-06,0.0015463232,0.026699511,8.490587e-06,5.7489096e-06,6.20151e-06,2.095464e-05,0.02883019,0.022137538,0.014443178,0.117143534,0.11381534,0.059411343,1.27042795e-11,1.2913e-11,1.8659968e-11,1.4937113e-07,1.7984428e-07,5.0000036e-08,1.2088126e-05,1.15385465e-05,6.439466e-05,1.909528e-05,8.295356e-06,5.482321e-05,0.0,0.0,743,0.48058182,0.24374442,0.030379608,0.14533527,0.054950405,0.019171085,0.0,0.0,0.0,-0.005882,0,0,0,831,24,0,0,0
63622776,0.807537,-0.1944005,-0.14444762,-0.53779864,5.2930074,-7.733529,-0.061225157,48.069084,32.915382,-18.927357,-4.969405e-05,5.2184932e-06,8.801617e-06,0.00016872585,9.8762794e-05,-7.151149e-05,0.22533228,0.03585383,0.3727066,-0.0044622007,-0.018000605,0.0043050763,0.0,0.0,4.12923e-06,0.0015551159,0.029145144,8.760172e-06,5.593184e-06,5.5546275e-06,2.0747246e-05,0.028980147,0.023173604,0.014271728,0.11758108,0.113976724,0.059320223,1.2697963e-11,1.2916475e-11,1.8581229e-11,1.4232066e-07,1.7386664e-07,5e-08,1.1519127e-05,1.1102018e-05,6.42006e-05,1.874007e-05,7.993108e-06,5.4647116e-05,0.0,0.0,743,0.48120454,0.24355744,0.09722221,0.13319212,0.053784676,0.045793854,0.0,0.0,0.0,-0.005881,0,0,0,831,24,0,0,0
63830701,0.741795,-0.2172462,-0.083679765,-0.6289212,4.766305,-8.182914,-0.21331741,49.072887,31.19621,-18.929121,-4.944832e-05,5.0509193e-06,8.812906e-06,0.00010636903,0.0001349062,-5.833371e-05,0.22612678,0.035931587,0.37242144,-0.004626174,-0.017652126,0.0046286965,0.0,0.0,8.277617e-06,0.0020286466,0.034902833,1.1636028e-05,5.146465e-06,5.4270904e-06,1.7849943e-05,0.029168058,0.02445245,0.01412743,0.118543245,0.11467898,0.060239542,1.2698259e-11,1.2922747e-11,1.8526665e-11,1.3525084e-07,1.6755915e-07,5e-08,1.0872239e-05,1.05976615e-05,6.3864856e-05,1.8156756e-05,7.6477245e-06,5.4419565e-05,0.0,0.0,743,0.48293087,0.24543746,0.08318413,0.1346673,0.059348658,0.07436535,0.0,0.0,0.0,-0.005939,0,0,0,831,24,0,0,0
64030721,0.64713836,-0.22651339,-0.06140378,-0.72535044,3.9605162,-8.526503,-0.38299337,49.893185,29.49176,-19.014755,-4.9388203e-05,4.8580932e-06,8.874062e-06,9.3444265e-05,0.00018157647,-4.931345e-05,0.2267654,0.03559354,0.37201366,-0.0045471992,-0.017237982,0.005029297,0.0,0.0,9.531413e-06,0.0020984113,0.034864556,1.541386e-05,4.881446e-06,5.2146665e-06,1.4017528e-05,0.02920067,0.025564088,0.01398379,0.11906753,0.11509855,0.06067443,1.27009965e-11,1.292905e-11,1.8489805e-11,1.2823277e-07,1.6102935e-07,5e-08,1.0276799e-05,1.0129101e-05,6.340325e-05,1.7588696e-05,7.349363e-06,5.4059343e-05,0.0,0.0,743,0.4839071,0.2463218,0.073986225,0.18090878,0.06229008,0.015417648,0.0,0.0,0.0,-0.005919,0,0,0,831,24,0,0,0
64232316,0.54521763,-0.22573748,-0.0493924,-0.8058169,3.011777,-8.727919,-0.49688533,50.522808,27.726465,-19.149572,-4.9317423e-05,4.649743e-06,8.843186e-06,7.42386e-05,0.00023679892,-2.9920917e-05,0.22732337,0.035074588,0.3714116,-0.0042575616,-0.016747959,0.005457844,0.0,0.0,8.705095e-06,0.0027160551,0.035201196,1.9063153e-05,4.672513e-06,4.961822e-06,1.0345735e-05,0.029006505,0.026414229,0.013715821,0.11955901,0.11557463,0.06016297,1.2710132e-11,1.293881e-11,1.8464412e-11,1.2122229e-07,1.5424038e-07,5e-08,9.685285e-06,9.682883e-06,6.299096e-05,1.7025093e-05,7.057952e-06,5.3749973e-05,0.0,0.0,743,0.4849058,0.24528141,0.0876255,0.22692768,0.060807656,0.07744495,0.0,0.0,0.0,-0.005925,0,0,0,831,24,0,0,0
64440314,0.51261467,-0.21820274,-0.044567537,-0.82923317,2.0815585,-8.82899,-0.418014,50.98865,25.838093,-19.236883,-4.9179645e-05,4.47419e-06,8.673809e-06,3.3502296e-05,0.00029426464,-2.1317674e-05,0.22786422,0.034587573,0.37072992,-0.003910473,-0.016217038,0.0059227846,0.0,0.0,5.7811226e-06,0.0024493795,0.046592608,2.0285184e-05,4.463925e-06,4.656387e-06,9.237256e-06,0.02876271,0.027030746,0.013351268,0.120710835,0.11673082,0.059238095,1.2736258e-11,1.2962432e-11,1.8457399e-11,1.1447963e-07,1.474283e-07,5e-08,9.128913e-06,9.273258e-06,6.263747e-05,1.6493865e-05,6.7868996e-06,5.3507138e-05,0.0,0.0,743,0.48727986,0.24338877,0.10394749,0.2148104,0.06556828,0.0012881146,0.0,0.0,0.0,-0.005952,0,0,0,831,24,0,0,0
64640315,0.5089601,-0.22659166,-0.035013516,-0.8296926,1.1955869,-8.873568,-0.3743378,51.254807,24.022293,-19.289316,-4.9055092e-05,4.3378e-06,8.50396e-06,-4.7615595e-06,0.00034308087,-1.8164505e-05,0.22829957,0.034214772,0.37007487,-0.0036107819,-0.01579503,0.0063482467,0.0,0.0,4.193391e-06,0.0024788377,0.04198863,2.0452764e-05,4.242465e-06,4.4189433e-06,9.1920665e-06,0.028432831,0.027360715,0.013058651,0.12116977,0.11734003,0.05882188,1.27656835e-11,1.298397e-11,1.8454517e-11,1.082742e-07,1.4069622e-07,5e-08,8.633507e-06,8.899629e-06,6.225075e-05,1.600332e-05,6.5534464e-06,5.323556e-05,0.0,0.0,743,0.48837465,0.24253222,0.070328854,0.17427437,0.06897433,0.021294393,0.0,0.0,0.0,-0.005925,0,0,0,831,24,0,0,0
64841110,0.5116224,-0.24281019,-0.02840713,-0.8236983,0.2997663,-8.936943,-0.3487594,51.343132,22.18296,-19.315662,-4.888658e-05,4.229152e-06,8.283827e-06,-5.8402602e-05,0.00038809952,-1.207825e-05,0.22874147,0.03400608,0.36945438,-0.003380641,-0.015452294,0.006752484,0.0,0.0,2.882501e-06,0.0020722407,0.03611641,2.0403626e-05,4.0147993e-06,4.2391125e-06,9.404117e-06,0.02818245,0.027594263,0.0128172375,0.121567614,0.11795534,0.05843776,1.2803723e-11,1.3010699e-11,1.8462745e-11,1.0251488e-07,1.3409287e-07,5.0000036e-08,8.234382e-06,8.58741e-06,6.1933184e-05,1.5657739e-05,6.375093e-06,5.2984997e-05,0.0,0.0,743,0.48941085,0.24173903,0.08044132,0.16227669,0.073428005,0.039908048,0.0,0.0,0.0,-0.00593,0,0,0,831,24,0,0,0
65049113,0.5138906,-0.25975057,-0.030566577,-0.817014,-0.65174305,-9.011164,-0.26023537,51.241604,20.263758,-19.329054,-4.8759535e-05,4.11039e-06,8.098155e-06,-9.48282e-05,0.0004350699,-1.521229e-05,0.22910038,0.03374183,0.3688921,-0.0031187509,-0.015136426,0.0071469764,0.0,0.0,3.8751973e-06,0.0019240981,0.032669786,2.0411817e-05,3.786399e-06,4.102888e-06,9.587373e-06,0.028073447,0.02784887,0.012683291,0.1225427,0.119171776,0.058471046,1.2853658e-11,1.304809e-11,1.8476345e-11,9.7240374e-08,1.2773542e-07,5.0000015e-08,7.828556e-06,8.262541e-06,6.1560306e-05,1.5319574e-05,6.184854e-06,5.2641022e-05,0.0,0.0,743,0.49164468,0.24180788,0.0548507,0.15541771,0.08433967,0.032812785,0.0,0.0,0.0,-0.005926,0,0,0,831,24,0,0,0
65249093,0.5407302,-0.18788296,-0.120594524,-0.81102896,-1.2443435,-9.185314,-0.080204025,51.00154,18.379623,-19.288572,-4.8608414e-05,4.097237e-06,7.878678e-06,-0.00014702087,0.0004564479,-2.0977168e-05,0.22935893,0.033700902,0.36861098,-0.0029760436,-0.01492375,0.007283192,0.0,0.0,4.8662982e-06,0.0017785748,0.030459266,2.0600599e-05,3.7346683e-06,3.7234652e-06,9.765126e-06,0.027755793,0.02759604,0.012489529,0.122874424,0.11980598,0.058928777,1.29045654e-11,1.308338e-11,1.8496999e-11,9.24532e-08,1.2162803e-07,5.0000043e-08,7.507743e-06,8.021951e-06,6.1392624e-05,1.5090233e-05,6.0303496e-06,5.2529722e-05,0.0,0.0,743,0.492626,0.2427525,0.058590706,0.14255397,0.08653383,0.020555956,0.0,0.0,0.0,-0.005946,0,0,0,831,24,0,0,0
65449112,0.5626246,-0.068064936,-0.18831234,-0.8020968,-1.2736417,-9.400088,-0.03606045,50.69313,16.483997,-19.21472,-4.8506343e-05,4.059154e-06,7.692382e-06,-0.0001822731,0.00048960396,-3.772482e-05,0.2297159,0.03353956,0.36884758,-0.0029907965,-0.014558501,0.006982405,0.0,0.0,4.793588e-06,0.0017899313,0.029792568,2.0251493e-05,4.0335326e-06,3.9260376e-06,9.660422e-06,0.027471012,0.027099498,0.011934998,0.12314208,0.1203809,0.05844451,1.2956615e-11,1.3120242e-11,1.8531494e-11,8.788521e-08,1.1571685e-07,5e-08,7.175555e-06,7.812842e-06,6.0579518e-05,1.4648627e-05,5.8458595e-06,5.203653e-05,0.0,0.0,743,0.49348047,0.241753,0.12352142,0.1573804,0.072470054,0.034144342,0.0,0.0,0.0,-0.005927,0,0,0,831,24,0,0,0
65657916,0.58542365,0.016162997,-0.22084537,-0.77990085,-0.7373028,-9.593038,-0.1818897,50.464176,14.464088,-19.1968,-4.8565664e-05,4.1552366e-06,7.58809e-06,-0.0002026801,0.00048522028,-4.8206395e-05,0.23014672,0.033341523,0.36992413,-0.0033124157,-0.013983914,0.005835396,0.0,0.0,4.574264e-06,0.0019390912,0.033870634,1.922485e-05,4.249347e-06,4.5313636e-06,9.993094e-06,0.0273104,0.026785387,0.011282812,0.12395762,0.12148833,0.058160175,1.30127705e-11,1.3160356e-11,1.8582039e-11,8.3536364e-08,1.1002459e-07,5e-08,6.8255013e-06,7.606e-06,5.805967e-05,1.38219075e-05,5.6246954e-06,5.0231607e-05,0.0,0.0,743,0.49542502,0.24116421,0.15570778,0.100165784,0.07411129,0.0053256545,0.0,0.0,0.0,-0.005923,0,0,0,831,24,0,0,0
65857916,0.6185657,0.05938117,-0.24301353,-0.7448455,0.01666542,-9.637046,-0.2141932,50.368664,12.503104,-19.186369,-4.862274e-05,4.2029633e-06,7.514974e-06,-0.00021607295,0.0004907191,-6.73595e-05,0.23055474,0.033192907,0.3711171,-0.0036858548,-0.013496888,0.0045781475,0.0,0.0,5.125196e-06,0.002190443,0.03563145,1.77418e-05,4.469052e-06,4.9397254e-06,1.0993682e-05,0.026868261,0.026480855,0.010779911,0.12428149,0.122106194,0.05832488,1.3069002e-11,1.31968134e-11,1.863946e-11,7.9450665e-08,1.0455765e-07,5e-08,6.547866e-06,7.4363315e-06,5.504684e-05,1.3002345e-05,5.4411216e-06,4.7964204e-05,0.0,0.0,743,0.49637455,0.24150544,0.12849037,0.12765332,0.08188627,0.039672427,0.0,0.0,0.0,-0.005945,0,0,0,831,24,0,0,0
66057902,0.66361785,0.078832805,-0.23947419,-0.7043074,0.9079982,-9.587923,-0.2220776,50.419853,10.558692,-19.2098,-4.8662965e-05,4.1652365e-06,7.4660134e-06,-0.00022135874,0.000514874,-7.22182e-05,0.23099609,0.03310889,0.37237665,-0.0041441447,-0.013084751,0.003274897,0.0,0.0,6.457554e-06,0.0024811449,0.036875814,1.5941003e-05,4.4926564e-06,5.139056e-06,1.2705352e-05,0.026381625,0.026363777,0.010414488,0.12450435,0.122613676,0.058350988,1.3123198e-11,1.3227997e-11,1.8689404e-11,7.5519395e-08,9.9246186e-08,5e-08,6.3183e-06,7.2888156e-06,5.2078158e-05,1.2259784e-05,5.28191e-06,4.567757e-05,0.0,0.0,743,0.49710968,0.24155949,0.12219249,0.06453642,0.07760047,0.012721203,0.0,0.0,0.0,-0.005938,0,0,0,831,24,0,0,0
66265903,0.7182847,0.09427709,-0.23928635,-0.6464681,1.9050701,-9.384416,-0.28233346,50.69829,8.574505,-19.24289,-4.8792714e-05,4.1558487e-06,7.4882323e-06,-0.00021534324,0.00051800016,-8.685896e-05,0.23136142,0.033069342,0.37367362,-0.0045990334,-0.012714181,0.0019287834,0.0,0.0,7.663664e-06,0.0024642504,0.036988642,1.3526218e-05,4.596375e-06,5.2830583e-06,1.496582e-05,0.026111769,0.026561344,0.010065193,0.12525305,0.123644926,0.057022415,1.3179332e-11,1.3258868e-11,1.8721124e-11,7.169841e-08,9.407278e-08,5e-08,6.117448e-06,7.1461286e-06,4.919567e-05,1.1571354e-05,5.133509e-06,4.342185e-05,0.0,0.0,743,0.49889675,0.23879367,0.11124394,0.08454163,0.072057635,0.0006826805,0.0,0.0,0.0,-0.005937,0,0,0,831,24,0,0,0
66466715,0.7823469,0.09651278,-0.23672813,-0.56795985,2.8393097,-9.081358,-0.3292137,51.134434,6.7275095,-19.268492,-4.887288e-05,4.0637683e-06,7.4470627e-06,-0.00021325174,0.0005448519,-0.00010312169,0.23175132,0.03308857,0.3747108,-0.0049807443,-0.012417202,0.0007713496,0.0,0.0,8.2166525e-06,0.002348728,0.036922887,1.0526092e-05,4.720918e-06,5.217703e-06,1.7868475e-05,0.025759691,0.026579129,0.009924417,0.12542094,0.12408622,0.056312684,1.3230268e-11,1.3280932e-11,1.8717486e-11,6.813472e-08,8.907313e-08,5.0000008e-08,5.9490585e-06,7.01174e-06,4.6629553e-05,1.0993872e-05,5.0008675e-06,4.13747e-05,0.0,0.0,743,0.49950692,0.23730294,0.08055056,0.0898859,0.06549335,0.009871045,0.0,0.0,0.0,-0.005923,0,0,0,831,24,0,0,0
66666719,0.83981055,0.09442006,-0.24039055,-0.4775097,3.7116046,-8.650884,-0.31449264,51.719517,4.9074783,-19.301542,-4.876219e-05,3.9924766e-06,7.3989377e-06,-0.00023974782,0.0005818893,-9.873637e-05,0.23213014,0.033230834,0.37540144,-0.0053340853,-0.012231265,-2.8621811e-05,0.0,0.0,8.501304e-06,0.0024904446,0.03683062,7.5618154e-06,4.930567e-06,5.06133e-06,2.06549e-05,0.025450986,0.026379636,0.009950112,0.12562652,0.12455733,0.05642761,1.3285185e-11,1.3301866e-11,1.8690502e-11,6.4862924e-08,8.432947e-08,5e-08,5.8340597e-06,6.917933e-06,4.5068777e-05,1.0667847e-05,4.9152836e-06,4.0102914e-05,0.0,0.0,743,0.5001838,0.23754497,0.08491934,0.14833039,0.06346683,0.024739612,0.0,0.0,0.0,-0.005921,0,0,0,831,24,0,0,0
66874791,0.87668157,0.07812344,-0.23753586,-0.41097802,4.585629,-8.133287,-0.31604016,52.55394,3.1640549,-19.341763,-4.8784892e-05,3.873069e-06,7.392916e-06,-0.00023690601,0.0005991494,-0.000109747634,0.23230876,0.03338049,0.37598023,-0.0056321947,-0.012103906,-0.00067898637,0.0,0.0,6.6723824e-06,0.002435057,0.038155813,5.6657395e-06,4.982311e-06,4.716296e-06,2.2586513e-05,0.025251059,0.026062246,0.009980751,0.12618752,0.12538263,0.05597462,1.3340236e-11,1.3321277e-11,1.8624349e-11,6.183426e-08,7.988501e-08,5e-08,5.733073e-06,6.825057e-06,4.376249e-05,1.0413167e-05,4.8363545e-06,3.9012106e-05,0.0,0.0,743,0.5015677,0.23658957,0.064522594,0.065268785,0.05083094,0.0007592871,0.0,0.0,0.0,-0.005896,0,0,0,831,24,0,0,0
67074698,0.8906794,0.07414123,-0.24907506,-0.37303495,5.3329554,-7.6396837,-0.229892,53.52621,1.571764,-19.341442,-4.880048e-05,3.8083544e-06,7.386409e-06,-0.00024398258,0.000607374,-0.00012802743,0.23245572,0.03350533,0.37634397,-0.005810532,-0.012006268,-0.0011267865,0.0,0.0,6.6080815e-06,0.0023274303,0.036677424,4.736981e-06,5.121377e-06,4.5278716e-06,2.320452e-05,0.024933387,0.025453908,0.010020102,0.12612003,0.12554576,0.055364303,1.33923385e-11,1.333706e-11,1.8533418e-11,5.9140554e-08,7.5882674e-08,5e-08,5.651919e-06,6.7488236e-06,4.288393e-05,1.02494305e-05,4.775856e-06,3.8265705e-05,0.0,0.0,743,0.501663,0.2352962,0.062355492,0.050912574,0.06457025,0.00072695664,0.0,0.0,0.0,-0.005942,0,0,0,831,24,0,0,0
67276315,0.90694094,0.004463837,-0.25277206,-0.33696368,6.003453,-7.2836637,-0.101112165,54.647537,0.04053499,-19.301369,-4.8738028e-05,3.8008475e-06,7.398304e-06,-0.00026359895,0.00060665864,-0.00014781847,0.23254263,0.033624645,0.37652782,-0.005925999,-0.011936453,-0.0013106538,0.0,0.0,5.4355337e-06,0.0020235577,0.03322967,3.947785e-06,5.180936e-06,3.7472973e-06,2.4304176e-05,0.02446435,0.02472352,0.010154023,0.12581725,0.12544744,0.05563446,1.3443651e-11,1.3352503e-11,1.8423443e-11,5.6758353e-08,7.2308225e-08,5.0000036e-08,5.5801265e-06,6.679721e-06,4.2271004e-05,1.0148145e-05,4.7232215e-06,3.7726495e-05,0.0,0.0,743,0.5012631,0.23586959,0.033065356,0.02850708,0.07678716,0.080322206,0.0,0.0,0.0,-0.005925,0,0,0,831,24,0,0,0
67484291,0.92993575,0.026337842,-0.23332757,-0.2829916,6.6267385,-6.9512663,-0.0452539,55.981472,-1.4346335,-19.230015,-4.8781945e-05,3.6101615e-06,7.2531266e-06,-0.000247488,0.0006049979,-0.00018313322,0.23244274,0.03376141,0.3765637,-0.006001031,-0.011886916,-0.0011857733,0.0,0.0,4.689547e-06,0.0019474757,0.03186353,2.7648941e-06,4.9421633e-06,3.90937e-06,2.514261e-05,0.02408535,0.024065122,0.010313466,0.12595089,0.12577352,0.056279026,1.3498913e-11,1.33757085e-11,1.8304072e-11,5.46405e-08,6.916535e-08,5.000005e-08,5.507234e-06,6.6034186e-06,4.1896095e-05,1.00782945e-05,4.6673517e-06,3.7385813e-05,0.0,0.0,743,0.50172144,0.23723201,0.02893598,0.15479094,0.07179341,0.028523361,0.0,0.0,0.0,-0.005949,0,0,0,831,24,0,0,0
67684309,0.9413127,0.058206074,-0.226016,-0.24384311,7.2043614,-6.451655,-0.12234746,57.33124,-2.7561853,-19.18401,-4.877573e-05,3.3695358e-06,6.9260946e-06,-0.00023093272,0.0006297666,-0.0002082955,0.23244192,0.033926487,0.37660393,-0.006101562,-0.011814675,-0.0011464631,0.0,0.0,3.3465708e-06,0.0017905419,0.03037257,2.0693353e-06,4.8222096e-06,4.138108e-06,2.5255937e-05,0.023828365,0.023357138,0.010349893,0.12522687,0.12517843,0.05581526,1.35467184e-11,1.3392968e-11,1.8173976e-11,5.275876e-08,6.640944e-08,5.0000036e-08,5.451245e-06,6.5374347e-06,4.1532596e-05,1.0011304e-05,4.62535e-06,3.705681e-05,0.0,0.0,743,0.50040513,0.23625253,0.05964755,0.13843286,0.062549636,0.039375387,0.0,0.0,0.0,-0.0059309998,0,0,0,831,24,0,0,0
