timestamp,magnetometer_ga[0],magnetometer_ga[1],magnetometer_ga[2]
221907005,0.22628598,0.04709116,0.38920245
221928180,0.23522945,0.041185744,0.42342383
221949386,0.22330481,0.04709116,0.40475765
221970552,0.22628598,0.050043866,0.38298038
221991767,0.23821059,0.050043866,0.39542452
222012994,0.22926712,0.050043866,0.42342383
222034186,0.21436134,0.050043866,0.39231345
222055340,0.22628598,0.050043866,0.38920245
222076522,0.23821059,0.04709116,0.4172018
222097745,0.22330481,0.050043866,0.40164658
222118997,0.22628598,0.04709116,0.38298038
222140156,0.24119174,0.04709116,0.40164658
222161365,0.22628598,0.050043866,0.4172018
222182585,0.21734251,0.050043866,0.3860914
222203765,0.22628598,0.04709116,0.39231345
222224975,0.23224828,0.050043866,0.42342383
222246177,0.21436134,0.050043866,0.40475765
222267384,0.22330481,0.04413845,0.38298038
222288568,0.24119174,0.04709116,0.39853555
222309793,0.23224828,0.050043866,0.41409075
222330953,0.21734251,0.050043866,0.37675828
222352164,0.22628598,0.04709116,0.39853555
222373365,0.22628598,0.050043866,0.4172018
222394549,0.21734251,0.04709116,0.39853555
222415800,0.22330481,0.04709116,0.37675828
222436965,0.24119174,0.04413845,0.40786865
222458129,0.23224828,0.050043866,0.40475765
222479347,0.22032367,0.050043866,0.3860914
222500562,0.23224828,0.050043866,0.39231345
222521777,0.22926712,0.050043866,0.4203128
222542981,0.2113802,0.050043866,0.39853555
222564154,0.22330481,0.04709116,0.38298038
222585332,0.24119174,0.04709116,0.41409075
222606545,0.23224828,0.050043866,0.40475765
222627798,0.22330481,0.050043866,0.38298038
222648964,0.23522945,0.050043866,0.39542452
222670165,0.22628598,0.050043866,0.4265349
222691356,0.2113802,0.04709116,0.40475765
222712587,0.22628598,0.04413845,0.38920245
222733794,0.23821059,0.04413845,0.4172018
222754972,0.22330481,0.050043866,0.39853555
222776150,0.22330481,0.050043866,0.38298038
222797368,0.23522945,0.050043866,0.39853555
222818579,0.22926712,0.052996576,0.4203128
222839765,0.2113802,0.050043866,0.3860914
222861010,0.22926712,0.04709116,0.39542452
222882167,0.23224828,0.04413845,0.4265349
222903347,0.22628598,0.04709116,0.39542452
222924604,0.22330481,0.050043866,0.37675828
222945771,0.24119174,0.04709116,0.40164658
222966929,0.22926712,0.052996576,0.4109797
222988121,0.2113802,0.050043866,0.39542452
223009365,0.22330481,0.04413845,0.3860914
223030579,0.23224828,0.04709116,0.4109797
223051862,0.22032367,0.04709116,0.39542452
223073018,0.22628598,0.050043866,0.3798693
223094179,0.2441729,0.04709116,0.39853555
223115332,0.22926712,0.050043866,0.40475765
223136603,0.21436134,0.050043866,0.39231345
223157774,0.22926712,0.050043866,0.39542452
223178959,0.23224828,0.04709116,0.4203128
223200149,0.21734251,0.04709116,0.40164658
223221389,0.22628598,0.04413845,0.37675828
223242591,0.24119174,0.04709116,0.40475765
223263776,0.23224828,0.050043866,0.40475765
223284948,0.22032367,0.050043866,0.38298038
223306161,0.22628598,0.04709116,0.39542452
223327388,0.23224828,0.050043866,0.41409075
223348563,0.2113802,0.04709116,0.40164658
223369724,0.22628598,0.04413845,0.3798693
223390955,0.23821059,0.04413845,0.40786865
223412191,0.22330481,0.050043866,0.4109797
223433372,0.22032367,0.050043866,0.39231345
223454602,0.23821059,0.050043866,0.38920245
223475768,0.22926712,0.052996576,0.4109797
223496922,0.20839903,0.050043866,0.39542452
223518201,0.22330481,0.04413845,0.3798693
223539360,0.23821059,0.04709116,0.40786865
223560551,0.22628598,0.050043866,0.40164658
223581748,0.22032367,0.050043866,0.3860914
223602996,0.23224828,0.050043866,0.40164658
223624146,0.22628598,0.052996576,0.40786865
223645457,0.2113802,0.052996576,0.39542452
223666608,0.22628598,0.04709116,0.3860914
223687766,0.23522945,0.04709116,0.40786865
223708993,0.22628598,0.04709116,0.39853555
223730181,0.22628598,0.04709116,0.3705362
223751327,0.23522945,0.04709116,0.39542452
223772589,0.22628598,0.052996576,0.4109797
223793753,0.21436134,0.052996576,0.39231345
223815005,0.22628598,0.04709116,0.39542452
223836160,0.23522945,0.04709116,0.4172018
223857362,0.22032367,0.050043866,0.3860914
223878522,0.22926712,0.04709116,0.37675828
223899766,0.2441729,0.052996576,0.39853555
223920988,0.22926712,0.052996576,0.4172018
223942179,0.21734251,0.04709116,0.38920245
223963346,0.22628598,0.04709116,0.39231345
223984563,0.22926712,0.050043866,0.42342383
224005787,0.21734251,0.04709116,0.40786865
224026933,0.22926712,0.04709116,0.3860914
224048158,0.2441729,0.050043866,0.40786865
224069356,0.22926712,0.052996576,0.40164658
224090546,0.21734251,0.052996576,0.39231345
224111807,0.22628598,0.04709116,0.38920245
224132965,0.22926712,0.050043866,0.42342383
224154166,0.21734251,0.050043866,0.39853555
224175364,0.22628598,0.04413845,0.3860914
224196565,0.23821059,0.04709116,0.39542452
224217793,0.22926712,0.052996576,0.40164658
224238973,0.22032367,0.052996576,0.3860914
224260146,0.23224828,0.052996576,0.40164658
224281328,0.22926712,0.052996576,0.40786865
224302547,0.21436134,0.052996576,0.39853555
224323801,0.22032367,0.050043866,0.3860914
224344952,0.24119174,0.052996576,0.4109797
224366163,0.22926712,0.052996576,0.39853555
224387344,0.22032367,0.052996576,0.3860914
224408527,0.23522945,0.055949282,0.39853555
224429789,0.22628598,0.055949282,0.4172018
224450974,0.20839903,0.058901984,0.39542452
224472139,0.22330481,0.052996576,0.3860914
224493369,0.23821059,0.055949282,0.40164658
224514605,0.22330481,0.058901984,0.38920245
224535770,0.22032367,0.06185469,0.38298038
224556967,0.23821059,0.06480741,0.39231345
224578162,0.22628598,0.07071281,0.4109797
224599350,0.20839903,0.07071281,0.39542452
224620603,0.22330481,0.07071281,0.3860914
224641775,0.23224828,0.07366552,0.40786865
224662929,0.22032367,0.076618224,0.38920245
224684948,0.23821059,0.07957094,0.39542452
224706127,0.21436134,0.076618224,0.3860914
224727351,0.21436134,0.076618224,0.39231345
224748592,0.21436134,0.076618224,0.39231345
224769773,0.21436134,0.07366552,0.3860914
224790963,0.21436134,0.076618224,0.39542452
224812199,0.21436134,0.07366552,0.38298038
224833345,0.21734251,0.07366552,0.38920245
224854583,0.21734251,0.07366552,0.38298038
224875778,0.22032367,0.07071281,0.3860914
224896952,0.21734251,0.07071281,0.38298038
224918164,0.21734251,0.07071281,0.39231345
224939377,0.21436134,0.06776011,0.38920245
224960529,0.21436134,0.06480741,0.3860914
224981764,0.21436134,0.06776011,0.38920245
225002963,0.21734251,0.06776011,0.3860914
225024145,0.22032367,0.07071281,0.3860914
225045400,0.22032367,0.07071281,0.3798693
225066556,0.22032367,0.06776011,0.3860914
225087765,0.22330481,0.06776011,0.3860914
225108953,0.22330481,0.07071281,0.3860914
225130167,0.22032367,0.06776011,0.3860914
225151388,0.22032367,0.07071281,0.38920245
225172587,0.21734251,0.07071281,0.38920245
225193757,0.21734251,0.06776011,0.38920245
225214927,0.21734251,0.06776011,0.39231345
225236159,0.21436134,0.07071281,0.38920245
225257402,0.21436134,0.06776011,0.38920245
225278558,0.2113802,0.07071281,0.38298038
225299767,0.21436134,0.07071281,0.38920245
225320946,0.2113802,0.06776011,0.39231345
225342127,0.20839903,0.07071281,0.38920245
225363323,0.2113802,0.07071281,0.3860914
225384573,0.2113802,0.07071281,0.3860914
225405807,0.20839903,0.06776011,0.39231345
225426966,0.20839903,0.07071281,0.39542452
225448174,0.2113802,0.06776011,0.39231345
225469329,0.2113802,0.06776011,0.38920245
225490522,0.21436134,0.06776011,0.38920245
225511777,0.20839903,0.06480741,0.39231345
225532964,0.20839903,0.06185469,0.39231345
225554224,0.20839903,0.06185469,0.39542452
225575380,0.2113802,0.06185469,0.39542452
225596642,0.20839903,0.058901984,0.39853555
225617797,0.21436134,0.058901984,0.39231345
225638975,0.20839903,0.058901984,0.39231345
225660176,0.21734251,0.055949282,0.39542452
225681380,0.21734251,0.055949282,0.38920245
225702585,0.22628598,0.055949282,0.3860914
225723770,0.22926712,0.052996576,0.3860914
225744921,0.23224828,0.050043866,0.38298038
225766203,0.24119174,0.050043866,0.3860914
225787367,0.24715406,0.050043866,0.3705362
225808564,0.25311637,0.04709116,0.37364727
225829773,0.25907868,0.050043866,0.3612031
225850995,0.265041,0.050043866,0.3612031
225872146,0.26802215,0.050043866,0.3612031
225893379,0.27398446,0.052996576,0.35498103
225914551,0.27696562,0.052996576,0.35498103
225935766,0.27696562,0.052996576,0.34875894
225956982,0.28292793,0.055949282,0.33942583
225978170,0.2859091,0.055949282,0.35187
225999421,0.2859091,0.058901984,0.34875894
226020573,0.28889024,0.058901984,0.34875894
226041773,0.28889024,0.06185469,0.34564793
226062993,0.29187137,0.058901984,0.33320376
226084160,0.29485255,0.06185469,0.3363148
226105370,0.29187137,0.06185469,0.3425369
226126523,0.29187137,0.06185469,0.3425369
226147765,0.29485255,0.06480741,0.34564793
226168986,0.29485255,0.06185469,0.3363148
226190268,0.29187137,0.06480741,0.33009273
226211427,0.29485255,0.06480741,0.3363148
226232589,0.29485255,0.06776011,0.3425369
226253775,0.29485255,0.06480741,0.3363148
226274960,0.2978337,0.06776011,0.3363148
226296168,0.29485255,0.06776011,0.33942583
226317361,0.2978337,0.06776011,0.33009273
226338550,0.29485255,0.07071281,0.33320376
226359804,0.29485255,0.07366552,0.34564793
226380959,0.2978337,0.07366552,0.34564793
226402126,0.29485255,0.07071281,0.3363148
226423348,0.29485255,0.07366552,0.33009273
226444561,0.29485255,0.07366552,0.33942583
226465781,0.30677718,0.07366552,0.33320376
226486976,0.31870177,0.07071281,0.31142652
226508154,0.3306264,0.06776011,0.30831546
226529329,0.34255102,0.06776011,0.28031614
226550553,0.35447565,0.06480741,0.27098304
226571792,0.36341912,0.06776011,0.2616499
226592964,0.36341912,0.06480741,0.2523168
226614179,0.36341912,0.06776011,0.24920578
226635348,0.36938143,0.07071281,0.24920578
226656527,0.36938143,0.07366552,0.24298368
226677795,0.37236258,0.07957094,0.2336506
226698974,0.36938143,0.088429056,0.24298368
226720149,0.36640027,0.09138176,0.24298368
226741366,0.36640027,0.09728718,0.23987266
226762591,0.36341912,0.109098,0.23987266
226783823,0.36043796,0.11500342,0.24298368
226804979,0.3574568,0.123861544,0.23676161
226826163,0.35447565,0.13567236,0.2336506
226847339,0.3514945,0.14157778,0.23676161
226868594,0.34553218,0.15043591,0.2336506
226889780,0.34553218,0.15929402,0.23053955
226910931,0.33956987,0.16815215,0.2336506
226932144,0.33956987,0.17405756,0.22742851
226953371,0.33956987,0.17701027,0.2336506
226974572,0.3365887,0.18291569,0.22742851
226995783,0.33360758,0.18882109,0.22431748
227016966,0.33360758,0.1917738,0.22120644
227038157,0.3306264,0.19767922,0.22120644
227059325,0.3306264,0.19472651,0.23053955
227080589,0.3306264,0.20063192,0.22120644
227101785,0.33360758,0.20063192,0.2180954
227122964,0.33360758,0.20063192,0.2180954
227144150,0.3365887,0.20063192,0.22120644
227165327,0.3365887,0.20063192,0.21498436
227186523,0.33956987,0.20358463,0.20254022
227207778,0.34255102,0.20063192,0.20876229
227228949,0.34255102,0.20358463,0.20254022
227250167,0.34553218,0.20063192,0.20565125
227271387,0.3514945,0.19767922,0.19942918
227292588,0.3514945,0.19472651,0.19631813
227313775,0.3514945,0.1917738,0.19631813
227334959,0.3514945,0.1917738,0.19631813
227356150,0.3514945,0.18882109,0.1932071
227377452,0.3514945,0.18882109,0.19942918
227398603,0.35447565,0.18291569,0.20565125
227419766,0.35447565,0.17996298,0.20565125
227440924,0.3514945,0.17701027,0.20876229
227462151,0.34851333,0.17110485,0.22120644
227483385,0.34255102,0.17110485,0.22742851
227504575,0.33956987,0.16815215,0.23053955
227525771,0.33956987,0.16519944,0.23676161
227546969,0.3365887,0.16224672,0.24298368
227568121,0.33360758,0.15634131,0.2523168
227589412,0.33360758,0.15634131,0.2616499
227610564,0.3306264,0.15338862,0.25542784
227631769,0.33360758,0.14748318,0.25853887
227652949,0.3306264,0.14453049,0.26476094
227674203,0.32764524,0.14453049,0.267872
227695356,0.32764524,0.14453049,0.27409407
227716581,0.32764524,0.13862509,0.267872
227737773,0.32466412,0.13567236,0.27720508
227758966,0.32168293,0.13567236,0.27409407
227780188,0.31870177,0.13271965,0.28964928
227801373,0.31870177,0.13271965,0.27720508
227822587,0.32466412,0.12976696,0.28342718
227843768,0.32168293,0.12681425,0.28342718
227864944,0.31870177,0.12681425,0.2865382
227886203,0.31572065,0.12681425,0.28964928
227907366,0.31572065,0.12681425,0.28964928
227928558,0.31572065,0.12681425,0.29898238
227949723,0.3127395,0.12976696,0.29587132
227971007,0.3097583,0.12681425,0.29276028
227992177,0.30677718,0.12976696,0.29898238
228013386,0.30379602,0.12976696,0.30209342
228034550,0.30081484,0.13271965,0.30520442
228055765,0.30081484,0.13271965,0.30520442
228076990,0.2978337,0.13567236,0.30209342
228098146,0.29187137,0.13567236,0.30520442
228119351,0.29187137,0.13862509,0.30831546
228140563,0.2859091,0.13862509,0.31142652
228161751,0.2859091,0.14157778,0.31453755
228182996,0.27994677,0.14157778,0.32075962
228204162,0.27994677,0.14157778,0.32075962
228225326,0.27696562,0.14157778,0.3176486
228246544,0.27398446,0.14157778,0.32387066
228267770,0.27398446,0.14157778,0.3269817
228288981,0.27398446,0.14157778,0.3363148
228310183,0.26802215,0.13862509,0.3363148
228331354,0.26802215,0.13567236,0.3269817
228352587,0.265041,0.13567236,0.33320376
228373774,0.265041,0.13271965,0.3269817
228394994,0.265041,0.12681425,0.33009273
228416165,0.2620598,0.12681425,0.33942583
228437361,0.25907868,0.12681425,0.3425369
228458552,0.25907868,0.12681425,0.34875894
228479765,0.25609753,0.123861544,0.3425369
228500997,0.25609753,0.123861544,0.35187
228522182,0.24715406,0.120908834,0.34875894
228543350,0.2501352,0.123861544,0.34875894
228564564,0.24715406,0.123861544,0.34875894
228585783,0.25311637,0.123861544,0.34564793
228606937,0.25311637,0.123861544,0.35187
228628160,0.25311637,0.12976696,0.3363148
228649372,0.25311637,0.13271965,0.33942583
228670553,0.25311637,0.13567236,0.3425369
228691792,0.2501352,0.14157778,0.3425369
228712967,0.25311637,0.14453049,0.3363148
228734124,0.25311637,0.14748318,0.3363148
228755321,0.25311637,0.14748318,0.33942583
228776552,0.2501352,0.15043591,0.3425369
228797789,0.25609753,0.15634131,0.3363148
228818970,0.25311637,0.15634131,0.3363148
228840147,0.25311637,0.15634131,0.3363148
228861335,0.2501352,0.15929402,0.3363148
228882536,0.25311637,0.16519944,0.33320376
228903820,0.25311637,0.16519944,0.3363148
228924973,0.25311637,0.16519944,0.3363148
228946162,0.2501352,0.16815215,0.3363148
228967350,0.24715406,0.17110485,0.3363148
228988594,0.2441729,0.17110485,0.3425369
229009776,0.24119174,0.17405756,0.33942583
229030976,0.23522945,0.17405756,0.33942583
229052145,0.23224828,0.17405756,0.34564793
229073365,0.23224828,0.17701027,0.34875894
229094561,0.22628598,0.17996298,0.33942583
229115774,0.23224828,0.17996298,0.34564793
229136931,0.23522945,0.17701027,0.33942583
229158167,0.22926712,0.17701027,0.34564793
229179390,0.23821059,0.17996298,0.33942583
229200574,0.23821059,0.17996298,0.33320376
229221772,0.23821059,0.17996298,0.3363148
229242971,0.23522945,0.17996298,0.3425369
229264133,0.23821059,0.18291569,0.33320376
229285397,0.23821059,0.18586838,0.33009273
229306578,0.24119174,0.18586838,0.33320376
229327768,0.24119174,0.18586838,0.32387066
229348957,0.24119174,0.18882109,0.33009273
229370194,0.24119174,0.18882109,0.32387066
229391345,0.24119174,0.18882109,0.3269817
229412587,0.2441729,0.18882109,0.33320376
229433773,0.24715406,0.1917738,0.32075962
229454968,0.24715406,0.1917738,0.3269817
229476185,0.24715406,0.19472651,0.32387066
229497376,0.2441729,0.1917738,0.32387066
229518540,0.2441729,0.19472651,0.32387066
229539769,0.2441729,0.1917738,0.33009273
229560937,0.24715406,0.1917738,0.3269817
229582235,0.2441729,0.1917738,0.32075962
229603384,0.2441729,0.1917738,0.32387066
229624560,0.2441729,0.1917738,0.32387066
229645754,0.2441729,0.19767922,0.32387066
229666927,0.2441729,0.19767922,0.3176486
229688181,0.2441729,0.19767922,0.32387066
229709383,0.24119174,0.19472651,0.32387066
229730549,0.2441729,0.19767922,0.3269817
229751765,0.24119174,0.19767922,0.33320376
229772982,0.2441729,0.19767922,0.3269817
229794180,0.23821059,0.19767922,0.32387066
229815372,0.23821059,0.19767922,0.3269817
229836567,0.23522945,0.20063192,0.32075962
229857773,0.23224828,0.20063192,0.32387066
229879011,0.23522945,0.20063192,0.3269817
229900171,0.23224828,0.19767922,0.33320376
229921329,0.23224828,0.19767922,0.3269817
229942596,0.22926712,0.19767922,0.3363148
229963765,0.23522945,0.19767922,0.33009273
229984982,0.23224828,0.19472651,0.33009273
230006169,0.23522945,0.19472651,0.32387066
230027355,0.23522945,0.19767922,0.3269817
230048519,0.23522945,0.20063192,0.32387066
230069756,0.23224828,0.19767922,0.3269817
230090981,0.22926712,0.19767922,0.33009273
230112984,0.22628598,0.19767922,0.33009273
230134181,0.22628598,0.19767922,0.32387066
230155352,0.22032367,0.19767922,0.3363148
230176561,0.22032367,0.19767922,0.3363148
230197728,0.21734251,0.19767922,0.3363148
230218994,0.2113802,0.19767922,0.33942583
230240157,0.20839903,0.19472651,0.34564793
230261367,0.20243673,0.19767922,0.33942583
230282584,0.19945556,0.19472651,0.3425369
230303796,0.1905121,0.19472651,0.35187
230324975,0.18454981,0.19472651,0.35498103
230346134,0.17858748,0.19472651,0.35498103
230367355,0.17560634,0.19472651,0.35187
230388560,0.16666286,0.19472651,0.35809207
230409779,0.16070056,0.19472651,0.3612031
230430972,0.15473825,0.19472651,0.37364727
230452147,0.14877592,0.19472651,0.35809207
230473328,0.14281362,0.19472651,0.37675828
230494548,0.13685131,0.1917738,0.3798693
230515804,0.130889,0.18882109,0.3860914
230536961,0.12790784,0.18882109,0.38920245
230558162,0.12194553,0.18586838,0.38920245
230579351,0.11896438,0.18586838,0.3860914
230600526,0.110020906,0.18882109,0.38298038
230621776,0.1040586,0.18586838,0.39231345
230642977,0.098096296,0.18882109,0.38298038
230664176,0.09213398,0.18882109,0.39231345
230685375,0.08617167,0.18882109,0.39231345
230706586,0.083190516,0.1917738,0.38298038
230727765,0.08020935,0.19472651,0.39542452
230748963,0.068284735,0.1917738,0.39542452
230770157,0.06530359,0.1917738,0.39542452
230791360,0.05934127,0.18882109,0.39231345
230812600,0.050397802,0.18882109,0.39542452
230833773,0.044435494,0.18882109,0.39853555
230854931,0.038473185,0.1917738,0.39231345
230876146,0.032510873,0.1917738,0.39231345
230897359,0.02654856,0.19472651,0.40475765
230918589,0.02058625,0.20063192,0.39542452
230939770,0.017605096,0.20358463,0.3860914
230960948,0.011642785,0.21244274,0.3860914
230982139,0.00866163,0.21834818,0.37675828
231003348,0.005680474,0.22720627,0.37364727
231024657,0.005680474,0.23311171,0.36742517
231045815,0.005680474,0.23901711,0.3612031
231066974,0.005680474,0.24787524,0.35809207
231088153,0.00866163,0.25968605,0.36742517
231109330,0.014623939,0.2685442,0.3363148
231130522,0.011642785,0.2774023,0.3425369
231151784,0.017605096,0.29216582,0.32075962
231172946,0.02654856,0.30397666,0.30831546
231194181,0.02654856,0.31283477,0.30209342
231215390,0.029529717,0.3187402,0.29276028
231236537,0.032510873,0.32464564,0.28342718
231257726,0.032510873,0.33055103,0.27098304
231278962,0.035492025,0.33940914,0.27409407
231300154,0.038473185,0.34531456,0.2616499
231321398,0.041454338,0.35121998,0.25542784
231342585,0.038473185,0.3571254,0.24609473
231363773,0.041454338,0.3600781,0.24609473
231384963,0.044435494,0.3630308,0.23676161
231406168,0.041454338,0.36598352,0.24298368
231427382,0.041454338,0.36598352,0.2336506
231448583,0.041454338,0.3600781,0.2336506
231469771,0.04741665,0.3571254,0.23676161
231490964,0.044435494,0.35417268,0.2616499
231512234,0.044435494,0.3482673,0.27098304
231533406,0.04741665,0.34236184,0.27098304
231554563,0.044435494,0.33940914,0.267872
231575765,0.041454338,0.33055103,0.27720508
231596941,0.038473185,0.32759833,0.2865382
231618189,0.032510873,0.3187402,0.28342718
231639340,0.032510873,0.3157875,0.29587132
231660578,0.02654856,0.30692938,0.30831546
231681771,0.02654856,0.29511857,0.32075962
231702973,0.02058625,0.28626043,0.33009273
231724188,0.023567406,0.2744496,0.34564793
231745381,0.017605096,0.26559147,0.35187
231766541,0.014623939,0.25378063,0.35809207
231787774,0.011642785,0.24787524,0.3612031
231808958,0.014623939,0.23901711,0.3705362
231830202,0.011642785,0.23015898,0.3798693
231851360,0.005680474,0.21539545,0.38298038
231872587,0.014623939,0.20653734,0.3860914
231893779,0.014623939,0.19767922,0.40164658
231914962,0.02058625,0.18882109,0.39542452
231936176,0.02058625,0.17701027,0.40475765
231957363,0.017605096,0.16815215,0.40475765
231978546,0.023567406,0.15929402,0.40786865
231999765,0.02654856,0.15338862,0.4109797
232020925,0.02654856,0.14157778,0.42342383
232042236,0.02654856,0.13271965,0.4203128
232063385,0.023567406,0.12681425,0.42342383
232084565,0.023567406,0.120908834,0.4203128
232105772,0.023567406,0.109098,0.43275696
232127013,0.023567406,0.10319259,0.42342383
232148179,0.023567406,0.09728718,0.43275696
232169332,0.023567406,0.09433447,0.435868
232190560,0.02654856,0.088429056,0.42964593
232211780,0.02654856,0.088429056,0.4452011
232232986,0.032510873,0.085476354,0.435868
232254184,0.029529717,0.07957094,0.4265349
232275346,0.032510873,0.07957094,0.4265349
232296530,0.032510873,0.07957094,0.435868
232317756,0.032510873,0.076618224,0.43897903
232338990,0.032510873,0.076618224,0.43275696
232360160,0.032510873,0.07366552,0.435868
232381359,0.029529717,0.07366552,0.435868
232402585,0.029529717,0.07071281,0.43275696
232423767,0.029529717,0.06776011,0.43275696
232444988,0.032510873,0.07071281,0.43897903
232466183,0.032510873,0.07071281,0.435868
232487357,0.032510873,0.07071281,0.4265349
232508568,0.035492025,0.07071281,0.42964593
232529786,0.038473185,0.07366552,0.42964593
232550938,0.041454338,0.076618224,0.4265349
232572152,0.04741665,0.076618224,0.42964593
232593358,0.04741665,0.082523644,0.42964593
232614548,0.050397802,0.082523644,0.435868
232635796,0.053378962,0.088429056,0.4265349
232656957,0.05934127,0.088429056,0.43275696
232678127,0.062322423,0.09433447,0.42964593
232699351,0.068284735,0.09433447,0.43275696
232720565,0.068284735,0.09433447,0.42342383
232741782,0.07424705,0.09728718,0.42342383
232762980,0.0772282,0.10023989,0.4203128
232784152,0.0772282,0.10319259,0.42342383
232805329,0.08020935,0.1061453,0.4172018
232826521,0.08020935,0.109098,0.41409075
232847811,0.08617167,0.11205071,0.41409075
232868969,0.08915282,0.11205071,0.4203128
232890188,0.08915282,0.11205071,0.4172018
232911354,0.08915282,0.117956124,0.4172018
232932587,0.09213398,0.117956124,0.40164658
232953781,0.09213398,0.123861544,0.4109797
232974970,0.09511513,0.12681425,0.40786865
232996148,0.101077445,0.12976696,0.41409075
233017354,0.1040586,0.12681425,0.4109797
233038595,0.1040586,0.12976696,0.40475765
233059765,0.1040586,0.12976696,0.40786865
233080921,0.110020906,0.12976696,0.40475765
233102162,0.1040586,0.13271965,0.4109797
233123351,0.110020906,0.13862509,0.4172018
233144601,0.115983225,0.14157778,0.4203128
233165773,0.124926694,0.14453049,0.4203128
233186964,0.13685131,0.15043591,0.40786865
233208124,0.1636817,0.16519944,0.4109797
233229368,0.18454981,0.16224672,0.39542452
233250575,0.17262517,0.15634131,0.3798693
233271784,0.1905121,0.16224672,0.39231345
233292951,0.19647442,0.16519944,0.3860914
233314187,0.19945556,0.16224672,0.37364727
233335346,0.19945556,0.15929402,0.37675828
233356596,0.19647442,0.16224672,0.38298038
233377780,0.20243673,0.16224672,0.37364727
233398961,0.18454981,0.15634131,0.36742517
233420146,0.19945556,0.17110485,0.37675828
233441391,0.19945556,0.16519944,0.37675828
233462582,0.1905121,0.17110485,0.38920245
233483776,0.18753095,0.16815215,0.3798693
233504948,0.18156864,0.16519944,0.38920245
233526159,0.17262517,0.16519944,0.39231345
233547388,0.1636817,0.16519944,0.39853555
233568571,0.16666286,0.16519944,0.38920245
233589774,0.15771939,0.16519944,0.39231345
233610968,0.15771939,0.17405756,0.40164658
233632156,0.1636817,0.17110485,0.38920245
233653397,0.16070056,0.16815215,0.39542452
233674603,0.14579478,0.16519944,0.39853555
233695765,0.14579478,0.16815215,0.39231345
233716922,0.13685131,0.16519944,0.38920245
233738161,0.13387015,0.16519944,0.39853555
233759367,0.13685131,0.16815215,0.38920245
233780568,0.13685131,0.16815215,0.38920245
233802046,0.13983247,0.16815215,0.38920245
233823381,0.14281362,0.17405756,0.39231345
233844574,0.14281362,0.17405756,0.38920245
233865789,0.14877592,0.17405756,0.39231345
233886962,0.14877592,0.17405756,0.38920245
233908199,0.14877592,0.17110485,0.39231345
233929362,0.14281362,0.16519944,0.3860914
233950564,0.14281362,0.16519944,0.39542452
233971768,0.14281362,0.16519944,0.38920245
233992949,0.14281362,0.16224672,0.38920245
234014209,0.14281362,0.15929402,0.38920245
234035362,0.13983247,0.15929402,0.38920245
234056518,0.14877592,0.15929402,0.39231345
234077722,0.14877592,0.15929402,0.39231345
234098952,0.15175709,0.15929402,0.39231345
234120188,0.14579478,0.15338862,0.39542452
234141390,0.14877592,0.15634131,0.39542452
234162585,0.14877592,0.15634131,0.38920245
234183765,0.15175709,0.15338862,0.39231345
234204921,0.14877592,0.15338862,0.39853555
234226182,0.14579478,0.15043591,0.39231345
234247361,0.14877592,0.14748318,0.3860914
234268564,0.14877592,0.14748318,0.38920245
234289746,0.14579478,0.14748318,0.38920245
234311007,0.14579478,0.14748318,0.3860914
234332184,0.14579478,0.14748318,0.39853555
234353384,0.14579478,0.14748318,0.3860914
234374548,0.14877592,0.14453049,0.38920245
234395771,0.14877592,0.14453049,0.39542452
234416984,0.14877592,0.14748318,0.39231345
234438174,0.14877592,0.14748318,0.39231345
234459327,0.15175709,0.14748318,0.39542452
234480559,0.15473825,0.14748318,0.38920245
234501759,0.15175709,0.14748318,0.38920245
234522999,0.15175709,0.14453049,0.39231345
234544157,0.15175709,0.14748318,0.39542452
234565362,0.14877592,0.14748318,0.38920245
234586522,0.14877592,0.14748318,0.39542452
234607766,0.14579478,0.14453049,0.38920245
234628985,0.13983247,0.14453049,0.3860914
234650261,0.13983247,0.14748318,0.39853555
234671521,0.13983247,0.15338862,0.39853555
234692977,0.14281362,0.15338862,0.39231345
234714183,0.14281362,0.15043591,0.39542452
234735341,0.14281362,0.15338862,0.39231345
234756564,0.14281362,0.15338862,0.39231345
234777777,0.13983247,0.15338862,0.39231345
234798939,0.14281362,0.15634131,0.39542452
234820151,0.14281362,0.15634131,0.39231345
234841365,0.14579478,0.15338862,0.3860914
234862584,0.14579478,0.15338862,0.39231345
234883806,0.14579478,0.15338862,0.3860914
234904968,0.14579478,0.15634131,0.39231345
234926132,0.14579478,0.15338862,0.3860914
234947355,0.14877592,0.15634131,0.39853555
234968562,0.14579478,0.15634131,0.3860914
234989789,0.14579478,0.15338862,0.39542452
235010986,0.14877592,0.15338862,0.39542452
235032180,0.14877592,0.15338862,0.39231345
235053336,0.14877592,0.15338862,0.38920245
235074559,0.14877592,0.15338862,0.38920245
235095788,0.14579478,0.15338862,0.38920245
235116963,0.15175709,0.15338862,0.38920245
235138155,0.14877592,0.15338862,0.3860914
235159347,0.14877592,0.15338862,0.39231345
235180519,0.15175709,0.15634131,0.39231345
235201790,0.14877592,0.15338862,0.39231345
235222972,0.15175709,0.15338862,0.3860914
235244144,0.15473825,0.15338862,0.38920245
235265359,0.15175709,0.15338862,0.3860914
235286589,0.15175709,0.15634131,0.3860914
235307765,0.14877592,0.15634131,0.38920245
235328930,0.15473825,0.15338862,0.38298038
235350172,0.15175709,0.15338862,0.3860914
235371360,0.15473825,0.15634131,0.38920245
235392608,0.15473825,0.15634131,0.39231345
235413792,0.15771939,0.15338862,0.39542452
235435017,0.15771939,0.15338862,0.3860914
235456166,0.15473825,0.15338862,0.3860914
235477374,0.15771939,0.15338862,0.3860914
235498585,0.16070056,0.15338862,0.38920245
235519782,0.15473825,0.15338862,0.39542452
235541764,0.15771939,0.14748318,0.3860914
235562970,0.16070056,0.15338862,0.38920245
235584140,0.15771939,0.15338862,0.38920245
235605327,0.16070056,0.15043591,0.39231345
235626588,0.16070056,0.15043591,0.3860914
235647785,0.16070056,0.15338862,0.38298038
235668964,0.15771939,0.15338862,0.38298038
235690164,0.16070056,0.15043591,0.38920245
235711381,0.16070056,0.15043591,0.3860914
235732587,0.15771939,0.15338862,0.38298038
235753777,0.15771939,0.15043591,0.38920245
235774966,0.15771939,0.15338862,0.3860914
235796155,0.16070056,0.15043591,0.38298038
235817392,0.15771939,0.15338862,0.38920245
235838564,0.1636817,0.15338862,0.3860914
235859768,0.16070056,0.15338862,0.39231345
235880949,0.15473825,0.15338862,0.3860914
235902163,0.16070056,0.15043591,0.3860914
235923387,0.1636817,0.15043591,0.39231345
235944576,0.16070056,0.15043591,0.3860914
235965771,0.15771939,0.15043591,0.3860914
235986930,0.16070056,0.15043591,0.3860914
236008127,0.16070056,0.15043591,0.37675828
236029404,0.16070056,0.15043591,0.38920245
236050575,0.16070056,0.15043591,0.38298038
236071770,0.16070056,0.15043591,0.38298038
236092960,0.15771939,0.15338862,0.3798693
236114124,0.16070056,0.15338862,0.3860914
236135322,0.16070056,0.15043591,0.38298038
236156570,0.1636817,0.15043591,0.38920245
236177748,0.16070056,0.15338862,0.38298038
236198958,0.1636817,0.15338862,0.39231345
236220196,0.1636817,0.15043591,0.3798693
236241365,0.1636817,0.15338862,0.38298038
236262588,0.1636817,0.15338862,0.3860914
236283769,0.1636817,0.15338862,0.38298038
236304953,0.16070056,0.15338862,0.38298038
236326198,0.16070056,0.15338862,0.39231345
236347361,0.1636817,0.15338862,0.3860914
236368565,0.16070056,0.15043591,0.38298038
236389724,0.1636817,0.15338862,0.38920245
236410973,0.16070056,0.15338862,0.38298038
236432192,0.16070056,0.15634131,0.3860914
236453382,0.15771939,0.15338862,0.3860914
236474548,0.15771939,0.15634131,0.38298038
236495765,0.16070056,0.15634131,0.38298038
236516924,0.15771939,0.15634131,0.39542452
236538194,0.15771939,0.15929402,0.38920245
236559363,0.16070056,0.15634131,0.39231345
236580566,0.16070056,0.15634131,0.3860914
236601749,0.15771939,0.15634131,0.38920245
236622995,0.16070056,0.15634131,0.3860914
236644147,0.16070056,0.15338862,0.38920245
236665371,0.16070056,0.15338862,0.38298038
236686549,0.15771939,0.15634131,0.38298038
236707767,0.16070056,0.15929402,0.3860914
236728983,0.15771939,0.15338862,0.3860914
236750186,0.15771939,0.15634131,0.3860914
236771338,0.15473825,0.15634131,0.3860914
236792587,0.15771939,0.15634131,0.39231345
236813761,0.15473825,0.15634131,0.3860914
236834995,0.15771939,0.15634131,0.39231345
236856162,0.15771939,0.15338862,0.38920245
236877360,0.15771939,0.15338862,0.38920245
236898522,0.16070056,0.15634131,0.3860914
236919765,0.16070056,0.15043591,0.38920245
236940988,0.16070056,0.15338862,0.38920245
236962178,0.15771939,0.15043591,0.38298038
236983343,0.15771939,0.15043591,0.3860914
237004565,0.15473825,0.15338862,0.38920245
237025774,0.15473825,0.15338862,0.39231345
237046933,0.15473825,0.15338862,0.3860914
237068150,0.15473825,0.15338862,0.38920245
237089362,0.15473825,0.15338862,0.38298038
237110552,0.15473825,0.15338862,0.39542452
237131808,0.15771939,0.15338862,0.38920245
237152969,0.15771939,0.15338862,0.3860914
237174156,0.15473825,0.15338862,0.3860914
237195362,0.15771939,0.15338862,0.38920245
237216560,0.15771939,0.15338862,0.39231345
237237791,0.15473825,0.15338862,0.3860914
237258973,0.15771939,0.15338862,0.38920245
237280147,0.15771939,0.15338862,0.3860914
237301322,0.15771939,0.15338862,0.3860914
237322551,0.15473825,0.15043591,0.39231345
237343795,0.15473825,0.15043591,0.39231345
237364964,0.15771939,0.15338862,0.3860914
237386155,0.15771939,0.15338862,0.39231345
237407344,0.15473825,0.15043591,0.3860914
237428520,0.15473825,0.15043591,0.38920245
237449776,0.15473825,0.15338862,0.38920245
237470965,0.15771939,0.15338862,0.38920245
237492148,0.15473825,0.15338862,0.39231345
237513364,0.15473825,0.15338862,0.3860914
237534581,0.15771939,0.15043591,0.3860914
237555766,0.15473825,0.15338862,0.3860914
237576970,0.15771939,0.15043591,0.3860914
237598166,0.15473825,0.15043591,0.38920245
237619353,0.15473825,0.15043591,0.38298038
237640598,0.15771939,0.15338862,0.3798693
237661773,0.15473825,0.15043591,0.3860914
237682934,0.15771939,0.15338862,0.39231345
237704121,0.15473825,0.15338862,0.38298038
237725373,0.15771939,0.15043591,0.3860914
237746590,0.15771939,0.15043591,0.39542452
237767779,0.15771939,0.15043591,0.3860914
237788980,0.15771939,0.15043591,0.38920245
237810131,0.15473825,0.15338862,0.38920245
237831321,0.15771939,0.15043591,0.3860914
237852615,0.15771939,0.15634131,0.3860914
237873776,0.15771939,0.15043591,0.3798693
237894973,0.15473825,0.15043591,0.3860914
237916176,0.15473825,0.15338862,0.39231345
237937390,0.15473825,0.15338862,0.3860914
237958548,0.15473825,0.15338862,0.38920245
237979778,0.15473825,0.15043591,0.3798693
238000949,0.15175709,0.15634131,0.39231345
238022163,0.15175709,0.15338862,0.38298038
238043378,0.15771939,0.15338862,0.39231345
238064575,0.15473825,0.15634131,0.3860914
238085774,0.15473825,0.15634131,0.3860914
238106961,0.15175709,0.15338862,0.38298038
238128150,0.15473825,0.15338862,0.39231345
238149398,0.15175709,0.15338862,0.39542452
238170558,0.15175709,0.15338862,0.3860914
238191769,0.15175709,0.15338862,0.39542452
238212931,0.15175709,0.15338862,0.39231345
238234181,0.15175709,0.15634131,0.38920245
238255383,0.15175709,0.15634131,0.38920245
238276571,0.15473825,0.15634131,0.38298038
238297760,0.15175709,0.15634131,0.3860914
238318973,0.15473825,0.15634131,0.39231345
238340126,0.15473825,0.15338862,0.39231345
238361390,0.15473825,0.15338862,0.38920245
238382585,0.15473825,0.15338862,0.3860914
238403760,0.15473825,0.15338862,0.38920245
238424948,0.14877592,0.15338862,0.38298038
238446188,0.15175709,0.15338862,0.3860914
238467337,0.15473825,0.15338862,0.3860914
238488574,0.15473825,0.15043591,0.3860914
238509773,0.15771939,0.15634131,0.39231345
238530955,0.15473825,0.15338862,0.3860914
238552184,0.15473825,0.15338862,0.3860914
238573369,0.15771939,0.15338862,0.38298038
238594522,0.15473825,0.15043591,0.39231345
238615689,0.15473825,0.15338862,0.39231345
238636948,0.15771939,0.15338862,0.3860914
238658197,0.15473825,0.15338862,0.39542452
238679371,0.15771939,0.15043591,0.3860914
238700567,0.15473825,0.15043591,0.38920245
238721748,0.15473825,0.15043591,0.38920245
238742931,0.15175709,0.15043591,0.3860914
238764183,0.15473825,0.15043591,0.39231345
238785385,0.16070056,0.15338862,0.38920245
238806545,0.15473825,0.15043591,0.3798693
238827770,0.15771939,0.15043591,0.39231345
238848977,0.15771939,0.15043591,0.38920245
238870130,0.15771939,0.15043591,0.39853555
238891357,0.16070056,0.14748318,0.38298038
238912587,0.16070056,0.15043591,0.38920245
238933771,0.15771939,0.15043591,0.38920245
238954995,0.15771939,0.14748318,0.39542452
238976167,0.15473825,0.14748318,0.3860914
238997338,0.16070056,0.14748318,0.38920245
239018543,0.16070056,0.14748318,0.3860914
239039770,0.1636817,0.14748318,0.3860914
239060986,0.15771939,0.14748318,0.38298038
239082180,0.1636817,0.14748318,0.3860914
239103354,0.1636817,0.14748318,0.38298038
239124527,0.1636817,0.14748318,0.3860914
239145744,0.1636817,0.14453049,0.3860914
239167026,0.16070056,0.14748318,0.3860914
239188177,0.16070056,0.14453049,0.38920245
239209360,0.16070056,0.14748318,0.3860914
239230548,0.1636817,0.14748318,0.3860914
239251765,0.16070056,0.15043591,0.3860914
239272975,0.1636817,0.14748318,0.38298038
239294181,0.1636817,0.15043591,0.38920245
239315365,0.1636817,0.14748318,0.3860914
239336560,0.1636817,0.14453049,0.39542452
239357786,0.16070056,0.14453049,0.38298038
239378966,0.1636817,0.14748318,0.38298038
239400133,0.1636817,0.14748318,0.3860914
239421360,0.1636817,0.14748318,0.3860914
239442585,0.16070056,0.14748318,0.3860914
239463800,0.16070056,0.14748318,0.3860914
239484967,0.1636817,0.14748318,0.3860914
239506136,0.1636817,0.14748318,0.38298038
239527321,0.16666286,0.14748318,0.38298038
239548561,0.16666286,0.14748318,0.3860914
239569782,0.16666286,0.14748318,0.3860914
239590973,0.1636817,0.14748318,0.3860914
239612152,0.1636817,0.14748318,0.3860914
239633356,0.16666286,0.14453049,0.3860914
239654521,0.1636817,0.15043591,0.3860914
239675799,0.1636817,0.14748318,0.38920245
239696964,0.16070056,0.15043591,0.37675828
239718173,0.1636817,0.14748318,0.3860914
239739346,0.1636817,0.14453049,0.38920245
239760596,0.1636817,0.14453049,0.3860914
239781761,0.1636817,0.15043591,0.38920245
239802970,0.1636817,0.14453049,0.3860914
239824151,0.16070056,0.14748318,0.38298038
239845361,0.1636817,0.14748318,0.3860914
239866582,0.1636817,0.14453049,0.37675828
239887777,0.1636817,0.14748318,0.38298038
239908925,0.16666286,0.14453049,0.38920245
239930163,0.16070056,0.14453049,0.3860914
239951352,0.1636817,0.14453049,0.38298038
239972619,0.16070056,0.14453049,0.3860914
239993772,0.15771939,0.14453049,0.3798693
240014966,0.16070056,0.14157778,0.39853555
240036128,0.16070056,0.14748318,0.3798693
240057370,0.16070056,0.14453049,0.3860914
240078581,0.16070056,0.14748318,0.3860914
240099785,0.15771939,0.14453049,0.3798693
240120970,0.1636817,0.14748318,0.38920245
240142170,0.15771939,0.14157778,0.38298038
240163325,0.16070056,0.14748318,0.3860914
240184593,0.16070056,0.14157778,0.3860914
240205772,0.15771939,0.14453049,0.3860914
240226961,0.15771939,0.14453049,0.3860914
240248149,0.16070056,0.14453049,0.3798693
240269397,0.15771939,0.14748318,0.38298038
240290547,0.15771939,0.14453049,0.39231345
240311765,0.15771939,0.14453049,0.3860914
240332949,0.15771939,0.14453049,0.39231345
240354181,0.15473825,0.14453049,0.3860914
240375376,0.15771939,0.14748318,0.39542452
240396575,0.15771939,0.14453049,0.3860914
240417771,0.15771939,0.14748318,0.38920245
240438927,0.15771939,0.14157778,0.38920245
240460143,0.15771939,0.14453049,0.38298038
240481394,0.15771939,0.14748318,0.3860914
240502586,0.15771939,0.14453049,0.38920245
240523776,0.15473825,0.14453049,0.39542452
240544938,0.15473825,0.14453049,0.3798693
240566129,0.15473825,0.14748318,0.38298038
240587380,0.15175709,0.14453049,0.3860914
240608575,0.15175709,0.14748318,0.39231345
240629773,0.15473825,0.14748318,0.3860914
240650964,0.15771939,0.14748318,0.38920245
240672188,0.15473825,0.14453049,0.38298038
240693339,0.15473825,0.14748318,0.3860914
240714564,0.15175709,0.14748318,0.3798693
240735765,0.15175709,0.14748318,0.38920245
240756950,0.15473825,0.14748318,0.3860914
240778179,0.15473825,0.14453049,0.38920245
240799354,0.15473825,0.14748318,0.39231345
240820528,0.15473825,0.14748318,0.38920245
240841756,0.15473825,0.14748318,0.38920245
240862996,0.15473825,0.14748318,0.3860914
240884177,0.15473825,0.14748318,0.3860914
240905355,0.15473825,0.14453049,0.3860914
240926555,0.15771939,0.14453049,0.38920245
240947767,0.15473825,0.14748318,0.39231345
240969726,0.15473825,0.14157778,0.3860914
240990934,0.15473825,0.14453049,0.38920245
241012165,0.15175709,0.14453049,0.39231345
241033361,0.15771939,0.14453049,0.38920245
241054549,0.15771939,0.14157778,0.39542452
241075797,0.15771939,0.14453049,0.3860914
241096961,0.15771939,0.14157778,0.38920245
241118139,0.15771939,0.14453049,0.38298038
241139344,0.15473825,0.14453049,0.38920245
241160564,0.15473825,0.14453049,0.39231345
241181803,0.15771939,0.14157778,0.3860914
241202980,0.15473825,0.14157778,0.3860914
241224150,0.15473825,0.14157778,0.3798693
241245328,0.15473825,0.14453049,0.38920245
241266544,0.15473825,0.14453049,0.3860914
241287805,0.15771939,0.14157778,0.39853555
241308970,0.15771939,0.14453049,0.39231345
241330164,0.15771939,0.14157778,0.3860914
241351349,0.15473825,0.13862509,0.39853555
241372586,0.15473825,0.14157778,0.38920245
241393783,0.15473825,0.13862509,0.39542452
241414977,0.15473825,0.14453049,0.3860914
241436144,0.15473825,0.14453049,0.39542452
241457361,0.15175709,0.14453049,0.38920245
241478580,0.15473825,0.14453049,0.3860914
241499770,0.15771939,0.14453049,0.38920245
241520991,0.15473825,0.14453049,0.3860914
241542164,0.15771939,0.14157778,0.3860914
241563349,0.15175709,0.14157778,0.3860914
241584601,0.15771939,0.14453049,0.3860914
241605777,0.15771939,0.14453049,0.3860914
241626937,0.15473825,0.14453049,0.39231345
241648138,0.15473825,0.14748318,0.39231345
241669364,0.15473825,0.14453049,0.3860914
241690574,0.15473825,0.14453049,0.39231345
241711786,0.15473825,0.14157778,0.38920245
241732949,0.15175709,0.14453049,0.39231345
241754129,0.15473825,0.14157778,0.3860914
241775321,0.15175709,0.14157778,0.38920245
241796605,0.15175709,0.14453049,0.39231345
241817771,0.15473825,0.14453049,0.39542452
241838967,0.15473825,0.14157778,0.3860914
241860151,0.15473825,0.14453049,0.39542452
241881321,0.15473825,0.14453049,0.3860914
241902528,0.15473825,0.14157778,0.38920245
241923781,0.15175709,0.14453049,0.39231345
241944952,0.14877592,0.14453049,0.3860914
241966157,0.15175709,0.14157778,0.3860914
241987380,0.15175709,0.14453049,0.39231345
242008527,0.15175709,0.14157778,0.3860914
242029723,0.15473825,0.14453049,0.39231345
242050960,0.15473825,0.14748318,0.3860914
242072148,0.15771939,0.14453049,0.38920245
242093392,0.15771939,0.14748318,0.3860914
242114600,0.15473825,0.14748318,0.39542452
242135774,0.15771939,0.14748318,0.3860914
242156932,0.15473825,0.14748318,0.3860914
242178156,0.15473825,0.14748318,0.38920245
242199376,0.15473825,0.14748318,0.38920245
242220575,0.15473825,0.14748318,0.3860914
242241773,0.15473825,0.14748318,0.3860914
242262971,0.15175709,0.14748318,0.3860914
242284143,0.15473825,0.14748318,0.39853555
242305393,0.15473825,0.14453049,0.38920245
242326562,0.15175709,0.14453049,0.39231345
242347771,0.15473825,0.14453049,0.38920245
242368952,0.15473825,0.14748318,0.39231345
242390202,0.15771939,0.14453049,0.38920245
242411358,0.15771939,0.14748318,0.3860914
242432589,0.15473825,0.14748318,0.38298038
242453771,0.15175709,0.14748318,0.3860914
242474968,0.15473825,0.14748318,0.3860914
242496176,0.15175709,0.14748318,0.39231345
242517379,0.15175709,0.14748318,0.39231345
242538526,0.15175709,0.14748318,0.38920245
242559765,0.15175709,0.14453049,0.39231345
242580947,0.14877592,0.14748318,0.3860914
242602235,0.15175709,0.14748318,0.3860914
242623394,0.15175709,0.14748318,0.3860914
242644565,0.14877592,0.14748318,0.39231345
242665757,0.15473825,0.14453049,0.3860914
242686972,0.14877592,0.14748318,0.3860914
242708189,0.15175709,0.14748318,0.39231345
242729375,0.14877592,0.14748318,0.38920245
242750543,0.14877592,0.15043591,0.3860914
242771774,0.14877592,0.15043591,0.39231345
242792976,0.15175709,0.15043591,0.39542452
242814180,0.15175709,0.15043591,0.39231345
242835352,0.15175709,0.15043591,0.3860914
242856558,0.15175709,0.15338862,0.3860914
242877742,0.15175709,0.15338862,0.3860914
242899075,0.14877592,0.15338862,0.38298038
242920231,0.14579478,0.15043591,0.3860914
242941380,0.14877592,0.15043591,0.39231345
242962584,0.15473825,0.15043591,0.39231345
242983784,0.14877592,0.15338862,0.38920245
243004989,0.15175709,0.15043591,0.38920245
243026178,0.14877592,0.15338862,0.39853555
243047353,0.15175709,0.15338862,0.38920245
243068528,0.15175709,0.15043591,0.3860914
243089757,0.14877592,0.15043591,0.3798693
243110997,0.14877592,0.15338862,0.38920245
243132165,0.14877592,0.15338862,0.38920245
243153361,0.14877592,0.15043591,0.3860914
243174554,0.15175709,0.15043591,0.38920245
243195765,0.14877592,0.15338862,0.38920245
243216981,0.14877592,0.15043591,0.38298038
243238167,0.15175709,0.15338862,0.38298038
243259344,0.15175709,0.15043591,0.38920245
243280556,0.15175709,0.15338862,0.39231345
243301784,0.15175709,0.15043591,0.38298038
243322941,0.14877592,0.15043591,0.3860914
243344154,0.15175709,0.15043591,0.38920245
243365370,0.14877592,0.15338862,0.3860914
243386551,0.15175709,0.15338862,0.3860914
243407819,0.15175709,0.15338862,0.3860914
243428975,0.15175709,0.15338862,0.3860914
243450133,0.15175709,0.15043591,0.3860914
243471321,0.15473825,0.15043591,0.38920245
243492587,0.15473825,0.15043591,0.3860914
243513793,0.15473825,0.15338862,0.38298038
243534975,0.16070056,0.14748318,0.38920245
243556145,0.16070056,0.14748318,0.3860914
243577335,0.1636817,0.14748318,0.38298038
243598522,0.16964403,0.14748318,0.37675828
243619797,0.16964403,0.14748318,0.3860914
243640962,0.17858748,0.14453049,0.3860914
243662161,0.17858748,0.14157778,0.3798693
243683350,0.18454981,0.14157778,0.37675828
243704526,0.19349326,0.14157778,0.38298038
243725725,0.19349326,0.13862509,0.37364727
243746978,0.19945556,0.13567236,0.37675828
243768176,0.20541789,0.13567236,0.37364727
243789365,0.20541789,0.13567236,0.36742517
243810575,0.2113802,0.13567236,0.37364727
243831781,0.21436134,0.13567236,0.3612031
243852929,0.22330481,0.13567236,0.35809207
243874181,0.23224828,0.13567236,0.35498103
243895347,0.23821059,0.13567236,0.34875894
243916603,0.24119174,0.13271965,0.34875894
243937780,0.2501352,0.13271965,0.35498103
243958964,0.25311637,0.13271965,0.34564793
243980128,0.25609753,0.13271965,0.3425369
244001364,0.2620598,0.12976696,0.3363148
244022588,0.265041,0.12681425,0.3363148
244043776,0.27100328,0.12976696,0.33320376
244064939,0.27100328,0.12976696,0.32387066
244086181,0.27398446,0.12681425,0.32387066
244107334,0.27696562,0.12681425,0.32075962
244128658,0.27696562,0.123861544,0.32075962
244149808,0.28292793,0.123861544,0.32387066
244170963,0.28292793,0.123861544,0.3176486
244192151,0.2859091,0.123861544,0.31142652
244213397,0.28889024,0.123861544,0.31142652
244234547,0.29187137,0.123861544,0.30831546
244255783,0.29485255,0.123861544,0.31453755
244276961,0.29485255,0.123861544,0.30831546
244298160,0.2978337,0.123861544,0.30831546
244319386,0.30081484,0.123861544,0.31453755
244340568,0.29485255,0.120908834,0.31453755
244361723,0.30081484,0.120908834,0.31142652
244382965,0.30379602,0.120908834,0.31142652
244404159,0.30081484,0.120908834,0.30831546
244425390,0.30379602,0.120908834,0.30520442
244446556,0.30379602,0.117956124,0.30831546
244467767,0.30677718,0.117956124,0.31142652
244488971,0.30379602,0.117956124,0.31142652
244510161,0.30677718,0.11500342,0.31142652
244531384,0.30677718,0.117956124,0.30209342
244552587,0.30379602,0.117956124,0.31142652
244573771,0.30379602,0.117956124,0.30831546
244594968,0.30379602,0.11500342,0.30831546
244616180,0.30379602,0.11500342,0.31142652
244637335,0.30379602,0.11500342,0.30831546
244658568,0.30379602,0.117956124,0.30520442
244679775,0.30379602,0.11500342,0.30520442
244700957,0.30379602,0.11500342,0.30520442
244722240,0.30379602,0.11500342,0.31453755
244743387,0.30379602,0.11205071,0.30831546
244764545,0.30379602,0.11205071,0.31453755
244785745,0.30081484,0.11500342,0.30831546
244806973,0.30081484,0.11205071,0.30831546
244828187,0.30081484,0.109098,0.31453755
244849375,0.2978337,0.11205071,0.30831546
244870584,0.2978337,0.11500342,0.31142652
244891770,0.30379602,0.11205071,0.30831546
244912947,0.30081484,0.109098,0.32075962
244934199,0.30081484,0.11205071,0.32387066
244955358,0.30081484,0.11205071,0.3176486
244976564,0.2978337,0.109098,0.32075962
244997771,0.30081484,0.11205071,0.3176486
245018925,0.30081484,0.11205071,0.31453755
245040175,0.30379602,0.109098,0.3176486
245061369,0.30379602,0.11205071,0.31453755
245082585,0.30081484,0.109098,0.31453755
245103765,0.30379602,0.11205071,0.3176486
245124981,0.30081484,0.11205071,0.3176486
245146131,0.30081484,0.109098,0.3176486
245167362,0.30081484,0.109098,0.3176486
245188565,0.30081484,0.11205071,0.30831546
245209771,0.30081484,0.109098,0.30831546
245231003,0.30379602,0.11205071,0.31142652
245252179,0.30379602,0.1061453,0.30831546
245273328,0.30379602,0.11205071,0.30831546
245294526,0.30379602,0.11205071,0.30831546
245315777,0.30379602,0.11205071,0.30831546
245336987,0.30677718,0.11205071,0.32075962
245358176,0.30379602,0.109098,0.30831546
245379355,0.30081484,0.109098,0.31453755
245400519,0.30379602,0.1061453,0.31142652
245421728,0.30081484,0.109098,0.30831546
245442990,0.30379602,0.109098,0.30831546
245464202,0.30081484,0.1061453,0.31142652
245485361,0.30081484,0.109098,0.30831546
245506554,0.30081484,0.109098,0.30831546
245527795,0.30081484,0.109098,0.32075962
245548945,0.2978337,0.109098,0.32075962
245570179,0.29485255,0.1061453,0.3176486
245591346,0.29187137,0.109098,0.3269817
245612592,0.29187137,0.1061453,0.32387066
245633797,0.29187137,0.10319259,0.32387066
245654981,0.28889024,0.1061453,0.33009273
245676139,0.2859091,0.10319259,0.32387066
245697369,0.2859091,0.10319259,0.3269817
245718550,0.28292793,0.10023989,0.32387066
245739804,0.28292793,0.10023989,0.3363148
245760959,0.27994677,0.10023989,0.3363148
245782162,0.27696562,0.10023989,0.3363148
245803322,0.27696562,0.10023989,0.34564793
245824567,0.27398446,0.10319259,0.33942583
245845781,0.27100328,0.10023989,0.33942583
245866972,0.27398446,0.10023989,0.3425369
245888147,0.26802215,0.10023989,0.34564793
245909361,0.26802215,0.10023989,0.3425369
245930525,0.26802215,0.10023989,0.34875894
245951808,0.265041,0.10023989,0.34875894
245972969,0.265041,0.10023989,0.34875894
245994210,0.265041,0.10023989,0.34875894
246015363,0.265041,0.10023989,0.34875894
246036598,0.25907868,0.10023989,0.35187
246057777,0.25907868,0.09728718,0.34564793
246078991,0.25609753,0.10023989,0.34875894
246100156,0.25609753,0.10023989,0.35809207
246121366,0.25609753,0.09728718,0.34875894
246142588,0.25311637,0.10023989,0.35498103
246163776,0.25311637,0.09728718,0.35498103
246184935,0.25311637,0.10023989,0.35187
246206128,0.25311637,0.10023989,0.35809207
246227348,0.25311637,0.10023989,0.35809207
246248670,0.2501352,0.10023989,0.35809207
246269823,0.2501352,0.10023989,0.35498103
246290989,0.2501352,0.10319259,0.35809207
246312148,0.24715406,0.10319259,0.35498103
246333330,0.2441729,0.10319259,0.35809207
246354580,0.24715406,0.10023989,0.35809207
246375787,0.2441729,0.10023989,0.35809207
246397763,0.24119174,0.10023989,0.37364727
246418955,0.2441729,0.10319259,0.35498103
246440145,0.2441729,0.10319259,0.36431414
246461387,0.23821059,0.10319259,0.36431414
246482582,0.24119174,0.1061453,0.36431414
246503776,0.24119174,0.1061453,0.3612031
246524945,0.2441729,0.1061453,0.36431414
246546157,0.23821059,0.1061453,0.36431414
246567384,0.24119174,0.10319259,0.3612031
246588571,0.23821059,0.10319259,0.36742517
246609774,0.24119174,0.10319259,0.35809207
246630969,0.23522945,0.10023989,0.36431414
246652155,0.24119174,0.10023989,0.36431414
246673400,0.24119174,0.10023989,0.36742517
246694565,0.2441729,0.10023989,0.3612031
246715774,0.23821059,0.10319259,0.37364727
246736934,0.23821059,0.10023989,0.36431414
246758172,0.23522945,0.10319259,0.36431414
246779393,0.23821059,0.10319259,0.36742517
246800575,0.23821059,0.10319259,0.3612031
246821789,0.24119174,0.1061453,0.35809207
246842975,0.24119174,0.1061453,0.36431414
246864135,0.24119174,0.1061453,0.3612031
246885405,0.24119174,0.1061453,0.3612031
246906567,0.23821059,0.1061453,0.35809207
246927765,0.23821059,0.1061453,0.36742517
246948950,0.23522945,0.1061453,0.3612031
246970200,0.23522945,0.1061453,0.35809207
246991361,0.23522945,0.109098,0.36431414
247012583,0.23522945,0.1061453,0.36431414
247033752,0.23522945,0.109098,0.3705362
247054962,0.23522945,0.109098,0.36431414
247076188,0.23522945,0.11205071,0.3612031
247097383,0.23224828,0.109098,0.36431414
247118545,0.23522945,0.109098,0.36431414
247139769,0.22926712,0.1061453,0.36742517
247160949,0.23522945,0.109098,0.36742517
247182235,0.22926712,0.109098,0.36431414
247203388,0.23224828,0.109098,0.3705362
247224576,0.23821059,0.11205071,0.35498103
247245771,0.23224828,0.109098,0.3612031
247266925,0.23522945,0.11205071,0.35187
247288172,0.23522945,0.11205071,0.3612031
247309388,0.23821059,0.11205071,0.3612031
247330538,0.23821059,0.11205071,0.3612031
247351774,0.23522945,0.11205071,0.36431414
247372984,0.23522945,0.11205071,0.3612031
247394166,0.23522945,0.109098,0.36742517
247415361,0.23224828,0.11205071,0.35498103
247436563,0.22926712,0.11205071,0.36431414
247457743,0.23821059,0.11205071,0.35187
247479005,0.23224828,0.11205071,0.36431414
247500170,0.23224828,0.11205071,0.35498103
247521328,0.23522945,0.109098,0.37364727
247542582,0.22926712,0.1061453,0.36431414
247563770,0.23224828,0.11205071,0.35809207
247584984,0.23224828,0.11205071,0.36742517
247606172,0.23522945,0.109098,0.36431414
247627349,0.23224828,0.11205071,0.35809207
247648525,0.23522945,0.11205071,0.3612031
247669725,0.23522945,0.11205071,0.3612031
247690993,0.23224828,0.11205071,0.35809207
247712161,0.23224828,0.11205071,0.3612031
247733366,0.22926712,0.109098,0.3612031
247754552,0.22926712,0.11205071,0.3612031
247775765,0.23522945,0.11205071,0.3612031
247796923,0.23224828,0.11205071,0.36742517
247818164,0.22926712,0.109098,0.36742517
247839350,0.22926712,0.109098,0.36742517
247860560,0.22926712,0.109098,0.35809207
247881783,0.22926712,0.11205071,0.3612031
247902971,0.22926712,0.11205071,0.36742517
247924134,0.22628598,0.109098,0.37675828
247945353,0.22628598,0.109098,0.36431414
247966548,0.22628598,0.109098,0.3705362
247987786,0.22628598,0.109098,0.36742517
248008969,0.23224828,0.109098,0.36431414
248030163,0.22926712,0.109098,0.3612031
248051321,0.23224828,0.11205071,0.36431414
248072586,0.23224828,0.109098,0.36742517
248093791,0.23224828,0.11205071,0.36431414
248114997,0.23224828,0.11205071,0.37364727
248136176,0.22628598,0.11205071,0.36431414
248157374,0.23224828,0.11205071,0.3612031
248178530,0.22926712,0.11205071,0.3612031
248199813,0.23224828,0.11205071,0.3612031
248220972,0.23821059,0.11205071,0.35809207
248242166,0.23224828,0.11205071,0.36431414
248263357,0.23522945,0.109098,0.36431414
248284598,0.23522945,0.11205071,0.36431414
248305774,0.23224828,0.109098,0.36431414
248326976,0.23522945,0.11205071,0.3612031
248348144,0.23821059,0.11205071,0.36431414
248369363,0.23821059,0.11205071,0.3612031
248390585,0.23522945,0.11205071,0.3612031
248411775,0.23821059,0.11205071,0.3612031
248432930,0.23821059,0.11205071,0.3612031
248454181,0.23522945,0.11205071,0.36431414
248475356,0.23224828,0.11205071,0.3612031
248496599,0.23522945,0.11205071,0.35187
248517795,0.23224828,0.11500342,0.3612031
248538962,0.23522945,0.11205071,0.3612031
248560121,0.23224828,0.11205071,0.35809207
248581322,0.23522945,0.109098,0.36431414
248602633,0.23821059,0.11205071,0.3612031
248623782,0.23821059,0.11205071,0.3612031
248644946,0.23522945,0.11205071,0.3612031
248666161,0.23522945,0.11205071,0.3612031
248687386,0.23821059,0.109098,0.35809207
248708534,0.23224828,0.11205071,0.35498103
248729756,0.23522945,0.11205071,0.3612031
248750968,0.23821059,0.109098,0.36431414
248772140,0.23522945,0.109098,0.36431414
248793396,0.23224828,0.109098,0.36742517
248814552,0.23522945,0.11205071,0.35809207
248835767,0.23821059,0.11205071,0.3612031
248856969,0.23522945,0.11205071,0.36431414
248878162,0.24119174,0.109098,0.36742517
248899385,0.23821059,0.109098,0.36431414
248920585,0.23522945,0.109098,0.3612031
248941771,0.23522945,0.109098,0.3612031
248962930,0.23821059,0.109098,0.36431414
248984151,0.23821059,0.109098,0.3705362
249005394,0.23522945,0.11205071,0.36431414
249026570,0.23821059,0.11205071,0.3612031
249047769,0.23224828,0.11205071,0.3612031
249068951,0.23224828,0.11205071,0.3612031
249090124,0.23821059,0.109098,0.36742517
249111394,0.23224828,0.109098,0.36431414
249132587,0.23224828,0.1061453,0.3705362
249153771,0.23224828,0.1061453,0.36431414
249174957,0.23224828,0.1061453,0.36431414
249196211,0.23821059,0.1061453,0.36742517
249217359,0.23522945,0.1061453,0.36742517
249238557,0.22926712,0.1061453,0.36431414
249259769,0.22926712,0.1061453,0.36431414
249280950,0.23522945,0.1061453,0.36431414
249302240,0.23224828,0.1061453,0.36742517
249323392,0.22926712,0.1061453,0.35809207
249344540,0.23522945,0.1061453,0.35809207
249365725,0.23224828,0.1061453,0.36431414
249386965,0.23224828,0.1061453,0.3612031
249408176,0.23224828,0.109098,0.35809207
249429376,0.23224828,0.1061453,0.36431414
249450546,0.23522945,0.1061453,0.3612031
249471765,0.23522945,0.109098,0.36742517
249492921,0.23224828,0.1061453,0.36431414
249514196,0.23522945,0.109098,0.35809207
249535357,0.23224828,0.1061453,0.36742517
249556567,0.23522945,0.1061453,0.36742517
249577773,0.23522945,0.1061453,0.3612031
249598997,0.23522945,0.10319259,0.36742517
249620183,0.23522945,0.10319259,0.3612031
249641376,0.23821059,0.109098,0.35809207
249662585,0.23522945,0.1061453,0.36742517
249683775,0.23522945,0.1061453,0.3612031
249704987,0.23522945,0.1061453,0.36431414
249726172,0.23224828,0.10319259,0.3705362
249747327,0.23821059,0.10319259,0.35809207
249768559,0.24119174,0.10319259,0.36742517
249789771,0.23821059,0.10319259,0.36742517
249811006,0.23821059,0.10023989,0.36431414
249832164,0.23522945,0.10319259,0.3612031
249853365,0.23522945,0.1061453,0.35809207
249874521,0.23821059,0.10319259,0.36431414
249895766,0.23224828,0.10319259,0.3612031
249916983,0.23522945,0.10319259,0.36431414
249938179,0.23522945,0.10319259,0.36431414
249959340,0.23224828,0.10319259,0.37364727
249980576,0.23224828,0.10319259,0.3612031
250001756,0.23224828,0.10319259,0.36431414
250023013,0.24119174,0.10319259,0.3612031
250044160,0.23224828,0.10319259,0.36742517
250065361,0.23522945,0.1061453,0.3612031
250086543,0.22926712,0.10319259,0.3612031
250107792,0.23522945,0.1061453,0.36431414
250128947,0.22926712,0.1061453,0.3612031
250150171,0.23224828,0.1061453,0.36431414
250171347,0.23522945,0.109098,0.3612031
250192590,0.23224828,0.1061453,0.36742517
250213796,0.23224828,0.1061453,0.3612031
250234984,0.23522945,0.1061453,0.3612031
250256138,0.23522945,0.1061453,0.3612031
250277321,0.23821059,0.1061453,0.36742517
250298547,0.23224828,0.1061453,0.3705362
250319813,0.22926712,0.1061453,0.36431414
250340971,0.23522945,0.1061453,0.36431414
250362159,0.23522945,0.1061453,0.37364727
250383360,0.23522945,0.109098,0.35809207
250404520,0.23522945,0.109098,0.3612031
250425779,0.23224828,0.1061453,0.3612031
250446971,0.23224828,0.1061453,0.36431414
250468151,0.23522945,0.1061453,0.3612031
250489374,0.23522945,0.1061453,0.36742517
250510588,0.23522945,0.1061453,0.3612031
250531765,0.23821059,0.1061453,0.36742517
250552961,0.22926712,0.1061453,0.3612031
250574188,0.24119174,0.1061453,0.36742517
250595347,0.23224828,0.1061453,0.3705362
250616593,0.23522945,0.1061453,0.36431414
250637772,0.23821059,0.1061453,0.36431414
250658929,0.23522945,0.1061453,0.36742517
250680145,0.23821059,0.1061453,0.36742517
250701368,0.23821059,0.109098,0.35809207
250722600,0.23821059,0.1061453,0.36431414
250743779,0.23522945,0.1061453,0.3612031
250764960,0.23224828,0.1061453,0.3612031
250786131,0.23522945,0.1061453,0.3612031
250807352,0.23224828,0.109098,0.36431414
250828594,0.23821059,0.109098,0.35809207
250849779,0.23522945,0.1061453,0.3612031
250870965,0.23821059,0.109098,0.36431414
250892144,0.23522945,0.109098,0.35809207
250913326,0.24119174,0.109098,0.3612031
250934582,0.23522945,0.109098,0.36431414
250955778,0.23224828,0.11205071,0.35498103
250976946,0.24119174,0.109098,0.36742517
250998166,0.23821059,0.11205071,0.35809207
251019378,0.23821059,0.11205071,0.35809207
251040528,0.24119174,0.11205071,0.35498103
251061722,0.23522945,0.11205071,0.35498103
251082975,0.24119174,0.11205071,0.36431414
251104179,0.23522945,0.11205071,0.3612031
251125401,0.23224828,0.11205071,0.3612031
251146556,0.23522945,0.109098,0.3612031
251167782,0.23224828,0.109098,0.36431414
251188934,0.23224828,0.1061453,0.36431414
251210160,0.23522945,0.109098,0.36742517
251231371,0.23522945,0.1061453,0.3612031
251252587,0.23522945,0.109098,0.36742517
251273771,0.23522945,0.109098,0.3612031
251294928,0.23224828,0.109098,0.3705362
251316121,0.23821059,0.109098,0.36742517
251337387,0.23224828,0.1061453,0.36431414
251358566,0.23224828,0.1061453,0.3612031
251379770,0.23522945,0.1061453,0.36431414
251400952,0.23224828,0.109098,0.36742517
251422235,0.23224828,0.1061453,0.37364727
251443397,0.22926712,0.1061453,0.36431414
251464574,0.22926712,0.1061453,0.3612031
251485761,0.23224828,0.1061453,0.3612031
251506970,0.23522945,0.10319259,0.36431414
251528189,0.23224828,0.1061453,0.3705362
251549379,0.22926712,0.10319259,0.36742517
251570534,0.22926712,0.10319259,0.36742517
251591765,0.23224828,0.1061453,0.36431414
251612949,0.23224828,0.10319259,0.36742517
251634186,0.23224828,0.10319259,0.3612031
251655367,0.23522945,0.10319259,0.36742517
251676555,0.23224828,0.10023989,0.36431414
251697724,0.23224828,0.10023989,0.36742517
251718960,0.23522945,0.10023989,0.36742517
251740184,0.22926712,0.10023989,0.37364727
251761362,0.23224828,0.10023989,0.36431414
251782584,0.23224828,0.10023989,0.3705362
