timestamp,time_utc_usec,lat,lon,alt,alt_ellipsoid,s_variance_m_s,c_variance_rad,eph,epv,hdop,vdop,noise_per_ms,jamming_indicator,vel_m_s,vel_n_m_s,vel_e_m_s,vel_d_m_s,cog_rad,timestamp_time_relative,heading,heading_offset,fix_type,vel_ned_valid,satellites_used
221717050,1585336910600193,323880598,-1170744240,21014,-13427,0.19800001,0.6437118,0.61800003,0.92300004,0.52,0.91999996,86,4,0.032,-0.025,0.019000001,-0.043,3.4750905,0,nan,0.0,4,1,22
221929777,1585336910800193,323880598,-1170744240,21033,-13408,0.165,0.6437188,0.61800003,0.92300004,0.52,0.91999996,86,4,0.029000001,-0.018000001,0.023000002,-0.009000001,3.4750905,0,nan,0.0,4,1,22
222117274,1585336911000193,323880598,-1170744239,21026,-13415,0.18800001,0.64372677,0.61800003,0.92300004,0.52,0.91999996,86,4,0.052,-0.014,0.05,-0.034,3.4750905,0,nan,0.0,4,1,22
222316994,1585336911200193,323880598,-1170744239,21030,-13411,0.20500001,0.6437355,0.61700004,0.92200005,0.52,0.91999996,86,2,0.024,0.019000001,0.013,0.054,3.4750905,0,nan,0.0,4,1,22
222514995,1585336911400193,323880598,-1170744239,21044,-13397,0.18,0.64374316,0.61700004,0.92200005,0.52,0.91999996,86,2,0.023000002,-0.011000001,-0.020000001,0.015000001,3.4750905,0,nan,0.0,4,1,22
222718094,1585336911600193,323880598,-1170744240,21051,-13390,0.19900002,0.64375156,0.61700004,0.92200005,0.52,0.91999996,86,2,0.012,0.002,-0.012,-0.017,3.4750905,0,nan,0.0,4,1,22
222918995,1585336911800193,323880598,-1170744241,21059,-13382,0.16900001,0.64375895,0.61700004,0.92200005,0.52,0.91999996,86,2,0.021000002,-0.004,-0.021000002,0.001,3.4750905,0,nan,0.0,4,1,22
223118830,1585336912000193,323880598,-1170744242,21074,-13367,0.15400001,0.6437654,0.61700004,0.92100006,0.52,0.91999996,86,2,0.036000002,-0.021000002,-0.030000001,0.004,3.4750905,0,nan,0.0,4,1,22
223318989,1585336912200193,323880597,-1170744243,21093,-13348,0.18,0.6437731,0.61700004,0.92100006,0.52,0.91999996,86,3,0.037,0.003,-0.037,-0.022000002,3.4750905,0,nan,0.0,4,1,22
223516995,1585336912400193,323880597,-1170744243,21093,-13348,0.16100001,0.6437799,0.61700004,0.92,0.52,0.91999996,86,3,0.041,-0.023000002,0.034,-0.001,3.4750905,0,nan,0.0,4,1,22
223713008,1585336912600193,323880597,-1170744244,21086,-13355,0.21000001,0.64378875,0.61600006,0.92,0.52,0.91999996,86,3,0.017,0.013,-0.011000001,-0.065000005,3.4750905,0,nan,0.0,4,1,22
223918061,1585336912800193,323880598,-1170744244,21090,-13351,0.209,0.6437977,0.61600006,0.92,0.52,0.91999996,86,3,0.008,0.006,0.0050000004,-0.033,3.4750905,0,nan,0.0,4,1,22
224118998,1585336913000193,323880597,-1170744245,21097,-13344,0.15200001,0.64380413,0.61600006,0.92,0.52,0.91999996,86,3,0.063,-0.047000002,0.041,0.012,3.4750905,0,nan,0.0,4,1,22
224318992,1585336913200192,323880597,-1170744245,21097,-13344,0.21700001,0.6438134,0.61600006,0.919,0.52,0.91999996,87,2,0.012,-0.008,0.008,-0.11100001,3.4750905,0,nan,0.0,4,1,22
224517910,1585336913400192,323880597,-1170744245,21113,-13328,0.21200001,0.64382243,0.61600006,0.919,0.52,0.91999996,87,2,0.051000003,-0.016,0.049000002,-0.1,3.4750905,0,nan,0.0,4,1,22
224716113,1585336913600192,323880597,-1170744244,21128,-13313,0.21100001,0.6438314,0.615,0.919,0.52,0.91999996,87,2,0.068,-0.017,0.066,-0.11800001,3.4750905,0,nan,0.0,4,1,22
224908992,1585336913800192,323880597,-1170744243,21124,-13317,0.19800001,0.643842,0.615,0.91800004,0.52,0.91999996,87,2,0.148,0.08400001,0.12100001,-0.19900002,3.4750905,0,nan,0.0,4,1,22
225120992,1585336914000192,323880599,-1170744240,21204,-13237,0.216,0.64386415,0.615,0.91800004,0.52,0.91999996,87,2,0.187,0.102000006,0.156,-0.48600003,3.4750905,0,nan,0.0,4,1,22
225304995,1585336914200192,323880600,-1170744236,21348,-13093,0.209,0.39358917,0.614,0.91800004,0.52,0.91999996,87,2,0.30100003,0.046000004,0.29700002,-0.823,1.9768658,0,nan,0.0,4,1,22
225506094,1585336914400192,323880601,-1170744230,21573,-12868,0.209,0.34027687,0.614,0.91700006,0.52,0.91999996,87,2,0.349,0.058000002,0.344,-1.289,1.6495322,0,nan,0.0,4,1,22
225706059,1585336914600192,323880602,-1170744223,21883,-12558,0.20700002,0.35635382,0.61300004,0.91600007,0.52,0.91999996,87,2,0.333,0.058000002,0.328,-1.651,1.5279921,0,nan,0.0,4,1,22
225906996,1585336914800192,323880606,-1170744217,22204,-12237,0.201,0.3022453,0.61300004,0.915,0.52,0.91999996,87,2,0.48200002,0.31800002,0.363,-1.6840001,1.1347679,0,nan,0.0,4,1,22
226101371,1585336915000192,323880615,-1170744208,22534,-11907,0.21200001,0.19981873,0.61300004,0.915,0.52,0.91999996,87,2,0.79800004,0.634,0.48400003,-1.7850001,0.79846454,0,nan,0.0,4,1,22
226308756,1585336915200192,323880631,-1170744198,22883,-11558,0.19900002,0.13019353,0.61300004,0.915,0.52,0.91999996,87,2,1.2290001,1.138,0.46500003,-1.651,0.5101833,0,nan,0.0,4,1,22
226511089,1585336915400192,323880656,-1170744187,23184,-11257,0.185,0.09516145,0.61200005,0.91600007,0.52,0.91999996,87,2,1.6840001,1.554,0.647,-1.5530001,0.43441558,0,nan,0.0,4,1,22
226707004,1585336915600192,323880691,-1170744176,23522,-10919,0.17400001,0.07509576,0.61300004,0.91600007,0.52,0.91999996,87,2,2.398,2.3560002,0.44900003,-1.6020001,0.2817134,0,nan,0.0,4,1,22
226912431,1585336915800192,323880742,-1170744172,23818,-10623,0.16800001,0.058361713,0.61300004,0.91800004,0.52,0.91999996,87,2,3.3260002,3.3260002,-0.078,-1.5680001,0.089015104,0,nan,0.0,4,1,22
227112256,1585336916000192,323880811,-1170744176,24146,-10295,0.15200001,0.04859398,0.614,0.919,0.52,0.91999996,87,2,4.3240004,4.3190002,-0.201,-1.409,0.0067418576,0,nan,0.0,4,1,22
227312995,1585336916200192,323880898,-1170744186,24399,-10042,0.147,0.040136464,0.615,0.92100006,0.52,0.91999996,87,2,5.36,5.306,-0.75600004,-1.3260001,6.197491,0,nan,0.0,4,1,22
227512995,1585336916400192,323881001,-1170744208,24621,-9820,0.14600001,0.03728477,0.61700004,0.924,0.52,0.91999996,87,2,6.2440004,6.0820003,-1.4120001,-0.93200004,6.1142125,0,nan,0.0,4,1,22
227710169,1585336916600192,323881118,-1170744243,24764,-9677,0.14600001,0.033385877,0.619,0.92600006,0.52,0.91999996,87,2,7.122,6.8560004,-1.9280001,-0.83900005,6.0494866,0,nan,0.0,4,1,22
227910065,1585336916800192,323881245,-1170744293,24906,-9535,0.15100001,0.03103684,0.62200004,0.929,0.52,0.91999996,87,2,7.6980004,7.1730003,-2.795,-0.84400004,5.9646654,0,nan,0.0,4,1,22
228114995,1585336917000192,323881374,-1170744362,25143,-9298,0.147,0.025912553,0.624,0.93100005,0.52,0.91999996,87,2,8.068001,7.2380004,-3.5630002,-1.0320001,5.8257284,0,nan,0.0,4,1,22
228310264,1585336917200192,323881506,-1170744444,25315,-9126,0.147,0.02737863,0.62600005,0.93200004,0.52,0.91999996,87,3,8.465,7.3650002,-4.1720004,-0.87200004,5.767786,0,nan,0.0,4,1,22
228506073,1585336917400192,323881638,-1170744537,25462,-8979,0.136,0.023954818,0.628,0.933,0.52,0.91999996,87,3,8.573,7.1410003,-4.7450004,-0.77500004,5.6967254,0,nan,0.0,4,1,22
228710613,1585336917600192,323881763,-1170744650,25663,-8778,0.14600001,0.024977231,0.63000005,0.934,0.52,0.91999996,87,3,8.8550005,6.7730002,-5.7050004,-0.91400003,5.5831466,0,nan,0.0,4,1,22
228902691,1585336917800192,323881882,-1170744776,25912,-8529,0.148,0.024606522,0.632,0.93600005,0.52,0.91999996,87,3,8.889001,6.584,-5.972,-1.0500001,5.5464916,0,nan,0.0,4,1,22
229108995,1585336918000192,323881998,-1170744906,26099,-8342,0.16100001,0.02491213,0.634,0.93700004,0.52,0.91999996,87,3,8.884001,6.2660003,-6.2970004,-0.81700003,5.495333,0,nan,0.0,4,1,22
229312128,1585336918200192,323882111,-1170745041,26320,-8121,0.172,0.025933672,0.637,0.94000006,0.52,0.91999996,87,3,8.977,6.2070003,-6.4860005,-1.2440001,5.475855,0,nan,0.0,4,1,22
229512992,1585336918400192,323882221,-1170745181,26587,-7854,0.178,0.025911681,0.64000005,0.94200003,0.52,0.91999996,87,3,9.029,6.0520005,-6.7000003,-1.3330001,5.4470873,0,nan,0.0,4,1,22
229712992,1585336918600192,323882331,-1170745322,26793,-7648,0.17300001,0.023402771,0.643,0.943,0.52,0.91999996,87,3,9.033,6.038,-6.7190003,-1.041,5.44445,0,nan,0.0,4,1,22
229910993,1585336918800192,323882441,-1170745464,26976,-7465,0.179,0.026195122,0.64500004,0.94600004,0.52,0.91999996,87,3,9.145,6.1250005,-6.7910004,-0.96800005,5.4463043,0,nan,0.0,4,1,22
230114062,1585336919000192,323882551,-1170745611,27227,-7214,0.177,0.024425535,0.648,0.9480001,0.52,0.91999996,87,3,9.226001,6.149,-6.8780003,-1.118,5.441849,0,nan,0.0,4,1,22
230310103,1585336919200192,323882660,-1170745757,27427,-7014,0.18200001,0.024989273,0.651,0.95100003,0.52,0.91999996,87,2,9.148001,5.9820004,-6.9210005,-1.088,5.425138,0,nan,0.0,4,1,22
230509526,1585336919400192,323882767,-1170745901,27704,-6737,0.164,0.024234245,0.65400004,0.952,0.52,0.91999996,87,2,8.854,5.945,-6.5610003,-1.381,5.448593,0,nan,0.0,4,1,22
230707052,1585336919600192,323882870,-1170746040,28017,-6424,0.18100001,0.028006773,0.656,0.95500004,0.52,0.91999996,87,2,8.417001,5.5140004,-6.359,-1.6350001,5.4267306,0,nan,0.0,4,1,22
230903007,1585336919800192,323882965,-1170746170,28402,-6039,0.18300001,0.028351128,0.65800005,0.957,0.52,0.91999996,87,2,7.7240005,5.057,-5.8380003,-1.8900001,5.426438,0,nan,0.0,4,1,22
231113017,1585336920000192,323883052,-1170746286,28785,-5656,0.17400001,0.029394833,0.65900004,0.95900005,0.52,0.91999996,87,2,6.8100004,4.5740004,-5.045,-1.8390001,5.4394307,0,nan,0.0,4,1,22
231317000,1585336920200191,323883134,-1170746386,29113,-5328,0.18,0.030634543,0.66,0.96000004,0.52,0.91999996,87,10,6.2660003,4.5360003,-4.3230004,-1.447,5.485957,0,nan,0.0,4,1,22
231508439,1585336920400191,323883217,-1170746466,29337,-5104,0.18,0.031184843,0.66,0.961,0.52,0.91999996,87,10,5.701,4.6530004,-3.2940001,-0.95100003,5.5880604,0,nan,0.0,4,1,22
231703022,1585336920600191,323883301,-1170746526,29454,-4987,0.185,0.03879361,0.66,0.96300006,0.52,0.91999996,87,10,5.2200003,4.6280003,-2.4160001,-0.53300005,5.6855803,0,nan,0.0,4,1,22
231908206,1585336920800191,323883383,-1170746568,29528,-4913,0.17,0.03555288,0.661,0.96400005,0.52,0.91999996,87,10,4.688,4.413,-1.58,-0.32200003,5.8333406,0,nan,0.0,4,1,22
232106995,1585336921000191,323883457,-1170746595,29572,-4869,0.155,0.04969057,0.661,0.96500003,0.52,0.91999996,87,10,3.9750001,3.8450003,-1.01,-0.15200001,5.905711,0,nan,0.0,4,1,22
232309043,1585336921200191,323883520,-1170746613,29610,-4831,0.14600001,0.06363016,0.661,0.966,0.52,0.91999996,87,16,3.177,3.084,-0.76100004,-0.053000003,5.9592366,0,nan,0.0,4,1,22
232510037,1585336921400191,323883567,-1170746627,29638,-4803,0.13800001,0.08891108,0.66200006,0.96700007,0.52,0.91999996,87,16,2.233,2.147,-0.61300004,-0.068,5.975084,0,nan,0.0,4,1,22
232712113,1585336921600191,323883600,-1170746638,29659,-4781,0.13900001,0.12937479,0.66200006,0.96800005,0.52,0.91999996,87,16,1.5500001,1.485,-0.44300002,-0.048,5.9809537,0,nan,0.0,4,1,22
232912286,1585336921800191,323883622,-1170746647,29664,-4777,0.14500001,0.20023794,0.66200006,0.96900004,0.52,0.91999996,87,16,0.97300005,0.87500006,-0.42700002,-0.0050000004,5.93601,0,nan,0.0,4,1,22
233104268,1585336922000191,323883634,-1170746654,29683,-4758,0.15300001,0.34681627,0.66200006,0.96900004,0.52,0.91999996,87,16,0.532,0.43800002,-0.30200002,-0.142,5.8719597,0,nan,0.0,4,1,22
233311546,1585336922200191,323883640,-1170746659,29741,-4700,0.194,0.5048539,0.66200006,0.97,0.52,0.91999996,87,4,0.35500002,0.25,-0.25300002,-0.35200003,5.750204,0,nan,0.0,4,1,22
233507460,1585336922400191,323883644,-1170746664,29818,-4622,0.192,0.6819573,0.66300005,0.97,0.52,0.91999996,87,4,0.26000002,0.17,-0.19600001,-0.23900001,5.635583,0,nan,0.0,4,1,22
233710990,1585336922600191,323883649,-1170746666,29929,-4512,0.19800001,0.53056246,0.66300005,0.97,0.52,0.91999996,87,4,0.372,0.36100003,-0.09,-0.66,5.886305,0,nan,0.0,4,1,22
233910059,1585336922800191,323883652,-1170746669,30196,-4245,0.22500001,0.5306328,0.66300005,0.97,0.52,0.91999996,87,4,0.13900001,0.071,-0.120000005,-1.3540001,5.886305,0,nan,0.0,4,1,22
234109033,1585336923000191,323883654,-1170746671,30556,-3884,0.22500001,0.53074956,0.66300005,0.97,0.52,0.91999996,87,4,0.155,0.123,-0.094000004,-2.256,5.886305,0,nan,0.0,4,1,22
234309061,1585336923200191,323883657,-1170746672,31036,-3405,0.22500001,0.53088534,0.66300005,0.97,0.52,0.91999996,87,4,0.1,0.097,-0.024,-2.6260002,5.886305,0,nan,0.0,4,1,22
234506996,1585336923400191,323883658,-1170746673,31595,-2846,0.224,0.53103244,0.66300005,0.96900004,0.52,0.91999996,87,4,0.09200001,0.07,-0.060000002,-2.8460002,5.886305,0,nan,0.0,4,1,22
234710992,1585336923600191,323883659,-1170746674,32192,-2249,0.22600001,0.53118587,0.66300005,0.96900004,0.5,0.84,87,4,0.017,0.014,-0.009000001,-2.9720001,5.886305,0,nan,0.0,4,1,23
234911003,1585336923800191,323883659,-1170746674,32785,-1656,0.22700001,0.5313426,0.66400003,0.96900004,0.5,0.84,87,4,0.058000002,-0.030000001,-0.05,-3.0360003,5.886305,0,nan,0.0,4,1,23
235116294,1585336924000191,323883658,-1170746673,33393,-1048,0.23,0.5315023,0.66400003,0.96900004,0.5,0.84,87,4,0.192,-0.178,0.07300001,-3.0900002,5.886305,0,nan,0.0,4,1,23
235314993,1585336924200191,323883654,-1170746672,34014,-427,0.22500001,0.5316641,0.66400003,0.96900004,0.5,0.84,87,5,0.209,-0.208,0.025,-3.127,5.886305,0,nan,0.0,4,1,23
235515039,1585336924400191,323883652,-1170746671,34625,184,0.22800002,0.5318212,0.66400003,0.96900004,0.5,0.84,87,5,0.149,-0.148,0.013,-3.0430002,5.886305,0,nan,0.0,4,1,23
235715001,1585336924600191,323883649,-1170746671,35236,795,0.22100002,0.53197545,0.66400003,0.96900004,0.5,0.84,87,5,0.18100001,-0.18100001,0.007,-2.989,5.886305,0,nan,0.0,4,1,23
235912166,1585336924800191,323883646,-1170746670,35801,1360,0.22600001,0.5321214,0.665,0.96900004,0.5,0.84,87,5,0.19600001,-0.18200001,0.07300001,-2.825,5.886305,0,nan,0.0,4,1,23
236113006,1585336925000191,323883643,-1170746669,36336,1895,0.223,0.5322542,0.665,0.96900004,0.5,0.84,87,5,0.19000001,-0.19000001,-0.010000001,-2.568,5.886305,0,nan,0.0,4,1,23
236309310,1585336925200191,323883641,-1170746670,36812,2371,0.22200002,0.53237796,0.666,0.96900004,0.5,0.84,87,5,0.13900001,-0.080000006,-0.11400001,-2.4,5.886305,0,nan,0.0,4,1,23
236512242,1585336925400191,323883640,-1170746671,37277,2837,0.22000001,0.5324893,0.666,0.96900004,0.5,0.84,87,5,0.109000005,-0.109000005,-0.013,-2.16,5.886305,0,nan,0.0,4,1,23
236711002,1585336925600191,323883639,-1170746671,37688,3247,0.223,0.5325884,0.666,0.96900004,0.5,0.84,87,5,0.07700001,-0.065000005,-0.041,-1.9240001,5.886305,0,nan,0.0,4,1,23
236910993,1585336925800191,323883638,-1170746671,38071,3630,0.223,0.5326813,0.666,0.96900004,0.5,0.84,87,5,0.052,-0.037,0.036000002,-1.802,5.886305,0,nan,0.0,4,1,23
237117004,1585336926000191,323883637,-1170746672,38421,3980,0.224,0.532768,0.666,0.96800005,0.5,0.84,87,5,0.056,-0.037,-0.042000003,-1.6860001,5.886305,0,nan,0.0,4,1,23
237308210,1585336926200191,323883637,-1170746673,38717,4276,0.224,0.53284466,0.666,0.96800005,0.5,0.84,87,7,0.095000006,-0.043,-0.085,-1.485,5.886305,0,nan,0.0,4,1,23
237514067,1585336926400191,323883637,-1170746674,39004,4563,0.22200002,0.5329132,0.666,0.96700007,0.5,0.84,87,7,0.043,-0.034,-0.026,-1.3330001,5.886305,0,nan,0.0,4,1,23
237715030,1585336926600191,323883637,-1170746675,39250,4810,0.22100002,0.532975,0.666,0.96700007,0.5,0.84,87,7,0.059000004,0.021000002,-0.055000003,-1.199,5.886305,0,nan,0.0,4,1,23
237914996,1585336926800191,323883638,-1170746676,39473,5032,0.22000001,0.5330314,0.666,0.966,0.5,0.84,87,7,0.142,0.045,-0.135,-1.0860001,5.886305,0,nan,0.0,4,1,23
238128201,1585336927000190,323883640,-1170746678,39617,5176,0.21700001,0.5330686,0.666,0.966,0.5,0.84,87,7,0.113000005,0.108,-0.036000002,-0.71500003,5.886305,0,nan,0.0,4,1,23
238316116,1585336927200190,323883642,-1170746679,39767,5326,0.21800001,0.533108,0.666,0.96500003,0.5,0.84,87,6,0.18100001,0.11400001,-0.141,-0.74500006,5.886305,0,nan,0.0,4,1,23
238512285,1585336927400190,323883643,-1170746679,39896,5456,0.22000001,0.5331358,0.666,0.96500003,0.5,0.84,87,6,0.096,-0.022000002,0.093,-0.532,5.886305,0,nan,0.0,4,1,23
238710996,1585336927600190,323883644,-1170746678,39987,5547,0.21300001,0.5331566,0.666,0.96500003,0.5,0.84,87,6,0.09900001,0.081,0.056,-0.38900003,5.886305,0,nan,0.0,4,1,23
238908213,1585336927800190,323883645,-1170746678,40093,5652,0.22000001,0.53318286,0.666,0.96400005,0.5,0.84,87,6,0.105000004,0.006,-0.105000004,-0.503,5.886305,0,nan,0.0,4,1,23
239110063,1585336928000190,323883645,-1170746677,40166,5725,0.20700002,0.53319824,0.666,0.96300006,0.5,0.84,87,6,0.127,-0.033,0.123,-0.27100003,5.886305,0,nan,0.0,4,1,23
239310992,1585336928200190,323883644,-1170746675,40221,5780,0.21900001,0.5332096,0.665,0.9620001,0.5,0.84,87,2,0.024,-0.016,0.017,-0.21000001,5.886305,0,nan,0.0,4,1,23
239510995,1585336928400190,323883644,-1170746673,40237,5796,0.18100001,0.53321886,0.665,0.9620001,0.5,0.84,87,2,0.11000001,-0.020000001,0.108,-0.046000004,5.886305,0,nan,0.0,4,1,23
239710067,1585336928600190,323883645,-1170746670,40234,5793,0.18300001,0.5332283,0.665,0.961,0.5,0.84,87,2,0.093,-0.007,0.09200001,-0.037,5.886305,0,nan,0.0,4,1,23
239910995,1585336928800190,323883645,-1170746668,40248,5807,0.193,0.53323805,0.665,0.961,0.5,0.84,87,2,0.08800001,0.056,0.069000006,0.037,5.886305,0,nan,0.0,4,1,23
240114994,1585336929000190,323883647,-1170746665,40228,5787,0.19700001,0.53324836,0.66400003,0.961,0.5,0.84,87,2,0.116000004,0.061000004,0.09900001,0.054,5.886305,0,nan,0.0,4,1,23
240331537,1585336929200190,323883648,-1170746662,40218,5777,0.216,0.53326213,0.66400003,0.96000004,0.5,0.84,87,2,0.15200001,0.074,0.132,0.22200002,5.886305,0,nan,0.0,4,1,23
240516217,1585336929400190,323883650,-1170746659,40183,5743,0.18400002,0.53327155,0.66300005,0.96000004,0.5,0.84,87,2,0.125,0.125,0.001,0.112,5.886305,0,nan,0.0,4,1,23
240716994,1585336929600190,323883652,-1170746658,40180,5739,0.18400002,0.53328097,0.66300005,0.95900005,0.5,0.84,87,2,0.108,0.108,0.0050000004,0.09,5.886305,0,nan,0.0,4,1,23
240918062,1585336929800190,323883654,-1170746657,40163,5722,0.178,0.5332902,0.66300005,0.95800006,0.5,0.84,87,2,0.044000003,0.043,-0.004,0.034,5.886305,0,nan,0.0,4,1,23
241122238,1585336930000190,323883655,-1170746656,40159,5719,0.16800001,0.5332988,0.66300005,0.957,0.5,0.84,87,2,0.054,0.054,-0.004,0.033,5.886305,0,nan,0.0,4,1,23
241318998,1585336930200190,323883656,-1170746655,40146,5705,0.127,0.5333052,0.66200006,0.95600003,0.5,0.84,87,2,0.041,0.040000003,-0.010000001,-0.002,5.886305,0,nan,0.0,4,1,23
241510995,1585336930400190,323883657,-1170746653,40157,5716,0.171,0.5333141,0.66200006,0.95600003,0.5,0.84,87,2,0.07,0.056,0.042000003,0.018000001,5.886305,0,nan,0.0,4,1,23
241710997,1585336930600190,323883659,-1170746652,40161,5720,0.141,0.5333215,0.66200006,0.95500004,0.5,0.84,87,2,0.093,0.08800001,-0.030000001,0.027,5.886305,0,nan,0.0,4,1,23
241908993,1585336930800190,323883660,-1170746651,40149,5708,0.13800001,0.5333285,0.661,0.95500004,0.5,0.84,87,2,0.087000005,0.08400001,-0.022000002,-0.023000002,5.886305,0,nan,0.0,4,1,23
242112994,1585336931000190,323883662,-1170746649,40157,5716,0.19000001,0.53333825,0.661,0.95400006,0.5,0.84,87,2,0.061000004,0.049000002,0.036000002,-0.102000006,5.886305,0,nan,0.0,4,1,23
242312996,1585336931200190,323883662,-1170746648,40202,5762,0.21900001,0.5333496,0.661,0.95400006,0.5,0.84,88,4,0.063,-0.002,-0.063,-0.208,5.886305,0,nan,0.0,4,1,23
242514060,1585336931400190,323883662,-1170746648,40241,5800,0.21800001,0.5333607,0.661,0.95300007,0.5,0.84,88,4,0.052,0.017,-0.049000002,-0.19500001,5.886305,0,nan,0.0,4,1,23
242708996,1585336931600190,323883662,-1170746649,40313,5872,0.21900001,0.5333819,0.66,0.95300007,0.5,0.84,88,4,0.13900001,0.001,-0.13900001,-0.386,5.886305,0,nan,0.0,4,1,23
242914057,1585336931800190,323883662,-1170746648,40336,5895,0.216,0.533397,0.66,0.95300007,0.51,0.84,88,4,0.076000005,-0.026,0.072000004,-0.286,5.886305,0,nan,0.0,4,1,22
243134062,1585336932000190,323883661,-1170746649,40413,5972,0.21900001,0.51636755,0.66,0.952,0.5,0.84,88,4,0.256,-0.10700001,-0.23300001,-0.33900002,5.058242,0,nan,0.0,4,1,23
243317002,1585336932200190,323883660,-1170746654,40511,6070,0.223,0.5697418,0.661,0.952,0.5,0.84,88,4,0.23300001,-0.006,-0.23300001,-0.49800003,4.8914304,0,nan,0.0,4,1,23
243516300,1585336932400190,323883661,-1170746654,40569,6128,0.209,0.5697587,0.661,0.952,0.5,0.84,88,4,0.11000001,0.059000004,0.093,-0.33200002,4.8914304,0,nan,0.0,4,1,23
243718993,1585336932600190,323883661,-1170746651,40611,6170,0.215,0.5697702,0.661,0.952,0.52,0.84999996,88,4,0.102000006,-0.096,0.033,-0.21800001,4.8914304,0,nan,0.0,4,1,22
243914064,1585336932800190,323883660,-1170746653,40661,6220,0.20600002,0.6166281,0.661,0.95100003,0.52,0.84999996,88,4,0.21400002,0.07,-0.202,-0.23500001,4.9622774,0,nan,0.0,4,1,22
244112267,1585336933000190,323883665,-1170746658,40733,6293,0.18200001,0.27036023,0.661,0.95100003,0.52,0.84999996,88,4,0.609,0.49400002,-0.35700002,-0.492,5.5453305,0,nan,0.0,4,1,22
244311105,1585336933200190,323883677,-1170746666,40794,6354,0.157,0.20673023,0.66,0.95000005,0.52,0.84999996,88,5,0.83900005,0.71500003,-0.439,-0.23700002,5.6636224,0,nan,0.0,4,1,22
244508288,1585336933400190,323883696,-1170746678,40836,6395,0.148,0.10731104,0.66,0.95000005,0.52,0.84999996,88,5,1.639,1.46,-0.744,-0.193,5.7806597,0,nan,0.0,4,1,22
244712314,1585336933600190,323883727,-1170746695,40893,6452,0.149,0.08251445,0.66,0.95000005,0.52,0.84999996,88,5,2.1460001,1.9240001,-0.95100003,-0.374,5.8081822,0,nan,0.0,4,1,22
244909079,1585336933800189,323883767,-1170746719,40963,6522,0.147,0.05835194,0.65900004,0.94900006,0.52,0.84999996,88,5,2.8030002,2.493,-1.2820001,-0.272,5.808166,0,nan,0.0,4,1,22
245109068,1585336934000189,323883816,-1170746745,41015,6574,0.142,0.05693875,0.65900004,0.94900006,0.52,0.84999996,88,5,3.1990001,2.947,-1.243,-0.296,5.8480515,0,nan,0.0,4,1,22
245309150,1585336934200189,323883873,-1170746774,41041,6600,0.148,0.05343919,0.65900004,0.94900006,0.52,0.84999996,88,4,3.6740003,3.3130002,-1.59,-0.224,5.8413444,0,nan,0.0,4,1,22
245505016,1585336934400189,323883938,-1170746809,41071,6630,0.14400001,0.04652245,0.65900004,0.95000005,0.52,0.84999996,88,4,4.216,3.864,-1.6880001,-0.24800001,5.8588963,0,nan,0.0,4,1,22
245714921,1585336934600189,323884011,-1170746846,41148,6707,0.14400001,0.039472714,0.65900004,0.94900006,0.52,0.84999996,88,4,4.584,4.2070003,-1.8180001,-0.38000003,5.868828,0,nan,0.0,4,1,22
245910999,1585336934800189,323884089,-1170746886,41244,6804,0.147,0.037464365,0.65900004,0.95000005,0.52,0.84999996,88,4,4.848,4.4220004,-1.9870001,-0.44700003,5.8643365,0,nan,0.0,4,1,22
246114992,1585336935000189,323884172,-1170746930,41324,6884,0.147,0.034576893,0.65900004,0.95000005,0.52,0.84999996,88,4,5.182,4.7130003,-2.1560001,-0.61600006,5.858406,0,nan,0.0,4,1,22
246316258,1585336935200189,323884256,-1170746976,41385,6944,0.147,0.034795407,0.65900004,0.95000005,0.52,0.84999996,88,5,5.063,4.5610003,-2.1980002,-0.381,5.845078,0,nan,0.0,4,1,22
246514997,1585336935400189,323884340,-1170747021,41482,7041,0.142,0.034509,0.65900004,0.94900006,0.52,0.84999996,88,5,5.1320004,4.6980004,-2.065,-0.381,5.8584576,0,nan,0.0,4,1,22
246716347,1585336935600189,323884425,-1170747069,41594,7153,0.143,0.032764368,0.65800005,0.94900006,0.52,0.84999996,88,5,5.3160005,4.7650003,-2.357,-0.634,5.8383512,0,nan,0.0,4,1,22
246908438,1585336935800189,323884510,-1170747117,41706,7266,0.142,0.034519993,0.65800005,0.9480001,0.52,0.84999996,88,5,5.13,4.631,-2.206,-0.53900003,5.838492,0,nan,0.0,4,1,22
247109070,1585336936000189,323884593,-1170747162,41744,7303,0.141,0.035267517,0.65800005,0.9480001,0.52,0.84999996,88,5,4.9870005,4.546,-2.049,-0.22500001,5.850004,0,nan,0.0,4,1,22
247309003,1585336936200189,323884676,-1170747206,41791,7351,0.14,0.034689113,0.65800005,0.947,0.52,0.84999996,88,11,5.0410004,4.612,-2.035,-0.16800001,5.859887,0,nan,0.0,4,1,22
247506072,1585336936400189,323884759,-1170747248,41812,7371,0.13100001,0.035252858,0.657,0.947,0.52,0.84999996,88,11,5.0530005,4.6340003,-2.0140002,-0.155,5.8671503,0,nan,0.0,4,1,22
247706994,1585336936600189,323884842,-1170747292,41834,7393,0.143,0.038830955,0.657,0.947,0.52,0.84999996,88,11,4.971,4.5010004,-2.1100001,-0.11400001,5.855984,0,nan,0.0,4,1,22
247908114,1585336936800189,323884924,-1170747337,41861,7421,0.14400001,0.038466707,0.657,0.947,0.52,0.84999996,88,11,5.018,4.53,-2.1590002,-0.108,5.84639,0,nan,0.0,4,1,22
248108304,1585336937000189,323885006,-1170747381,41852,7412,0.142,0.038373854,0.65800005,0.947,0.52,0.84999996,88,11,4.958,4.5290003,-2.0170002,-0.027,5.8560705,0,nan,0.0,4,1,22
248304251,1585336937200189,323885088,-1170747425,41852,7412,0.142,0.03622012,0.65800005,0.947,0.52,0.84999996,88,12,4.9570003,4.512,-2.0530002,0.002,5.8561707,0,nan,0.0,4,1,22
248511008,1585336937400189,323885169,-1170747469,41855,7414,0.143,0.036610898,0.657,0.94600004,0.52,0.84999996,88,12,4.9150004,4.4830003,-2.016,-0.006,5.858509,0,nan,0.0,4,1,22
248711714,1585336937600189,323885251,-1170747512,41817,7376,0.13800001,0.037883766,0.657,0.94600004,0.52,0.84999996,88,12,5.004,4.563,-2.0530002,0.147,5.859537,0,nan,0.0,4,1,22
248912218,1585336937800189,323885332,-1170747556,41813,7373,0.136,0.035367,0.657,0.94500005,0.52,0.84999996,88,12,4.926,4.5,-2.003,0.064,5.862371,0,nan,0.0,4,1,22
249123771,1585336938000189,323885414,-1170747601,41807,7366,0.13700001,0.034540065,0.656,0.94400007,0.52,0.84999996,88,12,5.0150003,4.543,-2.1230001,0.036000002,5.853189,0,nan,0.0,4,1,22
249396301,1585336938200189,323885496,-1170747644,41768,7327,0.136,0.035340123,0.81900007,0.96500003,0.52,0.84999996,88,10,4.96,4.5420003,-1.9930001,0.124000005,5.862163,0,nan,0.0,4,1,22
249514094,1585336938400189,323885578,-1170747686,41715,7274,0.14500001,0.036460623,0.81700003,0.96400005,0.52,0.84999996,88,10,4.927,4.518,-1.9660001,0.055000003,5.8677773,0,nan,0.0,4,1,22
249709076,1585336938600189,323885659,-1170747729,41691,7251,0.136,0.035156514,0.813,0.9620001,0.52,0.84999996,88,10,4.966,4.564,-1.955,0.18200001,5.8737855,0,nan,0.0,4,1,22
249913042,1585336938800189,323885742,-1170747772,41665,7224,0.136,0.03427495,0.81000006,0.961,0.52,0.84999996,88,10,5.0480003,4.6200004,-2.035,0.108,5.870726,0,nan,0.0,4,1,22
250114993,1585336939000189,323885825,-1170747817,41620,7180,0.13700001,0.036592223,0.80700004,0.96000004,0.52,0.84999996,88,10,5.0160003,4.5690002,-2.069,0.23600002,5.864086,0,nan,0.0,4,1,22
250314067,1585336939200189,323885907,-1170747862,41588,7147,0.136,0.037029777,0.804,0.95900005,0.52,0.84999996,88,5,5.0140004,4.585,-2.0310001,0.013,5.8651605,0,nan,0.0,4,1,22
250512238,1585336939400189,323885989,-1170747905,41584,7144,0.14,0.037855666,0.80100006,0.95800006,0.52,0.84999996,88,5,4.925,4.5,-2.0010002,0.076000005,5.864933,0,nan,0.0,4,1,22
250714721,1585336939600189,323886070,-1170747950,41573,7133,0.141,0.037696842,0.799,0.957,0.52,0.84999996,88,5,4.977,4.524,-2.075,0.053000003,5.8585086,0,nan,0.0,4,1,22
250914998,1585336939800189,323886151,-1170747993,41583,7142,0.14,0.03836094,0.79600006,0.957,0.52,0.84999996,88,5,4.913,4.506,-1.9580001,-0.028,5.866436,0,nan,0.0,4,1,22
251107512,1585336940000189,323886233,-1170748035,41576,7135,0.14,0.03833703,0.79300004,0.95600003,0.52,0.84999996,88,5,4.914,4.5290003,-1.9070001,0.065000005,5.8763304,0,nan,0.0,4,1,22
251366993,1585336940200189,323886315,-1170748076,41570,7130,0.141,0.038786802,0.791,0.95600003,0.52,0.84999996,94,4,4.9150004,4.518,-1.9350001,-0.055000003,5.877493,0,nan,0.0,4,1,22
251512993,1585336940400189,323886397,-1170748117,41580,7140,0.141,0.03805952,0.78900003,0.95600003,0.52,0.84999996,94,4,4.98,4.5680003,-1.983,-0.027,5.875313,0,nan,0.0,4,1,22
251717012,1585336940600188,323886479,-1170748159,41576,7135,0.14,0.0376553,0.786,0.95500004,0.52,0.84999996,94,4,5.024,4.6270003,-1.9580001,0.045,5.879413,0,nan,0.0,4,1,22
251914992,1585336940800188,323886562,-1170748200,41570,7130,0.14,0.038228992,0.78400004,0.95500004,0.52,0.84999996,94,4,5.0030003,4.592,-1.9860001,-0.002,5.876993,0,nan,0.0,4,1,22
252118091,1585336941000188,323886646,-1170748242,41551,7111,0.141,0.037933856,0.78200006,0.95500004,0.52,0.84999996,94,4,5.0680003,4.656,-2.002,0.087000005,5.8771057,0,nan,0.0,4,1,22
252316997,1585336941200188,323886730,-1170748283,41535,7095,0.141,0.037969112,0.78000003,0.95600003,0.52,0.84999996,94,5,5.0610003,4.664,-1.9640001,0.136,5.8811717,0,nan,0.0,4,1,22
252516111,1585336941400188,323886813,-1170748323,41479,7039,0.141,0.03842953,0.77800006,0.95600003,0.52,0.84999996,94,5,4.965,4.551,-1.9840001,0.192,5.876318,0,nan,0.0,4,1,22
252718066,1585336941600188,323886895,-1170748364,41442,7002,0.141,0.038391136,0.776,0.95600003,0.52,0.84999996,94,5,4.967,4.565,-1.9570001,0.155,5.8773203,0,nan,0.0,4,1,22
252916170,1585336941800188,323886978,-1170748405,41427,6986,0.141,0.037974175,0.77400005,0.95600003,0.52,0.84999996,94,5,5.0230002,4.622,-1.9660001,0.071,5.8792925,0,nan,0.0,4,1,22
253120997,1585336942000188,323887061,-1170748446,41421,6980,0.14400001,0.038953304,0.772,0.95600003,0.52,0.84999996,94,5,5.0280004,4.585,-2.062,0.017,5.8693557,0,nan,0.0,4,1,22
253316285,1585336942200188,323887143,-1170748489,41450,7010,0.142,0.037884463,0.77000004,0.95600003,0.52,0.84999996,94,4,4.946,4.5030003,-2.046,-0.177,5.862333,0,nan,0.0,4,1,22
253515405,1585336942400188,323887223,-1170748533,41481,7041,0.143,0.038492713,0.768,0.95600003,0.52,0.84999996,94,4,4.938,4.491,-2.0540001,-0.076000005,5.8579698,0,nan,0.0,4,1,22
253712329,1585336942600188,323887304,-1170748576,41498,7058,0.14600001,0.0387587,0.76600003,0.95600003,0.52,0.84999996,94,4,4.946,4.48,-2.094,-0.037,5.851489,0,nan,0.0,4,1,22
253912997,1585336942800188,323887386,-1170748621,41458,7017,0.14600001,0.03738652,0.76400006,0.95600003,0.52,0.84999996,94,4,5.024,4.53,-2.173,0.142,5.8427973,0,nan,0.0,4,1,22
254116731,1585336943000188,323887467,-1170748666,41436,6996,0.143,0.03791728,0.762,0.95600003,0.52,0.84999996,94,4,4.953,4.4950004,-2.079,0.17300001,5.846641,0,nan,0.0,4,1,22
254318059,1585336943200188,323887548,-1170748710,41394,6954,0.147,0.03892503,0.76000005,0.95600003,0.52,0.84999996,94,6,4.971,4.484,-2.147,0.134,5.8413696,0,nan,0.0,4,1,22
254518063,1585336943400188,323887629,-1170748756,41364,6924,0.15,0.039387368,0.75900006,0.957,0.52,0.84999996,94,6,5.0730004,4.5870004,-2.167,0.25100002,5.8415937,0,nan,0.0,4,1,22
254714154,1585336943600188,323887712,-1170748800,41325,6885,0.14400001,0.03764169,0.758,0.957,0.52,0.84999996,94,6,5.012,4.5800004,-2.036,0.25300002,5.8547473,0,nan,0.0,4,1,22
254918057,1585336943800188,323887794,-1170748841,41243,6802,0.14500001,0.039321918,0.75600004,0.957,0.52,0.84999996,94,6,4.8890004,4.533,-1.83,0.39800003,5.878086,0,nan,0.0,4,1,22
255132228,1585336944000188,323887877,-1170748881,41143,6703,0.14500001,0.03603651,0.754,0.957,0.52,0.84999996,94,6,5.0350003,4.6460004,-1.9390001,0.40600002,5.8838363,0,nan,0.0,4,1,22
255314995,1585336944200188,323887961,-1170748924,41061,6620,0.14600001,0.035630547,0.75200003,0.95600003,0.52,0.84999996,94,7,5.1210003,4.6670003,-2.108,0.386,5.8700123,0,nan,0.0,4,1,22
255514719,1585336944400188,323888045,-1170748968,40919,6478,0.14500001,0.034895763,0.75100005,0.95600003,0.52,0.84999996,94,7,5.131,4.682,-2.0990002,0.60700005,5.865392,0,nan,0.0,4,1,22
255712997,1585336944600188,323888130,-1170749012,40827,6387,0.164,0.036814924,0.749,0.95600003,0.52,0.84999996,94,7,5.181,4.748,-2.0740001,0.402,5.8685074,0,nan,0.0,4,1,22
255913015,1585336944800188,323888216,-1170749055,40764,6324,0.142,0.03767974,0.748,0.95600003,0.52,0.84999996,94,7,5.11,4.7110004,-1.9810001,0.21900001,5.8774076,0,nan,0.0,4,1,22
256112285,1585336945000188,323888300,-1170749095,40708,6268,0.14500001,0.038106646,0.74600005,0.95600003,0.52,0.84999996,94,7,4.9940004,4.629,-1.8730001,0.24200001,5.888821,0,nan,0.0,4,1,22
256314063,1585336945200188,323888383,-1170749136,40677,6236,0.13800001,0.03641158,0.74500006,0.95600003,0.52,0.84999996,94,6,5.005,4.578,-2.022,0.108,5.8765974,0,nan,0.0,4,1,22
256509130,1585336945400188,323888464,-1170749176,40652,6211,0.141,0.037824947,0.74300003,0.95500004,0.52,0.84999996,94,6,4.8110003,4.473,-1.7720001,0.252,5.892021,0,nan,0.0,4,1,22
256713050,1585336945600188,323888545,-1170749215,40611,6171,0.142,0.03996821,0.74200004,0.95500004,0.52,0.84999996,94,6,4.853,4.4500003,-1.9360001,0.008,5.8820834,0,nan,0.0,4,1,22
256913013,1585336945800188,323888624,-1170749255,40611,6171,0.14,0.04064313,0.74,0.95500004,0.52,0.84999996,94,6,4.7520003,4.372,-1.8620001,-0.066,5.881303,0,nan,0.0,4,1,22
257118674,1585336946000188,323888702,-1170749294,40639,6198,0.13900001,0.04037697,0.739,0.95500004,0.52,0.84999996,94,6,4.749,4.3560004,-1.8920001,-0.15,5.8770957,0,nan,0.0,4,1,22
257316182,1585336946200188,323888782,-1170749335,40672,6232,0.149,0.040702123,0.73800004,0.95500004,0.52,0.84999996,94,7,4.826,4.433,-1.9070001,-0.22600001,5.877068,0,nan,0.0,4,1,22
257516288,1585336946400188,323888861,-1170749374,40708,6268,0.14600001,0.040560927,0.73700005,0.95500004,0.52,0.84999996,94,7,4.762,4.386,-1.8540001,-0.194,5.880434,0,nan,0.0,4,1,22
257716294,1585336946600188,323888941,-1170749413,40762,6322,0.14600001,0.040090736,0.735,0.95500004,0.52,0.84999996,94,7,4.821,4.4500003,-1.8560001,-0.26500002,5.8845673,0,nan,0.0,4,1,22
257913428,1585336946800188,323889021,-1170749452,40781,6341,0.14600001,0.04038168,0.734,0.95600003,0.52,0.84999996,94,7,4.846,4.4630003,-1.8880001,-0.126,5.8837366,0,nan,0.0,4,1,22
258114105,1585336947000188,323889102,-1170749493,40809,6369,0.14400001,0.040000852,0.73300004,0.95600003,0.52,0.84999996,94,7,4.885,4.474,-1.9610001,-0.18300001,5.8763757,0,nan,0.0,4,1,22
258309940,1585336947200188,323889183,-1170749534,40866,6426,0.15,0.040114995,0.73200005,0.957,0.52,0.84999996,93,17,4.966,4.577,-1.927,-0.33400002,5.8808503,0,nan,0.0,4,1,22
258514061,1585336947400187,323889265,-1170749576,40926,6486,0.165,0.0420003,0.731,0.95800006,0.52,0.84999996,93,17,4.9170003,4.499,-1.9820001,-0.24400002,5.874358,0,nan,0.0,4,1,22
258714993,1585336947600187,323889346,-1170749620,40983,6543,0.14500001,0.0395064,0.731,0.95800006,0.52,0.84999996,93,17,5.006,4.5530005,-2.081,-0.29700002,5.863119,0,nan,0.0,4,1,22
258914737,1585336947800187,323889429,-1170749663,41042,6602,0.142,0.03889169,0.73,0.95900005,0.52,0.84999996,93,17,4.978,4.5990005,-1.9050001,-0.21300001,5.8781056,0,nan,0.0,4,1,22
259116175,1585336948000187,323889511,-1170749705,41099,6659,0.14500001,0.0419811,0.72900003,0.96000004,0.52,0.84999996,93,17,5.018,4.565,-2.0830002,-0.32200003,5.8664775,0,nan,0.0,4,1,22
259312118,1585336948200187,323889594,-1170749749,41146,6706,0.14500001,0.03834436,0.72800004,0.96000004,0.52,0.84999996,93,11,5.0140004,4.5340004,-2.14,-0.37500003,5.852332,0,nan,0.0,4,1,22
259516993,1585336948400187,323889676,-1170749794,41224,6784,0.143,0.037917975,0.72700006,0.96000004,0.52,0.84999996,93,11,5.0410004,4.59,-2.0830002,-0.39100003,5.8549848,0,nan,0.0,4,1,22
259716994,1585336948600187,323889758,-1170749839,41288,6848,0.14400001,0.033956427,0.725,0.95900005,0.52,0.84999996,93,11,5.038,4.5750003,-2.1090002,-0.25500003,5.8527937,0,nan,0.0,4,1,22
259918061,1585336948800187,323889841,-1170749884,41297,6857,0.142,0.033375755,0.72400004,0.95800006,0.52,0.84999996,93,11,5.11,4.6330004,-2.157,-0.040000003,5.849745,0,nan,0.0,4,1,22
260118101,1585336949000187,323889924,-1170749930,41308,6868,0.142,0.035948545,0.72200006,0.95800006,0.53,0.84999996,93,11,5.0620003,4.5930004,-2.128,-0.040000003,5.849508,0,nan,0.0,4,1,21
260318069,1585336949200187,323890007,-1170749975,41291,6851,0.141,0.035178505,0.721,0.957,0.53,0.84999996,93,11,5.144,4.6990004,-2.0930002,0.052,5.8577094,0,nan,0.0,4,1,21
260518071,1585336949400187,323890091,-1170750021,41302,6862,0.142,0.03581974,0.71900004,0.957,0.53,0.84999996,93,11,5.0350003,4.5750003,-2.102,0.049000002,5.8549204,0,nan,0.0,4,1,21
260712226,1585336949600187,323890171,-1170750067,41307,6867,0.135,0.036172993,0.71800005,0.95600003,0.53,0.84999996,93,11,4.8040004,4.302,-2.138,-0.040000003,5.837079,0,nan,0.0,4,1,21
260920999,1585336949800187,323890244,-1170750111,41296,6856,0.143,0.04002686,0.716,0.95500004,0.52,0.84999996,93,11,4.2910004,3.864,-1.866,0.104,5.835165,0,nan,0.0,4,1,22
261129017,1585336950000187,323890310,-1170750150,41258,6818,0.14400001,0.04304872,0.71400005,0.95400006,0.52,0.84999996,93,11,3.8940003,3.4710002,-1.764,0.201,5.824139,0,nan,0.0,4,1,22
261312222,1585336950200187,323890368,-1170750185,41192,6752,0.149,0.050222896,0.712,0.95300007,0.52,0.84999996,93,7,3.2930002,2.936,-1.493,0.36200002,5.8190618,0,nan,0.0,4,1,22
261512225,1585336950400187,323890417,-1170750213,41099,6659,0.16000001,0.06388638,0.711,0.952,0.52,0.84999996,93,7,2.713,2.4540002,-1.156,0.41300002,5.828516,0,nan,0.0,4,1,22
261712262,1585336950600187,323890458,-1170750236,40973,6533,0.15400001,0.07317467,0.70900005,0.95100003,0.52,0.84999996,93,7,2.2870002,2.0770001,-0.95900005,0.55700004,5.838296,0,nan,0.0,4,1,22
261914060,1585336950800187,323890492,-1170750253,40841,6401,0.16000001,0.09663277,0.708,0.95100003,0.52,0.84999996,93,7,1.866,1.728,-0.702,0.67600006,5.860034,0,nan,0.0,4,1,22
262110095,1585336951000187,323890520,-1170750267,40694,6254,0.16000001,0.11772315,0.707,0.95000005,0.53,0.84999996,93,7,1.5280001,1.4280001,-0.54200006,0.64900005,5.8844013,0,nan,0.0,4,1,21
262318182,1585336951200187,323890545,-1170750278,40559,6119,0.148,0.12795183,0.70500004,0.95000005,0.52,0.84999996,93,4,1.416,1.33,-0.48700002,0.518,5.9063296,0,nan,0.0,4,1,22
262517100,1585336951400187,323890568,-1170750289,40460,6020,0.141,0.12387142,0.70400006,0.94900006,0.52,0.84999996,93,4,1.35,1.281,-0.42700002,0.30900002,5.934693,0,nan,0.0,4,1,22
262718066,1585336951600187,323890592,-1170750299,40370,5930,0.143,0.12778567,0.702,0.9480001,0.52,0.84999996,93,4,1.4080001,1.3240001,-0.47900003,0.354,5.9354253,0,nan,0.0,4,1,22
262915029,1585336951800187,323890615,-1170750311,40322,5882,0.143,0.12977256,0.70100003,0.947,0.52,0.84999996,93,4,1.3720001,1.2360001,-0.596,0.21200001,5.885338,0,nan,0.0,4,1,22
263116993,1585336952000187,323890636,-1170750329,40290,5850,0.16800001,0.12620772,0.70100003,0.9480001,0.52,0.84999996,93,4,1.5790001,1.194,-1.033,0.032,5.7230535,0,nan,0.0,4,1,22
263316110,1585336952200187,323890656,-1170750356,40304,5864,0.17500001,0.09864059,0.70100003,0.9480001,0.52,0.84999996,93,7,1.8370001,1.0500001,-1.5070001,-0.007,5.4729767,0,nan,0.0,4,1,22
263512260,1585336952400187,323890674,-1170750394,40326,5886,0.215,0.088655226,0.70100003,0.94900006,0.52,0.84999996,93,7,2.216,0.89100003,-2.029,-0.108,5.2800117,0,nan,0.0,4,1,22
263716175,1585336952600187,323890686,-1170750445,40370,5930,0.21300001,0.06198659,0.702,0.95000005,0.52,0.84999996,93,7,2.68,0.56,-2.621,-0.28800002,5.0387454,0,nan,0.0,4,1,22
263914070,1585336952800187,323890695,-1170750508,40417,5977,0.22500001,0.056053516,0.703,0.952,0.52,0.84999996,93,7,3.186,0.388,-3.1620002,-0.356,4.924201,0,nan,0.0,4,1,22
264112993,1585336953000187,323890699,-1170750580,40484,6044,0.20700002,0.051140238,0.70400006,0.95300007,0.52,0.84999996,93,7,3.5980003,0.13100001,-3.5950003,-0.492,4.82581,0,nan,0.0,4,1,22
264312246,1585336953200187,323890700,-1170750663,40601,6161,0.171,0.040782932,0.703,0.95400006,0.52,0.84999996,93,13,4.043,0.053000003,-4.043,-0.40500003,4.7625375,0,nan,0.0,4,1,22
264513061,1585336953400187,323890698,-1170750752,40662,6222,0.18400002,0.043017305,0.703,0.95500004,0.52,0.84999996,93,13,4.301,-0.245,-4.294,-0.418,4.70824,0,nan,0.0,4,1,22
264713048,1585336953600187,323890692,-1170750850,40772,6332,0.171,0.03729978,0.702,0.95500004,0.52,0.84999996,93,13,4.6870003,-0.45700002,-4.664,-0.48800004,4.651872,0,nan,0.0,4,1,22
264910043,1585336953800187,323890684,-1170750949,40807,6367,0.172,0.03668333,0.702,0.95600003,0.5,0.84,93,13,4.69,-0.455,-4.668,-0.39800003,4.6317463,0,nan,0.0,4,1,23
265118845,1585336954000187,323890676,-1170751048,40856,6416,0.17,0.036981434,0.70100003,0.95600003,0.5,0.84,93,13,4.7780004,-0.48800004,-4.7530003,-0.29200003,4.6200576,0,nan,0.0,4,1,23
265316172,1585336954200186,323890667,-1170751149,40887,6447,0.17,0.036385052,0.70100003,0.95600003,0.52,0.84999996,93,14,4.834,-0.47400004,-4.8110003,-0.22700001,4.6168027,0,nan,0.0,4,1,22
265516124,1585336954400186,323890658,-1170751252,40916,6476,0.16900001,0.03711076,0.70000005,0.957,0.5,0.84,93,14,4.853,-0.503,-4.827,-0.126,4.6123548,0,nan,0.0,4,1,23
265715416,1585336954600186,323890651,-1170751355,40916,6476,0.16800001,0.03473135,0.70000005,0.957,0.5,0.84,93,14,4.868,-0.38900003,-4.852,-0.026,4.623876,0,nan,0.0,4,1,23
265916284,1585336954800186,323890644,-1170751459,40885,6445,0.16700001,0.035247795,0.69900006,0.957,0.5,0.84,93,14,5.0270004,-0.40300003,-5.011,0.09900001,4.628398,0,nan,0.0,4,1,23
266118064,1585336955000186,323890637,-1170751564,40840,6399,0.16900001,0.0380775,0.69900006,0.957,0.5,0.84,93,14,4.9040003,-0.379,-4.8900003,0.16100001,4.631819,0,nan,0.0,4,1,23
266322220,1585336955200186,323890630,-1170751668,40778,6338,0.17,0.03702454,0.698,0.95800006,0.5,0.84,93,12,4.98,-0.46800002,-4.958,0.14,4.6242394,0,nan,0.0,4,1,23
266522062,1585336955400186,323890623,-1170751772,40722,6282,0.164,0.03414318,0.698,0.957,0.5,0.84,93,12,4.8980002,-0.388,-4.8820004,0.18900001,4.629397,0,nan,0.0,4,1,23
266722099,1585336955600186,323890617,-1170751877,40668,6228,0.163,0.031959247,0.697,0.957,0.5,0.84,93,12,4.973,-0.31100002,-4.964,0.252,4.641296,0,nan,0.0,4,1,23
266922101,1585336955800186,323890612,-1170751983,40612,6172,0.164,0.033778403,0.69600004,0.95600003,0.5,0.84,93,12,4.9480004,-0.28,-4.94,0.147,4.648999,0,nan,0.0,4,1,23
267138995,1585336956000186,323890607,-1170752089,40566,6126,0.15100001,0.033794288,0.69500005,0.95500004,0.5,0.84,93,12,4.9420004,-0.24200001,-4.9360003,0.23700002,4.656923,0,nan,0.0,4,1,23
267323921,1585336956200186,323890603,-1170752196,40534,6094,0.135,0.030468386,0.694,0.95400006,0.5,0.84,86,4,4.9480004,-0.16900001,-4.945,0.16600001,4.669723,0,nan,0.0,4,1,23
267516179,1585336956400186,323890600,-1170752302,40511,6071,0.165,0.037031,0.693,0.95400006,0.5,0.84,86,4,4.9900002,-0.17500001,-4.9870005,0.13000001,4.6732244,0,nan,0.0,4,1,23
267724273,1585336956600186,323890597,-1170752408,40492,6052,0.165,0.036822956,0.69200003,0.95400006,0.5,0.84,86,4,4.9820004,-0.18,-4.978,0.158,4.67489,0,nan,0.0,4,1,23
267922072,1585336956800186,323890594,-1170752514,40445,6005,0.165,0.037335906,0.69200003,0.95400006,0.5,0.84,86,4,5.0730004,-0.18800001,-5.07,0.112,4.6751156,0,nan,0.0,4,1,23
268123042,1585336957000186,323890591,-1170752622,40417,5976,0.17500001,0.03763541,0.69200003,0.95400006,0.5,0.84,86,4,5.044,-0.080000006,-5.043,0.14400001,4.68671,0,nan,0.0,4,1,23
268325076,1585336957200186,323890590,-1170752729,40393,5952,0.16800001,0.0370029,0.69200003,0.95400006,0.5,0.84,86,5,5.013,-0.113000005,-5.011,0.18400002,4.688396,0,nan,0.0,4,1,23
268522998,1585336957400186,323890588,-1170752836,40378,5937,0.13000001,0.028790776,0.69100004,0.952,0.5,0.84,86,5,4.9700003,-0.091000006,-4.9690003,0.165,4.6921415,0,nan,0.0,4,1,23
268725152,1585336957600186,323890587,-1170752943,40404,5964,0.141,0.03261497,0.689,0.95100003,0.5,0.84,86,5,5.0220003,-0.045,-5.0220003,-0.060000002,4.697883,0,nan,0.0,4,1,23
268922993,1585336957800186,323890586,-1170753050,40407,5967,0.156,0.03602883,0.689,0.95100003,0.5,0.84,86,5,4.992,-0.113000005,-4.9900002,0.024,4.6937704,0,nan,0.0,4,1,23
269130062,1585336958000186,323890584,-1170753157,40408,5968,0.19600001,0.03575115,0.688,0.952,0.5,0.84,86,5,5.057,-0.08800001,-5.056,-0.003,4.6943903,0,nan,0.0,4,1,23
269322995,1585336958200186,323890582,-1170753265,40399,5959,0.209,0.03685088,0.689,0.95400006,0.5,0.84,86,11,5.084,-0.13100001,-5.083,0.10300001,4.6902013,0,nan,0.0,4,1,23
269526658,1585336958400186,323890579,-1170753374,40383,5943,0.201,0.034999784,0.69000006,0.957,0.5,0.84,86,11,5.17,-0.143,-5.168,-0.014,4.6870584,0,nan,0.0,4,1,23
269722992,1585336958600186,323890577,-1170753484,40408,5968,0.19600001,0.033267893,0.69000006,0.95900005,0.5,0.84,86,11,5.1660004,-0.086,-5.1650004,-0.17600001,4.6920495,0,nan,0.0,4,1,23
269922062,1585336958800186,323890575,-1170753595,40446,6005,0.186,0.0326778,0.69000006,0.961,0.5,0.84,86,11,5.1940002,-0.117000006,-5.1920004,-0.14600001,4.6908116,0,nan,0.0,4,1,23
270115512,1585336959000186,323890574,-1170753705,40464,6024,0.20400001,0.037783585,0.69100004,0.96500003,0.5,0.84,86,11,5.109,-0.075,-5.109,-0.081,4.694145,0,nan,0.0,4,1,23
270320995,1585336959200186,323890573,-1170753815,40482,6041,0.19500001,0.034201473,0.69100004,0.96700007,0.5,0.84,86,14,5.203,-0.039,-5.203,0.033,4.7005644,0,nan,0.0,4,1,23
270522060,1585336959400186,323890573,-1170753925,40455,6015,0.18900001,0.033918377,0.69200003,0.97,0.5,0.84,86,14,5.168,-0.028,-5.168,0.105000004,4.704173,0,nan,0.0,4,1,23
270722075,1585336959600186,323890573,-1170754035,40440,5999,0.186,0.03442016,0.69200003,0.97200006,0.5,0.84,86,14,5.1650004,0.010000001,-5.1650004,0.072000004,4.7097273,0,nan,0.0,4,1,23
270923004,1585336959800186,323890574,-1170754144,40416,5975,0.185,0.034718435,0.69200003,0.97400004,0.5,0.84,86,14,5.157,0.11800001,-5.156,0.192,4.7237787,0,nan,0.0,4,1,23
271125014,1585336960000186,323890577,-1170754254,40358,5917,0.18900001,0.034374956,0.69200003,0.9760001,0.5,0.84,86,14,5.1740003,0.117000006,-5.1730003,0.335,4.7300644,0,nan,0.0,4,1,23
271318065,1585336960200186,323890579,-1170754362,40268,5828,0.19800001,0.035660565,0.69200003,0.97900003,0.5,0.84,86,10,5.037,0.17400001,-5.0340004,0.40500003,4.7390385,0,nan,0.0,4,1,23
271520172,1585336960400186,323890583,-1170754469,40231,5791,0.165,0.034421556,0.69200003,0.98100007,0.5,0.84,86,10,5.0740004,0.22600001,-5.0690002,0.261,4.749214,0,nan,0.0,4,1,23
271726656,1585336960600186,323890588,-1170754576,40146,5706,0.17600001,0.035107646,0.69200003,0.98200005,0.5,0.84,86,10,5.0280004,0.231,-5.0220003,0.425,4.754221,0,nan,0.0,4,1,23
271920222,1585336960800186,323890591,-1170754684,40069,5629,0.21400002,0.035943482,0.69200003,0.98600006,0.5,0.84,86,10,5.135,0.13100001,-5.1330004,0.354,4.7454467,0,nan,0.0,4,1,23
272122116,1585336961000185,323890592,-1170754792,40006,5565,0.201,0.0363114,0.693,0.98800004,0.5,0.84,86,10,5.0660005,-0.009000001,-5.0660005,0.312,4.7265434,0,nan,0.0,4,1,23
272319511,1585336961200185,323890592,-1170754899,39937,5497,0.20300001,0.037852526,0.693,0.99100006,0.5,0.84,86,13,5.0070004,0.009000001,-5.0070004,0.34600002,4.7200484,0,nan,0.0,4,1,23
272522992,1585336961400185,323890594,-1170755004,39870,5429,0.193,0.037852526,0.694,0.994,0.5,0.84,86,13,4.951,0.119,-4.9490004,0.294,4.7289925,0,nan,0.0,4,1,23
272714093,1585336961600185,323890594,-1170755110,39815,5375,0.18400002,0.034954928,0.694,0.99500006,0.5,0.84,86,13,5.0600004,-0.065000005,-5.0600004,0.19500001,4.711818,0,nan,0.0,4,1,23
272920625,1585336961800185,323890594,-1170755217,39785,5345,0.178,0.035458107,0.694,0.99500006,0.5,0.84,86,13,5.0020003,0.023000002,-5.0020003,0.24800001,4.7146263,0,nan,0.0,4,1,23
273138998,1585336962000185,323890595,-1170755323,39734,5293,0.18,0.035048828,0.694,0.99600005,0.5,0.84,86,13,5.072,0.023000002,-5.072,0.119,4.7158976,0,nan,0.0,4,1,23
273318998,1585336962200185,323890596,-1170755431,39718,5277,0.16000001,0.034442503,0.694,0.99500006,0.5,0.84,86,6,5.083,0.008,-5.083,0.15400001,4.7148175,0,nan,0.0,4,1,23
273520115,1585336962400185,323890596,-1170755539,39691,5251,0.141,0.03382256,0.693,0.994,0.5,0.84,86,6,5.0730004,0.008,-5.0730004,0.069000006,4.7143116,0,nan,0.0,4,1,23
273721521,1585336962600185,323890596,-1170755646,39667,5227,0.16100001,0.036217324,0.69200003,0.99300003,0.5,0.84,86,6,4.997,-0.030000001,-4.997,0.101,4.7102385,0,nan,0.0,4,1,23
273919021,1585336962800185,323890596,-1170755752,39657,5216,0.14600001,0.036404602,0.69200003,0.99200004,0.5,0.84,86,6,4.9940004,0.007,-4.9940004,0.055000003,4.7122226,0,nan,0.0,4,1,23
274121030,1585336963000185,323890596,-1170755858,39638,5197,0.147,0.036605835,0.69100004,0.99100006,0.5,0.84,86,6,4.9700003,0.082,-4.9690003,0.011000001,4.721253,0,nan,0.0,4,1,23
274320999,1585336963200185,323890598,-1170755963,39625,5185,0.16700001,0.037252657,0.69100004,0.99100006,0.5,0.84,86,14,4.9290004,0.11100001,-4.9280005,0.081,4.728637,0,nan,0.0,4,1,23
274522062,1585336963400185,323890599,-1170756069,39608,5168,0.16900001,0.040556736,0.69100004,0.99000007,0.5,0.84,86,14,4.986,0.020000001,-4.986,0.054,4.722442,0,nan,0.0,4,1,23
274720120,1585336963600185,323890600,-1170756175,39596,5155,0.15100001,0.03870547,0.69100004,0.99000007,0.5,0.84,86,14,4.9430003,0.11100001,-4.9420004,0.060000002,4.7293787,0,nan,0.0,4,1,23
274920195,1585336963800185,323890602,-1170756280,39571,5130,0.15,0.03893184,0.69100004,0.989,0.5,0.84,86,14,4.939,0.07700001,-4.939,0.042000003,4.728577,0,nan,0.0,4,1,23
275123001,1585336964000185,323890602,-1170756386,39553,5112,0.156,0.038019903,0.69100004,0.98800004,0.5,0.84,86,14,4.9880004,-0.058000002,-4.9870005,-0.038000003,4.713183,0,nan,0.0,4,1,23
275313007,1585336964200185,323890601,-1170756491,39584,5143,0.15400001,0.034322247,0.69000006,0.98700005,0.5,0.84,86,13,4.879,-0.032,-4.879,-0.11400001,4.7088275,0,nan,0.0,4,1,23
275517291,1585336964400185,323890599,-1170756596,39595,5154,0.15300001,0.032794386,0.69000006,0.98600006,0.5,0.84,86,13,4.8960004,-0.17300001,-4.893,-0.040000003,4.6905503,0,nan,0.0,4,1,23
275718995,1585336964600185,323890595,-1170756702,39628,5188,0.156,0.035934236,0.689,0.9850001,0.5,0.84,86,13,5.043,-0.317,-5.0330005,-0.135,4.6695924,0,nan,0.0,4,1,23
275918065,1585336964800185,323890590,-1170756809,39645,5204,0.157,0.038592197,0.689,0.984,0.5,0.84,86,13,4.9680004,-0.23600002,-4.9630003,-0.087000005,4.66713,0,nan,0.0,4,1,23
276118127,1585336965000185,323890584,-1170756915,39652,5212,0.157,0.036124125,0.689,0.98300004,0.5,0.84,86,13,5.0550003,-0.351,-5.043,-0.117000006,4.653202,0,nan,0.0,4,1,23
276313004,1585336965200185,323890576,-1170757022,39672,5232,0.16600001,0.035941392,0.689,0.98200005,0.5,0.84,86,11,5.0210004,-0.49500003,-4.9960003,-0.16800001,4.631395,0,nan,0.0,4,1,23
276512249,1585336965400185,323890570,-1170757129,39700,5259,0.165,0.03728512,0.689,0.98200005,0.5,0.84,86,11,5.005,-0.27,-4.998,-0.128,4.6456747,0,nan,0.0,4,1,23
276712252,1585336965600185,323890564,-1170757235,39717,5276,0.16900001,0.042409234,0.689,0.98200005,0.5,0.84,86,11,4.98,-0.372,-4.966,-0.052,4.641845,0,nan,0.0,4,1,23
276912246,1585336965800185,323890558,-1170757341,39716,5275,0.16000001,0.048536386,0.69000006,0.98100007,0.5,0.84,86,11,5.0090003,-0.28300002,-5.0010004,-0.039,4.6484423,0,nan,0.0,4,1,23
277113923,1585336966000185,323890553,-1170757447,39733,5293,0.16000001,0.034250166,0.69000006,0.98100007,0.5,0.84,86,11,4.984,-0.19800001,-4.98,-0.008,4.665246,0,nan,0.0,4,1,23
277314994,1585336966200185,323890549,-1170757553,39729,5288,0.165,0.033242412,0.69000006,0.98,0.5,0.84,89,14,4.967,-0.23600002,-4.9610004,0.030000001,4.6650786,0,nan,0.0,4,1,23
277510062,1585336966400185,323890545,-1170757658,39743,5302,0.158,0.033756062,0.689,0.97900003,0.5,0.84,89,14,4.8950005,-0.24900001,-4.888,-0.065000005,4.663116,0,nan,0.0,4,1,23
277710149,1585336966600185,323890541,-1170757763,39776,5335,0.16000001,0.033666354,0.689,0.97800004,0.5,0.84,89,14,4.932,-0.264,-4.925,-0.105000004,4.6607466,0,nan,0.0,4,1,23
277917004,1585336966800185,323890535,-1170757869,39815,5374,0.16100001,0.036774784,0.688,0.97800004,0.5,0.84,89,14,4.92,-0.31300002,-4.9100003,-0.07300001,4.6545997,0,nan,0.0,4,1,23
278117040,1585336967000185,323890530,-1170757973,39840,5399,0.177,0.038899023,0.689,0.97800004,0.5,0.84,89,14,4.8960004,-0.21200001,-4.8910003,-0.127,4.662073,0,nan,0.0,4,1,23
278317015,1585336967200185,323890525,-1170758080,39891,5451,0.163,0.039059594,0.689,0.97800004,0.5,0.84,89,10,5.057,-0.42100003,-5.0400004,-0.18100001,4.644186,0,nan,0.0,4,1,23
278514995,1585336967400185,323890519,-1170758186,39926,5485,0.158,0.036097422,0.689,0.97700006,0.5,0.84,89,10,4.966,-0.172,-4.9630003,-0.16100001,4.6636934,0,nan,0.0,4,1,23
278717038,1585336967600185,323890515,-1170758292,39977,5537,0.163,0.036847215,0.689,0.97700006,0.5,0.84,89,10,4.9700003,-0.263,-4.9630003,-0.187,4.661423,0,nan,0.0,4,1,23
278913259,1585336967800184,323890511,-1170758397,39996,5555,0.179,0.037608877,0.689,0.97700006,0.5,0.84,89,10,4.979,-0.246,-4.973,-0.08800001,4.6622534,0,nan,0.0,4,1,23
279122108,1585336968000184,323890506,-1170758503,40039,5599,0.15900001,0.03395206,0.689,0.97700006,0.5,0.84,89,10,4.972,-0.277,-4.965,-0.19500001,4.658935,0,nan,0.0,4,1,23
279312120,1585336968200184,323890500,-1170758610,40086,5645,0.16100001,0.033061422,0.689,0.9760001,0.5,0.84,83,9,5.0400004,-0.39100003,-5.025,-0.106000006,4.645272,0,nan,0.0,4,1,23
279512248,1585336968400184,323890494,-1170758716,40108,5667,0.16000001,0.034310903,0.688,0.9760001,0.5,0.84,83,9,4.921,-0.257,-4.914,-0.177,4.6532526,0,nan,0.0,4,1,23
279712215,1585336968600184,323890488,-1170758821,40159,5718,0.16100001,0.03475404,0.688,0.975,0.5,0.84,83,9,4.9370003,-0.439,-4.918,-0.106000006,4.6369066,0,nan,0.0,4,1,23
279913019,1585336968800184,323890480,-1170758926,40175,5734,0.155,0.035138015,0.68700004,0.97400004,0.5,0.84,83,9,4.94,-0.41900003,-4.9220004,-0.081,4.631769,0,nan,0.0,4,1,23
280113002,1585336969000184,323890472,-1170759031,40193,5752,0.16100001,0.034315266,0.68700004,0.97400004,0.5,0.84,83,9,5.0030003,-0.51100004,-4.977,-0.095000006,4.6195993,0,nan,0.0,4,1,23
280312288,1585336969200184,323890463,-1170759136,40196,5755,0.15400001,0.033765662,0.68700004,0.97300005,0.5,0.84,83,7,5.005,-0.53000003,-4.977,-0.016,4.612135,0,nan,0.0,4,1,23
280517049,1585336969400184,323890454,-1170759242,40191,5750,0.15400001,0.03325393,0.68600005,0.97200006,0.5,0.84,83,7,4.9960003,-0.441,-4.977,0.023000002,4.6188245,0,nan,0.0,4,1,23
280717381,1585336969600184,323890446,-1170759348,40195,5754,0.15200001,0.033033323,0.68500006,0.9710001,0.5,0.84,83,7,5.0150003,-0.41300002,-4.998,-0.015000001,4.625057,0,nan,0.0,4,1,23
280913006,1585336969800184,323890439,-1170759454,40201,5760,0.16000001,0.0333412,0.68500006,0.97,0.5,0.84,83,7,4.9880004,-0.38700002,-4.973,0.05,4.6303635,0,nan,0.0,4,1,23
281126067,1585336970000184,323890433,-1170759559,40188,5747,0.15200001,0.03298864,0.684,0.97,0.5,0.84,83,7,4.991,-0.28500003,-4.9820004,-0.022000002,4.6443157,0,nan,0.0,4,1,23
281319023,1585336970200184,323890428,-1170759664,40165,5724,0.15200001,0.033485014,0.684,0.96900004,0.5,0.84,83,9,4.9370003,-0.294,-4.9280005,0.0050000004,4.6489544,0,nan,0.0,4,1,23
281516110,1585336970400184,323890423,-1170759769,40187,5746,0.15100001,0.035466835,0.684,0.96800005,0.5,0.84,83,9,4.964,-0.305,-4.9550004,-0.102000006,4.6500225,0,nan,0.0,4,1,23
281718854,1585336970600184,323890417,-1170759874,40210,5769,0.15300001,0.034565374,0.683,0.96800005,0.5,0.84,83,9,4.9750004,-0.42100003,-4.9570003,-0.12200001,4.63752,0,nan,0.0,4,1,23
281913021,1585336970800184,323890410,-1170759979,40203,5762,0.15,0.03486819,0.683,0.96700007,0.5,0.84,83,9,4.9570003,-0.351,-4.9440002,0.059000004,4.6396947,0,nan,0.0,4,1,23
282111712,1585336971000184,323890405,-1170760084,40212,5771,0.15900001,0.034498177,0.683,0.966,0.5,0.84,83,9,4.9300003,-0.22800002,-4.925,0.069000006,4.6543913,0,nan,0.0,4,1,23
282312305,1585336971200184,323890400,-1170760188,40199,5758,0.16100001,0.035373636,0.683,0.966,0.5,0.84,83,4,4.946,-0.36800003,-4.932,0.039,4.645506,0,nan,0.0,4,1,23
282514097,1585336971400184,323890394,-1170760293,40199,5757,0.15300001,0.035393883,0.683,0.96500003,0.5,0.84,83,4,4.9160004,-0.36400002,-4.9030004,-0.003,4.6415443,0,nan,0.0,4,1,23
282714096,1585336971600184,323890387,-1170760396,40199,5758,0.13700001,0.03489768,0.683,0.96400005,0.5,0.84,83,4,4.822,-0.363,-4.808,0.030000001,4.639068,0,nan,0.0,4,1,23
282913234,1585336971800184,323890381,-1170760498,40202,5761,0.155,0.036135644,0.68200004,0.96300006,0.5,0.84,83,4,4.8700004,-0.30400002,-4.861,-0.028,4.644829,0,nan,0.0,4,1,23
283110102,1585336972000184,323890376,-1170760601,40222,5781,0.164,0.034239866,0.68200004,0.96300006,0.5,0.84,83,4,4.8840003,-0.305,-4.874,-0.165,4.647703,0,nan,0.0,4,1,23
283318056,1585336972200184,323890371,-1170760704,40235,5794,0.163,0.03471931,0.68200004,0.96300006,0.5,0.84,84,5,4.8760004,-0.272,-4.8690004,-0.044000003,4.6525016,0,nan,0.0,4,1,23
283518064,1585336972400184,323890366,-1170760809,40247,5806,0.15300001,0.03246801,0.68100005,0.9620001,0.5,0.84,84,5,4.998,-0.33200002,-4.9870005,0.056,4.6486897,0,nan,0.0,4,1,23
283718694,1585336972600184,323890360,-1170760916,40254,5813,0.148,0.03703379,0.68100005,0.961,0.5,0.84,84,5,5.026,-0.39800003,-5.01,0.054,4.641003,0,nan,0.0,4,1,23
283916244,1585336972800184,323890353,-1170761023,40265,5824,0.158,0.03684966,0.68200004,0.961,0.5,0.84,84,5,5.077,-0.40500003,-5.0610003,-0.09900001,4.636401,0,nan,0.0,4,1,23
284118059,1585336973000184,323890345,-1170761130,40268,5827,0.18300001,0.039479,0.68200004,0.9620001,0.5,0.84,84,5,5.0810003,-0.43400002,-5.063,-0.067,4.631534,0,nan,0.0,4,1,23
284318061,1585336973200184,323890337,-1170761237,40263,5822,0.18300001,0.03662451,0.683,0.96300006,0.5,0.84,84,5,5.09,-0.46400002,-5.0690002,-0.112,4.6255264,0,nan,0.0,4,1,23
284513019,1585336973400184,323890331,-1170761345,40262,5820,0.177,0.033944383,0.684,0.96300006,0.5,0.84,84,5,5.0730004,-0.35500002,-5.0610003,0.065000005,4.6354084,0,nan,0.0,4,1,23
284714065,1585336973600184,323890324,-1170761452,40262,5821,0.162,0.036148384,0.684,0.96400005,0.5,0.84,84,5,5.1140003,-0.42000002,-5.097,-0.035,4.632624,0,nan,0.0,4,1,23
284912298,1585336973800184,323890317,-1170761559,40286,5845,0.163,0.036898702,0.684,0.96400005,0.5,0.84,84,5,4.997,-0.44500002,-4.977,-0.135,4.6275764,0,nan,0.0,4,1,23
285130059,1585336974000184,323890310,-1170761665,40285,5844,0.158,0.032508153,0.684,0.96300006,0.5,0.84,84,5,5.0620003,-0.40800002,-5.045,-0.025,4.630093,0,nan,0.0,4,1,23
285310074,1585336974200184,323890303,-1170761772,40281,5840,0.15300001,0.03369009,0.683,0.9620001,0.5,0.84,84,13,5.0150003,-0.367,-5.0020003,-0.024,4.6349344,0,nan,0.0,4,1,23
285510996,1585336974400184,323890297,-1170761879,40324,5883,0.158,0.03373372,0.683,0.9620001,0.5,0.84,84,13,5.011,-0.37300003,-4.997,-0.051000003,4.6365376,0,nan,0.0,4,1,23
285712426,1585336974600183,323890290,-1170761986,40310,5869,0.15900001,0.031462874,0.683,0.961,0.5,0.84,84,13,5.0940003,-0.439,-5.0750003,0.028,4.6304274,0,nan,0.0,4,1,23
285907004,1585336974800183,323890283,-1170762093,40306,5864,0.16000001,0.03319686,0.68200004,0.961,0.5,0.84,84,13,5.0230002,-0.35000002,-5.011,0.082,4.6369953,0,nan,0.0,4,1,23
286112995,1585336975000183,323890277,-1170762200,40290,5849,0.15900001,0.03433097,0.68200004,0.96000004,0.5,0.84,84,13,5.0410004,-0.38300002,-5.0270004,0.202,4.6366143,0,nan,0.0,4,1,23
286314450,1585336975200183,323890270,-1170762307,40250,5809,0.16700001,0.034108095,0.68200004,0.96000004,0.5,0.84,84,10,5.07,-0.38200003,-5.0550003,0.134,4.6368,0,nan,0.0,4,1,23
286515514,1585336975400183,323890263,-1170762414,40226,5785,0.17300001,0.034588587,0.683,0.96000004,0.5,0.84,84,10,5.026,-0.372,-5.013,0.134,4.6375875,0,nan,0.0,4,1,23
286716996,1585336975600183,323890256,-1170762521,40195,5754,0.17600001,0.036266718,0.683,0.961,0.51,0.88,84,10,5.059,-0.455,-5.038,0.20700002,4.629549,0,nan,0.0,4,1,22
286915003,1585336975800183,323890248,-1170762629,40143,5701,0.171,0.035771046,0.684,0.961,0.51,0.88,84,10,5.11,-0.469,-5.089,0.14400001,4.6244645,0,nan,0.0,4,1,22
287120240,1585336976000183,323890239,-1170762736,40117,5676,0.162,0.039403073,0.684,0.961,0.51,0.88,84,10,5.038,-0.5,-5.0140004,0.07300001,4.6187024,0,nan,0.0,4,1,22
287311022,1585336976200183,323890231,-1170762843,40128,5687,0.148,0.039628223,0.684,0.961,0.51,0.88,84,10,5.011,-0.41200003,-4.9940004,-0.026,4.624771,0,nan,0.0,4,1,22
287514059,1585336976400183,323890224,-1170762950,40136,5694,0.147,0.035055984,0.684,0.96000004,0.51,0.88,84,10,5.0480003,-0.377,-5.0340004,0.004,4.632556,0,nan,0.0,4,1,22
287712989,1585336976600183,323890217,-1170763058,40121,5680,0.156,0.036344558,0.684,0.96000004,0.51,0.88,84,10,5.0730004,-0.393,-5.058,0.127,4.633789,0,nan,0.0,4,1,22
287914066,1585336976800183,323890210,-1170763165,40084,5643,0.14400001,0.033956077,0.684,0.95900005,0.51,0.88,84,10,5.0090003,-0.39900002,-4.993,0.15,4.6330795,0,nan,0.0,4,1,22
288115011,1585336977000183,323890204,-1170763271,40074,5633,0.164,0.034476012,0.684,0.95900005,0.51,0.88,84,10,4.978,-0.314,-4.9680004,0.053000003,4.641904,0,nan,0.0,4,1,22
288318890,1585336977200183,323890199,-1170763376,40073,5632,0.172,0.033385705,0.684,0.96000004,0.51,0.88,89,5,4.9480004,-0.272,-4.94,-0.071,4.650658,0,nan,0.0,4,1,22
288510994,1585336977400183,323890194,-1170763482,40117,5675,0.177,0.036244377,0.684,0.96000004,0.51,0.88,89,5,5.0270004,-0.324,-5.017,-0.16900001,4.6491966,0,nan,0.0,4,1,22
