timestamp,baro_alt_meter,baro_temp_celcius,baro_pressure_pa,rho
221925232,-46.023922,21.14,101879.0,1.2104911
221945406,-45.93937,21.14,101878.0,1.2104791
221955441,-45.93937,21.14,101878.0,1.2104791
221965478,-46.10319,21.14,101880.0,1.210503
221985543,-45.854813,21.14,101876.99,1.2104672
221995625,-45.93937,21.14,101878.0,1.2104791
222005763,-45.690987,21.14,101875.0,1.2104435
222025829,-46.272297,21.15,101882.0,1.2105267
222035863,-46.10319,21.15,101880.0,1.210503
222045899,-45.770256,21.15,101875.99,1.2104553
222066030,-45.854813,21.15,101876.99,1.2104672
222076165,-45.770256,21.15,101875.99,1.2104553
222086198,-45.93937,21.15,101878.0,1.2104791
222106265,-46.272297,21.15,101882.0,1.2105267
222116302,-45.93937,21.15,101878.0,1.2104791
222126336,-46.436123,21.15,101884.0,1.2105504
222146512,-46.351566,21.15,101882.99,1.2105385
222156548,-46.187748,21.15,101881.0,1.2105148
222166583,-45.690987,21.15,101875.0,1.2104435
222186688,-46.10319,21.15,101880.0,1.210503
222196980,-46.272297,21.15,101882.0,1.2105267
222207014,-46.272297,21.15,101882.0,1.2105267
222227082,-46.52068,21.16,101885.0,1.2105623
222237122,-46.023922,21.16,101879.0,1.2104911
222247157,-46.272297,21.16,101882.0,1.2105267
222267345,-45.93937,21.15,101878.0,1.2104791
222277384,-45.93937,21.15,101878.0,1.2104791
222287419,-46.351566,21.15,101882.99,1.2105385
222307483,-45.854813,21.16,101876.99,1.2104672
222317519,-46.023922,21.16,101879.0,1.2104911
222327554,-46.023922,21.16,101879.0,1.2104911
222347821,-45.93937,21.16,101878.0,1.2104791
222357855,-46.187748,21.16,101881.0,1.2105148
222367889,-45.854813,21.16,101876.99,1.2104672
222387955,-46.10319,21.16,101880.0,1.210503
222398035,-46.10319,21.16,101880.0,1.210503
222408112,-46.10319,21.16,101880.0,1.210503
222428190,-45.770256,21.16,101875.99,1.2104553
222438225,-46.436123,21.16,101884.0,1.2105504
222448259,-46.023922,21.16,101879.0,1.2104911
222468324,-46.10319,21.17,101880.0,1.210503
222478360,-45.93937,21.17,101878.0,1.2104791
222488425,-46.023922,21.17,101879.0,1.2104911
222508585,-46.10319,21.17,101880.0,1.210503
222518620,-46.023922,21.17,101879.0,1.2104911
222528653,-46.187748,21.17,101881.0,1.2105148
222548951,-46.436123,21.17,101884.0,1.2105504
222558988,-46.187748,21.17,101881.0,1.2105148
222569028,-45.770256,21.17,101875.99,1.2104553
222589093,-45.854813,21.17,101876.99,1.2104672
222599129,-45.93937,21.17,101878.0,1.2104791
222609228,-46.187748,21.17,101881.0,1.2105148
222629347,-46.10319,21.17,101880.0,1.210503
222639382,-46.351566,21.17,101882.99,1.2105385
222649416,-46.023922,21.17,101879.0,1.2104911
222669487,-46.187748,21.17,101881.0,1.2105148
222679525,-46.351566,21.17,101882.99,1.2105385
222689560,-46.272297,21.17,101882.0,1.2105267
222709795,-46.187748,21.18,101881.0,1.2105148
222719830,-46.023922,21.18,101879.0,1.2104911
222729866,-45.93937,21.18,101878.0,1.2104791
222749931,-46.023922,21.18,101879.0,1.2104911
222760135,-46.10319,21.18,101880.0,1.210503
222770169,-46.272297,21.18,101882.0,1.2105267
222790236,-46.10319,21.18,101880.0,1.210503
222800269,-46.272297,21.18,101882.0,1.2105267
222810304,-46.023922,21.18,101879.0,1.2104911
222830581,-46.023922,21.18,101879.0,1.2104911
222840614,-46.351566,21.18,101882.99,1.2105385
222850649,-46.272297,21.18,101882.0,1.2105267
222870715,-46.52068,21.189999,101885.0,1.2105623
222880827,-46.10319,21.189999,101880.0,1.210503
222890859,-45.93937,21.189999,101878.0,1.2104791
222910957,-46.59995,21.189999,101886.0,1.2105743
222920993,-46.187748,21.189999,101881.0,1.2105148
222931031,-46.351566,21.189999,101882.99,1.2105385
222951096,-46.10319,21.189999,101880.0,1.210503
222961132,-45.854813,21.189999,101876.99,1.2104672
222971339,-45.854813,21.189999,101876.99,1.2104672
222991403,-45.854813,21.189999,101876.99,1.2104672
223001439,-46.023922,21.189999,101879.0,1.2104911
223011473,-45.854813,21.189999,101876.99,1.2104672
223031537,-45.854813,21.189999,101876.99,1.2104672
223041772,-46.023922,21.189999,101879.0,1.2104911
223051805,-46.272297,21.189999,101882.0,1.2105267
223071883,-46.10319,21.189999,101880.0,1.210503
223081920,-46.10319,21.189999,101880.0,1.210503
223091957,-45.690987,21.189999,101875.0,1.2104435
223112152,-46.023922,21.189999,101879.0,1.2104911
223122235,-46.10319,21.189999,101880.0,1.210503
223132272,-46.10319,21.189999,101880.0,1.210503
223152343,-46.187748,21.189999,101881.0,1.2105148
223162583,-45.93937,21.189999,101878.0,1.2104791
223172617,-46.272297,21.189999,101882.0,1.2105267
223192685,-46.187748,21.199999,101881.0,1.2105148
223202827,-46.10319,21.199999,101880.0,1.210503
223212949,-46.10319,21.199999,101880.0,1.210503
223233020,-46.187748,21.199999,101881.0,1.2105148
223243066,-45.854813,21.199999,101876.99,1.2104672
223253103,-45.854813,21.199999,101876.99,1.2104672
223273227,-46.023922,21.199999,101879.0,1.2104911
223283380,-46.023922,21.199999,101879.0,1.2104911
223293413,-45.690987,21.199999,101875.0,1.2104435
223313478,-46.272297,21.21,101882.0,1.2105267
223323518,-46.436123,21.21,101884.0,1.2105504
223333552,-46.10319,21.21,101880.0,1.210503
223353712,-46.272297,21.21,101882.0,1.2105267
223363768,-46.10319,21.21,101880.0,1.210503
223373807,-46.351566,21.21,101882.99,1.2105385
223393871,-45.52188,21.21,101873.0,1.2104198
223403905,-45.93937,21.21,101878.0,1.2104791
223413942,-46.187748,21.21,101881.0,1.2105148
223434211,-45.93937,21.21,101878.0,1.2104791
223444246,-46.187748,21.21,101881.0,1.2105148
223454284,-45.854813,21.21,101876.99,1.2104672
223474351,-46.10319,21.21,101880.0,1.210503
223484426,-45.93937,21.21,101878.0,1.2104791
223494544,-45.93937,21.21,101878.0,1.2104791
223514606,-45.770256,21.21,101875.99,1.2104553
223524640,-46.023922,21.21,101879.0,1.2104911
223534679,-46.436123,21.21,101884.0,1.2105504
223554827,-46.272297,21.21,101882.0,1.2105267
223564981,-46.436123,21.21,101884.0,1.2105504
223575015,-45.93937,21.21,101878.0,1.2104791
223595089,-46.272297,21.22,101882.0,1.2105267
223605124,-46.351566,21.22,101882.99,1.2105385
223615169,-46.10319,21.22,101880.0,1.210503
223635367,-46.351566,21.22,101882.99,1.2105385
223645400,-46.52068,21.22,101885.0,1.2105623
223655434,-46.272297,21.22,101882.0,1.2105267
223675500,-46.436123,21.22,101884.0,1.2105504
223685533,-46.351566,21.22,101882.99,1.2105385
223695627,-46.52068,21.22,101885.0,1.2105623
223715786,-46.436123,21.22,101884.0,1.2105504
223725820,-46.848328,21.22,101888.99,1.2106098
223735854,-46.187748,21.22,101881.0,1.2105148
223755918,-46.436123,21.23,101884.0,1.2105504
223765952,-46.187748,21.23,101881.0,1.2105148
223776167,-46.10319,21.23,101880.0,1.210503
223796235,-46.187748,21.23,101881.0,1.2105148
223806272,-46.351566,21.23,101882.99,1.2105385
223816311,-46.023922,21.23,101879.0,1.2104911
223836431,-46.351566,21.23,101882.99,1.2105385
223846505,-46.272297,21.23,101882.0,1.2105267
223856538,-46.10319,21.23,101880.0,1.210503
223876603,-46.436123,21.23,101884.0,1.2105504
223886641,-46.023922,21.23,101879.0,1.2104911
223896677,-45.93937,21.23,101878.0,1.2104791
223916987,-45.93937,21.23,101878.0,1.2104791
223927020,-46.52068,21.23,101885.0,1.2105623
223937055,-46.10319,21.23,101880.0,1.210503
223957120,-46.272297,21.23,101882.0,1.2105267
223967159,-46.10319,21.23,101880.0,1.210503
223977227,-45.93937,21.23,101878.0,1.2104791
223997382,-46.10319,21.24,101880.0,1.210503
224007418,-45.93937,21.24,101878.0,1.2104791
224017452,-45.93937,21.24,101878.0,1.2104791
224037517,-46.10319,21.24,101880.0,1.210503
224047552,-46.187748,21.24,101881.0,1.2105148
224057774,-45.93937,21.24,101878.0,1.2104791
224077838,-46.187748,21.24,101881.0,1.2105148
224087872,-45.770256,21.24,101875.99,1.2104553
224097907,-46.10319,21.24,101880.0,1.210503
224118031,-46.187748,21.24,101881.0,1.2105148
224128112,-46.187748,21.24,101881.0,1.2105148
224138145,-45.690987,21.24,101875.0,1.2104435
224158213,-45.854813,21.24,101876.99,1.2104672
224168248,-46.351566,21.24,101882.99,1.2105385
224178283,-46.023922,21.24,101879.0,1.2104911
224198347,-45.93937,21.25,101878.0,1.2104791
224208430,-46.436123,21.25,101884.0,1.2105504
224218542,-45.93937,21.25,101878.0,1.2104791
224238606,-46.6845,21.25,101887.0,1.2105861
224248657,-46.272297,21.25,101882.0,1.2105267
224258697,-46.436123,21.25,101884.0,1.2105504
224278981,-46.187748,21.25,101881.0,1.2105148
224289021,-46.10319,21.25,101880.0,1.210503
224299056,-46.351566,21.25,101882.99,1.2105385
224319122,-46.351566,21.25,101882.99,1.2105385
224329227,-46.436123,21.25,101884.0,1.2105504
224339341,-45.93937,21.25,101878.0,1.2104791
224359408,-46.436123,21.25,101884.0,1.2105504
224369444,-46.272297,21.25,101882.0,1.2105267
224379481,-45.93937,21.25,101878.0,1.2104791
224399547,-45.854813,21.25,101876.99,1.2104672
224409790,-45.93937,21.25,101878.0,1.2104791
224419823,-46.10319,21.25,101880.0,1.210503
224439891,-46.436123,21.25,101884.0,1.2105504
224449925,-46.023922,21.25,101879.0,1.2104911
224459961,-46.10319,21.25,101880.0,1.210503
224480141,-46.351566,21.26,101882.99,1.2105385
224490175,-46.10319,21.26,101880.0,1.210503
224500210,-46.351566,21.26,101882.99,1.2105385
224520273,-46.187748,21.26,101881.0,1.2105148
224530308,-46.10319,21.26,101880.0,1.210503
224540343,-46.272297,21.26,101882.0,1.2105267
224560606,-46.10319,21.26,101880.0,1.210503
224570653,-46.272297,21.26,101882.0,1.2105267
224580688,-45.770256,21.26,101875.99,1.2104553
224600911,-46.272297,21.26,101882.0,1.2105267
224610944,-45.854813,21.26,101876.99,1.2104672
224620981,-46.436123,21.26,101884.0,1.2105504
224641044,-46.351566,21.27,101882.99,1.2105385
224651085,-45.854813,21.27,101876.99,1.2104672
224661121,-45.854813,21.27,101876.99,1.2104672
224681231,-46.10319,21.27,101880.0,1.210503
224691337,-46.6845,21.27,101887.0,1.2105861
224701371,-46.351566,21.27,101882.99,1.2105385
224721436,-46.10319,21.27,101880.0,1.210503
224731470,-45.770256,21.27,101875.99,1.2104553
224741504,-45.770256,21.27,101875.99,1.2104553
224761780,-46.351566,21.27,101882.99,1.2105385
224771814,-46.10319,21.27,101880.0,1.210503
224781850,-45.770256,21.27,101875.99,1.2104553
224801917,-45.93937,21.279999,101878.0,1.2104791
224811955,-46.272297,21.279999,101882.0,1.2105267
224822030,-46.187748,21.279999,101881.0,1.2105148
224842184,-45.44261,21.279999,101872.0,1.2104079
224852251,-45.35806,21.279999,101871.0,1.210396
224862284,-44.945858,21.279999,101866.0,1.2103366
224882352,-45.770256,21.279999,101875.99,1.2104553
224892431,-45.35806,21.279999,101871.0,1.210396
224902516,-45.273502,21.279999,101869.99,1.210384
224922618,-44.945858,21.279999,101866.0,1.2103366
224932652,-45.109676,21.279999,101868.0,1.2103604
224942686,-45.273502,21.279999,101869.99,1.210384
224962974,-45.35806,21.279999,101871.0,1.210396
224973016,-45.93937,21.279999,101878.0,1.2104791
224983050,-45.854813,21.279999,101876.99,1.2104672
225003116,-45.44261,21.279999,101872.0,1.2104079
225013152,-46.023922,21.279999,101879.0,1.2104911
225023376,-45.52188,21.279999,101873.0,1.2104198
225043442,-45.606438,21.279999,101874.0,1.2104317
225053477,-45.690987,21.279999,101875.0,1.2104435
225063512,-45.194233,21.279999,101869.0,1.2103722
225083632,-45.606438,21.289999,101874.0,1.2104317
225093705,-45.854813,21.289999,101876.99,1.2104672
225103765,-46.187748,21.289999,101881.0,1.2105148
225123831,-45.854813,21.289999,101876.99,1.2104672
225133865,-45.606438,21.289999,101874.0,1.2104317
225143900,-46.10319,21.289999,101880.0,1.210503
225164147,-46.023922,21.289999,101879.0,1.2104911
225174182,-45.854813,21.289999,101876.99,1.2104672
225184217,-45.44261,21.289999,101872.0,1.2104079
225204281,-45.854813,21.289999,101876.99,1.2104672
225214315,-45.93937,21.289999,101878.0,1.2104791
225224352,-46.023922,21.289999,101879.0,1.2104911
225244590,-46.10319,21.289999,101880.0,1.210503
225254625,-46.10319,21.289999,101880.0,1.210503
225264660,-46.10319,21.289999,101880.0,1.210503
225284949,-45.854813,21.3,101876.99,1.2104672
225294983,-45.93937,21.3,101878.0,1.2104791
225305020,-45.854813,21.3,101876.99,1.2104672
225325092,-45.690987,21.3,101875.0,1.2104435
225335128,-45.854813,21.3,101876.99,1.2104672
225345229,-45.690987,21.3,101875.0,1.2104435
225365343,-45.854813,21.3,101876.99,1.2104672
225375377,-45.194233,21.3,101869.0,1.2103722
225385417,-45.109676,21.3,101868.0,1.2103604
225405481,-45.273502,21.3,101869.99,1.210384
225415515,-45.35806,21.3,101871.0,1.210396
225425550,-45.025127,21.3,101867.0,1.2103485
225445756,-44.945858,21.3,101866.0,1.2103366
225455789,-45.44261,21.3,101872.0,1.2104079
225465823,-45.35806,21.3,101871.0,1.210396
225485893,-45.109676,21.31,101868.0,1.2103604
225495928,-45.109676,21.31,101868.0,1.2103604
225506030,-44.364548,21.31,101859.0,1.2102535
225526201,-44.8613,21.31,101865.0,1.2103248
225536237,-45.194233,21.31,101869.0,1.2103722
225546273,-44.612923,21.31,101862.0,1.2102891
225566340,-45.194233,21.31,101869.0,1.2103722
225576431,-45.109676,21.31,101868.0,1.2103604
225586551,-44.8613,21.31,101865.0,1.2103248
225606654,-45.109676,21.31,101868.0,1.2103604
225616689,-45.194233,21.31,101869.0,1.2103722
225626834,-44.945858,21.31,101866.0,1.2103366
225646985,-45.194233,21.31,101869.0,1.2103722
225657022,-45.44261,21.31,101872.0,1.2104079
225667063,-45.025127,21.31,101867.0,1.2103485
225687159,-45.025127,21.31,101867.0,1.2103485
225697229,-45.194233,21.31,101869.0,1.2103722
225707363,-45.273502,21.31,101869.99,1.210384
225727428,-45.025127,21.32,101867.0,1.2103485
225737463,-45.194233,21.32,101869.0,1.2103722
225747499,-44.945858,21.32,101866.0,1.2103366
225767637,-45.35806,21.32,101871.0,1.210396
225777746,-45.194233,21.32,101869.0,1.2103722
225787786,-44.945858,21.32,101866.0,1.2103366
225807851,-45.109676,21.32,101868.0,1.2103604
225817885,-44.8613,21.32,101865.0,1.2103248
225827923,-45.025127,21.32,101867.0,1.2103485
225848124,-45.025127,21.33,101867.0,1.2103485
225858157,-44.945858,21.33,101866.0,1.2103366
225868191,-45.194233,21.33,101869.0,1.2103722
225888256,-45.273502,21.33,101869.99,1.210384
225898289,-45.025127,21.33,101867.0,1.2103485
225908324,-44.612923,21.33,101862.0,1.2102891
225928596,-44.8613,21.33,101865.0,1.2103248
225938635,-44.945858,21.33,101866.0,1.2103366
225948673,-44.449097,21.33,101860.0,1.2102653
225968983,-44.69748,21.33,101863.0,1.2103009
225979018,-44.20072,21.33,101857.0,1.2102296
225989055,-44.449097,21.33,101860.0,1.2102653
226009228,-44.8613,21.33,101865.0,1.2103248
226019321,-44.612923,21.33,101862.0,1.2102891
226029355,-44.528366,21.33,101861.0,1.2102772
226049423,-44.77675,21.33,101863.99,1.2103127
226059457,-44.031612,21.33,101855.0,1.2102059
226069491,-44.27999,21.33,101857.99,1.2102414
226089555,-44.449097,21.33,101860.0,1.2102653
226099633,-43.867786,21.33,101853.0,1.2101821
226109752,-44.031612,21.33,101855.0,1.2102059
226129815,-44.364548,21.34,101859.0,1.2102535
226139849,-43.947056,21.34,101854.0,1.210194
226149891,-44.20072,21.34,101857.0,1.2102296
226170029,-43.867786,21.34,101853.0,1.2101821
226180178,-44.11617,21.34,101856.0,1.2102178
226190211,-43.61941,21.34,101850.0,1.2101464
226210279,-43.783237,21.34,101851.99,1.2101701
226220316,-44.27999,21.34,101857.99,1.2102414
226230354,-43.783237,21.34,101851.99,1.2101701
226250549,-43.867786,21.34,101853.0,1.2101821
226260587,-44.11617,21.34,101856.0,1.2102178
226270624,-44.031612,21.34,101855.0,1.2102059
226290691,-44.11617,21.35,101856.0,1.2102178
226300836,-43.867786,21.35,101853.0,1.2101821
226310941,-44.031612,21.35,101855.0,1.2102059
226331013,-44.031612,21.34,101855.0,1.2102059
226341048,-43.69868,21.34,101850.99,1.2101582
226351083,-43.69868,21.34,101850.99,1.2101582
226371151,-43.947056,21.35,101854.0,1.210194
226381233,-43.69868,21.35,101850.99,1.2101582
226391352,-43.69868,21.35,101850.99,1.2101582
226411426,-43.450302,21.35,101848.0,1.2101227
226421464,-43.61941,21.35,101850.0,1.2101464
226431502,-43.53486,21.35,101849.0,1.2101346
226451621,-43.783237,21.35,101851.99,1.2101701
226461789,-43.450302,21.35,101848.0,1.2101227
226471824,-43.371033,21.35,101847.0,1.2101108
226491890,-43.53486,21.35,101849.0,1.2101346
226501923,-43.69868,21.35,101850.99,1.2101582
226511962,-44.11617,21.35,101856.0,1.2102178
226532147,-43.61941,21.359999,101850.0,1.2101464
226542235,-43.371033,21.359999,101847.0,1.2101108
226552272,-43.867786,21.359999,101853.0,1.2101821
226572343,-43.947056,21.359999,101854.0,1.210194
226582558,-43.69868,21.359999,101850.99,1.2101582
226592593,-43.53486,21.359999,101849.0,1.2101346
226612656,-43.783237,21.359999,101851.99,1.2101701
226622690,-44.031612,21.359999,101855.0,1.2102059
226632964,-44.031612,21.359999,101855.0,1.2102059
226653042,-43.53486,21.359999,101849.0,1.2101346
226663078,-43.61941,21.359999,101850.0,1.2101464
226673117,-43.61941,21.359999,101850.0,1.2101464
226693233,-43.61941,21.369999,101850.0,1.2101464
226703363,-43.867786,21.369999,101853.0,1.2101821
226713400,-43.371033,21.369999,101847.0,1.2101108
226733467,-44.11617,21.359999,101856.0,1.2102178
226743503,-43.947056,21.359999,101854.0,1.210194
226753540,-43.947056,21.359999,101854.0,1.210194
226773726,-43.61941,21.369999,101850.0,1.2101464
226783766,-43.61941,21.369999,101850.0,1.2101464
226793799,-43.69868,21.369999,101850.99,1.2101582
226813864,-43.783237,21.369999,101851.99,1.2101701
226823900,-43.61941,21.369999,101850.0,1.2101464
226833938,-43.69868,21.369999,101850.99,1.2101582
226854193,-43.61941,21.369999,101850.0,1.2101464
226864229,-43.450302,21.369999,101848.0,1.2101227
226874267,-44.031612,21.369999,101855.0,1.2102059
226894333,-43.61941,21.369999,101850.0,1.2101464
226904426,-44.031612,21.369999,101855.0,1.2102059
226914585,-43.867786,21.369999,101853.0,1.2101821
226934651,-43.947056,21.369999,101854.0,1.210194
226944685,-43.947056,21.369999,101854.0,1.210194
226954831,-43.450302,21.369999,101848.0,1.2101227
226974978,-43.783237,21.38,101851.99,1.2101701
226985013,-43.53486,21.38,101849.0,1.2101346
226995051,-43.69868,21.38,101850.99,1.2101582
227015116,-43.53486,21.369999,101849.0,1.2101346
227025151,-43.53486,21.369999,101849.0,1.2101346
227035352,-43.286476,21.369999,101846.0,1.210099
227055416,-43.53486,21.38,101849.0,1.2101346
227065449,-43.0381,21.38,101843.0,1.2100633
227075484,-43.61941,21.38,101850.0,1.2101464
227095551,-43.450302,21.38,101848.0,1.2101227
227105764,-43.53486,21.38,101849.0,1.2101346
227115803,-43.286476,21.38,101846.0,1.210099
227135869,-43.53486,21.39,101849.0,1.2101346
227145905,-44.11617,21.39,101856.0,1.2102178
227155941,-43.450302,21.39,101848.0,1.2101227
227176145,-43.286476,21.39,101846.0,1.210099
227186193,-43.53486,21.39,101849.0,1.2101346
227196229,-43.450302,21.39,101848.0,1.2101227
227216304,-44.031612,21.38,101855.0,1.2102059
227226342,-43.53486,21.38,101849.0,1.2101346
227236432,-43.53486,21.38,101849.0,1.2101346
227256552,-43.201927,21.38,101844.99,1.210087
227266587,-43.450302,21.38,101848.0,1.2101227
227276621,-43.286476,21.38,101846.0,1.210099
227296689,-43.450302,21.39,101848.0,1.2101227
227306842,-44.11617,21.39,101856.0,1.2102178
227316950,-43.450302,21.39,101848.0,1.2101227
227337021,-43.450302,21.39,101848.0,1.2101227
227347059,-43.61941,21.39,101850.0,1.2101464
227357095,-43.201927,21.39,101844.99,1.210087
227377227,-43.286476,21.4,101846.0,1.210099
227387425,-43.867786,21.4,101853.0,1.2101821
227397458,-43.61941,21.4,101850.0,1.2101464
227417523,-42.541348,21.39,101837.0,1.209992
227427621,-42.95355,21.39,101842.0,1.2100514
227437764,-43.371033,21.39,101847.0,1.2101108
227457827,-42.86899,21.4,101841.0,1.2100395
227467861,-42.95355,21.4,101842.0,1.2100514
227477897,-43.201927,21.4,101844.99,1.210087
227498030,-42.789722,21.4,101840.0,1.2100277
227508122,-43.201927,21.4,101844.99,1.210087
227518155,-42.620617,21.4,101838.0,1.2100039
227538221,-42.541348,21.4,101837.0,1.209992
227548265,-42.541348,21.4,101837.0,1.209992
227558302,-42.541348,21.4,101837.0,1.209992
227578549,-42.37224,21.4,101835.0,1.2099682
227588585,-42.541348,21.4,101837.0,1.209992
227598621,-42.044586,21.4,101831.0,1.2099208
227618691,-42.541348,21.41,101837.0,1.209992
227628944,-42.705166,21.41,101838.99,1.2100157
227638978,-42.705166,21.41,101838.99,1.2100157
227659046,-42.541348,21.41,101837.0,1.209992
227669085,-42.541348,21.41,101837.0,1.209992
227679121,-42.95355,21.41,101842.0,1.2100514
227699313,-42.705166,21.41,101838.99,1.2100157
227709347,-42.37224,21.41,101835.0,1.2099682
227719381,-42.620617,21.41,101838.0,1.2100039
227739458,-42.45679,21.41,101836.0,1.2099801
227749492,-42.044586,21.41,101831.0,1.2099208
227759528,-41.79621,21.41,101828.0,1.2098851
227779638,-41.79621,21.41,101828.0,1.2098851
227789738,-42.208412,21.41,101832.99,1.2099444
227799771,-42.044586,21.41,101831.0,1.2099208
227819839,-41.79621,21.41,101828.0,1.2098851
227829874,-41.960037,21.41,101830.0,1.2099088
227839911,-42.620617,21.41,101838.0,1.2100039
227860190,-42.123856,21.42,101832.0,1.2099326
227870224,-42.29297,21.42,101834.0,1.2099564
227880259,-42.45679,21.42,101836.0,1.2099801
227900335,-42.29297,21.42,101834.0,1.2099564
227910547,-43.0381,21.42,101843.0,1.2100633
227920585,-42.45679,21.42,101836.0,1.2099801
227940691,-42.86899,21.42,101841.0,1.2100395
227950834,-42.29297,21.42,101834.0,1.2099564
227960916,-42.541348,21.42,101837.0,1.209992
227980982,-42.37224,21.42,101835.0,1.2099682
227991018,-42.86899,21.42,101841.0,1.2100395
228001052,-42.541348,21.42,101837.0,1.209992
228021120,-42.620617,21.42,101838.0,1.2100039
228031156,-42.541348,21.42,101837.0,1.209992
228041226,-42.541348,21.42,101837.0,1.209992
228061386,-43.0381,21.43,101843.0,1.2100633
228071423,-42.86899,21.43,101841.0,1.2100395
228081460,-42.705166,21.43,101838.99,1.2100157
228101528,-42.705166,21.43,101838.99,1.2100157
228111633,-42.37224,21.43,101835.0,1.2099682
228121755,-42.37224,21.43,101835.0,1.2099682
228141821,-42.620617,21.43,101838.0,1.2100039
228151855,-43.286476,21.43,101846.0,1.210099
228161893,-42.705166,21.43,101838.99,1.2100157
228182031,-42.705166,21.43,101838.99,1.2100157
228192158,-42.45679,21.43,101836.0,1.2099801
228202239,-42.208412,21.43,101832.99,1.2099444
228222305,-42.123856,21.43,101832.0,1.2099326
228232343,-42.37224,21.43,101835.0,1.2099682
228242555,-42.705166,21.43,101838.99,1.2100157
228262627,-42.29297,21.43,101834.0,1.2099564
228272661,-42.45679,21.43,101836.0,1.2099801
228282695,-42.123856,21.43,101832.0,1.2099326
228303003,-42.45679,21.439999,101836.0,1.2099801
228313041,-42.45679,21.439999,101836.0,1.2099801
228323078,-42.29297,21.439999,101834.0,1.2099564
228343339,-43.286476,21.439999,101846.0,1.210099
228353373,-43.201927,21.439999,101844.99,1.210087
228363409,-43.11737,21.439999,101844.0,1.2100751
228383476,-42.789722,21.439999,101840.0,1.2100277
228393509,-42.541348,21.439999,101837.0,1.209992
228403543,-41.960037,21.439999,101830.0,1.2099088
228423668,-42.37224,21.439999,101835.0,1.2099682
228433723,-42.705166,21.439999,101838.99,1.2100157
228443766,-42.45679,21.439999,101836.0,1.2099801
228463828,-42.45679,21.439999,101836.0,1.2099801
228473862,-42.123856,21.439999,101832.0,1.2099326
228483896,-41.378727,21.439999,101823.0,1.2098256
228503962,-41.2149,21.439999,101821.0,1.2098019
228514028,-41.04579,21.439999,101819.0,1.2097782
228524155,-41.29417,21.439999,101822.0,1.2098138
228544222,-41.29417,21.449999,101822.0,1.2098138
228554256,-41.6271,21.449999,101825.99,1.2098613
228564291,-41.960037,21.449999,101830.0,1.2099088
228584355,-42.044586,21.449999,101831.0,1.2099208
228594551,-42.37224,21.449999,101835.0,1.2099682
228604588,-41.87548,21.449999,101829.0,1.2098969
228624653,-41.463276,21.449999,101824.0,1.2098376
228634689,-42.044586,21.449999,101831.0,1.2099208
228644967,-41.2149,21.449999,101821.0,1.2098019
228665032,-41.79621,21.449999,101828.0,1.2098851
228675068,-40.797417,21.449999,101816.0,1.2097425
228685103,-41.04579,21.449999,101819.0,1.2097782
228705229,-41.960037,21.449999,101830.0,1.2099088
228715346,-42.208412,21.449999,101832.99,1.2099444
228725383,-42.86899,21.449999,101841.0,1.2100395
228745450,-42.541348,21.449999,101837.0,1.209992
228755485,-42.29297,21.449999,101834.0,1.2099564
228765523,-41.71166,21.449999,101826.99,1.2098731
228785777,-43.0381,21.46,101843.0,1.2100633
228795810,-42.789722,21.46,101840.0,1.2100277
228805846,-42.789722,21.46,101840.0,1.2100277
228825910,-42.123856,21.46,101832.0,1.2099326
228835944,-42.123856,21.46,101832.0,1.2099326
228846032,-42.45679,21.46,101836.0,1.2099801
228866181,-42.208412,21.46,101832.99,1.2099444
228876218,-43.371033,21.46,101847.0,1.2101108
228886262,-42.95355,21.46,101842.0,1.2100514
228906333,-43.0381,21.46,101843.0,1.2100633
228916432,-42.541348,21.46,101837.0,1.209992
228926510,-42.37224,21.46,101835.0,1.2099682
228946574,-42.95355,21.46,101842.0,1.2100514
228956609,-42.95355,21.46,101842.0,1.2100514
228966657,-42.541348,21.46,101837.0,1.209992
228986834,-42.123856,21.46,101832.0,1.2099326
228996961,-42.37224,21.46,101835.0,1.2099682
229006995,-41.2149,21.46,101821.0,1.2098019
229027061,-40.300655,21.46,101810.0,1.2096713
229037097,-40.881966,21.46,101817.0,1.2097543
229047158,-41.04579,21.46,101819.0,1.2097782
229067365,-40.881966,21.46,101817.0,1.2097543
229077402,-41.378727,21.46,101823.0,1.2098256
229087439,-40.966522,21.46,101818.0,1.2097663
229107505,-41.29417,21.47,101822.0,1.2098138
229117544,-40.966522,21.47,101818.0,1.2097663
229127631,-41.13035,21.47,101819.99,1.20979
229147789,-41.547832,21.47,101825.0,1.2098495
229157825,-41.378727,21.47,101823.0,1.2098256
229167859,-41.29417,21.47,101822.0,1.2098138
229187925,-41.378727,21.48,101823.0,1.2098256
229198036,-41.960037,21.48,101830.0,1.2099088
229208114,-41.29417,21.48,101822.0,1.2098138
229228206,-40.966522,21.47,101818.0,1.2097663
229238240,-40.71286,21.47,101815.0,1.2097306
229248277,-41.378727,21.47,101823.0,1.2098256
229268353,-40.966522,21.47,101818.0,1.2097663
229278562,-41.29417,21.47,101822.0,1.2098138
229288599,-41.71166,21.47,101826.99,1.2098731
229308676,-41.6271,21.48,101825.99,1.2098613
229318716,-41.378727,21.48,101823.0,1.2098256
229328942,-41.463276,21.48,101824.0,1.2098376
229349012,-41.547832,21.48,101825.0,1.2098495
229359049,-41.71166,21.48,101826.99,1.2098731
229369085,-41.2149,21.48,101821.0,1.2098019
229389151,-41.13035,21.48,101819.99,1.20979
229399238,-41.13035,21.48,101819.99,1.20979
229409271,-41.547832,21.48,101825.0,1.2098495
229429352,-41.71166,21.47,101826.99,1.2098731
229439394,-42.45679,21.47,101836.0,1.2099801
229449428,-42.541348,21.47,101837.0,1.209992
229469495,-42.044586,21.48,101831.0,1.2099208
229479531,-41.87548,21.48,101829.0,1.2098969
229489754,-41.87548,21.48,101829.0,1.2098969
229509827,-42.45679,21.48,101836.0,1.2099801
229519871,-41.71166,21.48,101826.99,1.2098731
229529906,-42.208412,21.48,101832.99,1.2099444
229550038,-41.960037,21.48,101830.0,1.2099088
229560173,-42.29297,21.48,101834.0,1.2099564
229570206,-42.123856,21.48,101832.0,1.2099326
229590271,-41.2149,21.48,101821.0,1.2098019
229600307,-41.79621,21.48,101828.0,1.2098851
229610341,-41.547832,21.48,101825.0,1.2098495
229630500,-42.208412,21.49,101832.99,1.2099444
229640595,-41.87548,21.49,101829.0,1.2098969
229650630,-42.044586,21.49,101831.0,1.2099208
229670697,-42.123856,21.48,101832.0,1.2099326
229680829,-41.79621,21.48,101828.0,1.2098851
229690863,-41.378727,21.48,101823.0,1.2098256
229710951,-41.547832,21.49,101825.0,1.2098495
229720986,-40.881966,21.49,101817.0,1.2097543
229731020,-42.044586,21.49,101831.0,1.2099208
229751084,-41.6271,21.49,101825.99,1.2098613
229761220,-41.87548,21.49,101829.0,1.2098969
229771369,-41.71166,21.49,101826.99,1.2098731
229791442,-41.87548,21.49,101829.0,1.2098969
229801477,-41.6271,21.49,101825.99,1.2098613
229811514,-41.960037,21.49,101830.0,1.2099088
229831627,-41.547832,21.49,101825.0,1.2098495
229841758,-41.79621,21.49,101828.0,1.2098851
229851795,-41.960037,21.49,101830.0,1.2099088
229871858,-41.547832,21.49,101825.0,1.2098495
229881894,-41.29417,21.49,101822.0,1.2098138
229892179,-41.378727,21.49,101823.0,1.2098256
229912275,-41.378727,21.49,101823.0,1.2098256
229922311,-41.960037,21.49,101830.0,1.2099088
229932356,-41.04579,21.49,101819.0,1.2097782
229952596,-42.29297,21.49,101834.0,1.2099564
229962632,-42.123856,21.49,101832.0,1.2099326
229972668,-41.87548,21.49,101829.0,1.2098969
229992988,-42.044586,21.49,101831.0,1.2099208
230003024,-41.547832,21.49,101825.0,1.2098495
230013060,-42.208412,21.49,101832.99,1.2099444
230033128,-41.29417,21.5,101822.0,1.2098138
230043164,-41.13035,21.5,101819.99,1.20979
230053228,-41.04579,21.5,101819.0,1.2097782
230073384,-41.547832,21.5,101825.0,1.2098495
230083422,-41.547832,21.5,101825.0,1.2098495
230093458,-41.463276,21.5,101824.0,1.2098376
230113523,-41.547832,21.5,101825.0,1.2098495
230123628,-41.463276,21.5,101824.0,1.2098376
230133724,-41.13035,21.5,101819.99,1.20979
230153795,-41.04579,21.5,101819.0,1.2097782
230163829,-40.966522,21.5,101818.0,1.2097663
230173865,-41.29417,21.5,101822.0,1.2098138
230193929,-41.13035,21.5,101819.99,1.20979
230203965,-40.797417,21.5,101816.0,1.2097425
230214030,-40.881966,21.5,101817.0,1.2097543
230234184,-40.63359,21.5,101813.99,1.2097187
230244221,-40.63359,21.5,101813.99,1.2097187
230254256,-40.300655,21.5,101810.0,1.2096713
230274325,-40.549038,21.5,101813.0,1.2097069
230284436,-40.385212,21.5,101811.0,1.2096831
230294548,-40.300655,21.5,101810.0,1.2096713
230314613,-40.549038,21.5,101813.0,1.2097069
230324654,-39.88846,21.5,101805.0,1.2096118
230334690,-40.385212,21.5,101811.0,1.2096831
230354983,-39.22259,21.5,101797.0,1.2095168
230365018,-39.555523,21.5,101800.99,1.2095642
230375053,-39.47097,21.5,101800.0,1.2095524
230395120,-39.307148,21.5,101798.0,1.2095287
230405226,-38.88966,21.5,101793.0,1.2094692
230415347,-38.22908,21.5,101785.0,1.2093742
230435412,-39.053482,21.5,101794.99,1.2094929
230445451,-38.30835,21.5,101786.0,1.2093861
230455486,-38.974213,21.5,101794.0,1.2094811
230475552,-38.477455,21.51,101788.0,1.2094098
230485796,-37.89615,21.51,101781.0,1.2093266
230495830,-38.144524,21.51,101784.0,1.2093623
230515893,-38.22908,21.5,101785.0,1.2093742
230525928,-37.647766,21.5,101778.0,1.209291
230535968,-37.811592,21.5,101780.0,1.2093148
230556154,-37.47866,21.5,101775.99,1.2092671
230566196,-37.563213,21.5,101776.99,1.2092791
230576234,-37.151012,21.5,101772.0,1.2092197
230596301,-37.31484,21.51,101774.0,1.2092435
230606337,-36.73353,21.51,101767.0,1.2091603
230616431,-36.400593,21.51,101763.0,1.2091128
230636546,-36.23677,21.5,101761.0,1.209089
230646583,-36.81808,21.5,101768.0,1.2091722
230656617,-37.31484,21.5,101774.0,1.2092435
230676679,-36.06766,21.51,101759.0,1.2090652
230686725,-36.73353,21.51,101767.0,1.2091603
230696970,-36.81808,21.51,101768.0,1.2091722
230717052,-36.23677,21.51,101761.0,1.209089
230727099,-36.06766,21.51,101759.0,1.2090652
230737136,-35.740013,21.51,101755.0,1.2090178
230757385,-36.569702,21.5,101765.0,1.2091365
230767423,-35.740013,21.5,101755.0,1.2090178
230777465,-35.98839,21.5,101757.99,1.2090533
230797534,-36.400593,21.51,101763.0,1.2091128
230807632,-36.23677,21.51,101761.0,1.209089
230817761,-36.569702,21.51,101765.0,1.2091365
230837828,-36.400593,21.51,101763.0,1.2091128
230847862,-36.23677,21.51,101761.0,1.209089
230857897,-36.06766,21.51,101759.0,1.2090652
230878039,-36.485146,21.51,101763.99,1.2091246
230888154,-36.06766,21.51,101759.0,1.2090652
230898195,-36.23677,21.51,101761.0,1.209089
230918266,-36.400593,21.51,101763.0,1.2091128
230928301,-36.321323,21.51,101762.0,1.2091008
230938335,-35.98839,21.51,101757.99,1.2090533
230958581,-35.98839,21.51,101757.99,1.2090533
230968658,-35.65546,21.51,101754.0,1.2090058
230978693,-35.65546,21.51,101754.0,1.2090058
230998981,-35.98839,21.51,101757.99,1.2090533
231009019,-35.98839,21.51,101757.99,1.2090533
231019053,-36.152218,21.51,101760.0,1.2090771
231039122,-36.06766,21.51,101759.0,1.2090652
231049222,-35.903835,21.51,101757.0,1.2090415
231059255,-35.98839,21.51,101757.99,1.2090533
231079322,-36.23677,21.51,101761.0,1.209089
231089356,-36.23677,21.51,101761.0,1.209089
231099389,-36.400593,21.51,101763.0,1.2091128
231119456,-36.485146,21.51,101763.99,1.2091246
231129492,-36.485146,21.51,101763.99,1.2091246
231139530,-36.06766,21.51,101759.0,1.2090652
231159790,-36.321323,21.51,101762.0,1.2091008
231169827,-35.819283,21.51,101756.0,1.2090296
231179862,-36.321323,21.51,101762.0,1.2091008
231199929,-36.152218,21.51,101760.0,1.2090771
231210041,-36.23677,21.51,101761.0,1.209089
231220147,-36.152218,21.51,101760.0,1.2090771
231240217,-36.321323,21.5,101762.0,1.2091008
231250252,-36.321323,21.5,101762.0,1.2091008
231260288,-35.98839,21.5,101757.99,1.2090533
231280352,-36.81808,21.51,101768.0,1.2091722
231290560,-36.64897,21.51,101766.0,1.2091484
231300593,-36.400593,21.51,101763.0,1.2091128
231320664,-36.400593,21.51,101763.0,1.2091128
231330700,-36.06766,21.51,101759.0,1.2090652
231340949,-35.98839,21.51,101757.99,1.2090533
231361014,-37.066456,21.51,101771.0,1.2092079
231371050,-36.89735,21.51,101769.0,1.209184
231381085,-36.321323,21.51,101762.0,1.2091008
231401150,-36.64897,21.51,101766.0,1.2091484
231411376,-36.73353,21.51,101767.0,1.2091603
231421410,-36.485146,21.51,101763.99,1.2091246
231441476,-36.569702,21.51,101765.0,1.2091365
231451511,-36.23677,21.51,101761.0,1.209089
231461552,-36.485146,21.51,101763.99,1.2091246
231481753,-36.569702,21.51,101765.0,1.2091365
231491794,-36.569702,21.51,101765.0,1.2091365
231501830,-36.64897,21.51,101766.0,1.2091484
231521896,-36.400593,21.51,101763.0,1.2091128
231531934,-36.81808,21.51,101768.0,1.2091722
231542034,-36.23677,21.51,101761.0,1.209089
231562142,-36.89735,21.51,101769.0,1.209184
231572181,-36.152218,21.51,101760.0,1.2090771
231582235,-36.400593,21.51,101763.0,1.2091128
231602299,-36.485146,21.51,101763.99,1.2091246
231612334,-36.321323,21.51,101762.0,1.2091008
231622571,-36.06766,21.51,101759.0,1.2090652
231642636,-36.485146,21.51,101763.99,1.2091246
231652670,-36.81808,21.51,101768.0,1.2091722
231662707,-36.400593,21.51,101763.0,1.2091128
231682984,-36.89735,21.51,101769.0,1.209184
231693020,-36.81808,21.51,101768.0,1.2091722
231703061,-36.485146,21.51,101763.99,1.2091246
231723130,-36.64897,21.51,101766.0,1.2091484
231733226,-36.321323,21.51,101762.0,1.2091008
231743365,-36.569702,21.51,101765.0,1.2091365
231763432,-36.64897,21.51,101766.0,1.2091484
231773466,-36.73353,21.51,101767.0,1.2091603
231783501,-36.400593,21.51,101763.0,1.2091128
231803635,-36.23677,21.51,101761.0,1.209089
231813714,-36.569702,21.51,101765.0,1.2091365
231823765,-36.64897,21.51,101766.0,1.2091484
231843832,-36.73353,21.51,101767.0,1.2091603
231853866,-36.400593,21.51,101763.0,1.2091128
231863900,-36.81808,21.51,101768.0,1.2091722
231884171,-36.485146,21.51,101763.99,1.2091246
231894205,-36.64897,21.51,101766.0,1.2091484
231904243,-36.64897,21.51,101766.0,1.2091484
231924310,-36.400593,21.51,101763.0,1.2091128
231934347,-36.152218,21.51,101760.0,1.2090771
231944427,-36.64897,21.51,101766.0,1.2091484
231964578,-36.485146,21.51,101763.99,1.2091246
231974612,-36.400593,21.51,101763.0,1.2091128
231984647,-36.89735,21.51,101769.0,1.209184
232004716,-36.64897,21.51,101766.0,1.2091484
232014845,-36.321323,21.51,101762.0,1.2091008
232024922,-36.485146,21.51,101763.99,1.2091246
232044996,-36.569702,21.51,101765.0,1.2091365
232055030,-36.23677,21.51,101761.0,1.209089
232065065,-36.569702,21.51,101765.0,1.2091365
232085232,-36.400593,21.51,101763.0,1.2091128
232095352,-35.98839,21.51,101757.99,1.2090533
232105385,-35.903835,21.51,101757.0,1.2090415
232125451,-36.81808,21.51,101768.0,1.2091722
232135486,-36.89735,21.51,101769.0,1.209184
232145522,-36.64897,21.51,101766.0,1.2091484
232165758,-35.98839,21.51,101757.99,1.2090533
232175793,-36.152218,21.51,101760.0,1.2090771
232185827,-36.81808,21.51,101768.0,1.2091722
232205890,-35.98839,21.51,101757.99,1.2090533
232215923,-36.89735,21.51,101769.0,1.209184
232226023,-36.569702,21.51,101765.0,1.2091365
232246190,-36.23677,21.51,101761.0,1.209089
232256237,-37.066456,21.51,101771.0,1.2092079
232266272,-37.151012,21.51,101772.0,1.2092197
232286338,-36.485146,21.51,101763.99,1.2091246
232296432,-36.485146,21.51,101763.99,1.2091246
232306505,-36.73353,21.51,101767.0,1.2091603
232326576,-36.81808,21.51,101768.0,1.2091722
232336609,-36.81808,21.51,101768.0,1.2091722
232346644,-36.81808,21.51,101768.0,1.2091722
232366714,-37.47866,21.51,101775.99,1.2092671
232376974,-37.31484,21.51,101774.0,1.2092435
232387008,-36.64897,21.51,101766.0,1.2091484
232407075,-37.31484,21.51,101774.0,1.2092435
232417111,-36.89735,21.51,101769.0,1.209184
232427148,-37.31484,21.51,101774.0,1.2092435
232447357,-37.89615,21.51,101781.0,1.2093266
232457390,-37.811592,21.51,101780.0,1.2093148
232467425,-38.05997,21.51,101782.99,1.2093503
232487493,-37.811592,21.51,101780.0,1.2093148
232497530,-37.811592,21.51,101780.0,1.2093148
232507631,-37.811592,21.51,101780.0,1.2093148
232527818,-37.563213,21.51,101776.99,1.2092791
232537853,-38.144524,21.51,101784.0,1.2093623
232547893,-37.39939,21.51,101775.0,1.2092553
232567966,-37.89615,21.51,101781.0,1.2093266
232578027,-38.22908,21.51,101785.0,1.2093742
232588161,-37.647766,21.51,101778.0,1.209291
232608224,-38.05997,21.51,101782.99,1.2093503
232618257,-37.647766,21.51,101778.0,1.209291
232628291,-37.9807,21.51,101782.0,1.2093385
232648420,-37.647766,21.51,101778.0,1.209291
232658558,-37.89615,21.51,101781.0,1.2093266
232668591,-37.9807,21.51,101782.0,1.2093385
232688658,-37.647766,21.5,101778.0,1.209291
232698698,-37.647766,21.5,101778.0,1.209291
232708962,-37.647766,21.5,101778.0,1.209291
232729031,-37.47866,21.51,101775.99,1.2092671
232739070,-37.563213,21.51,101776.99,1.2092791
232749107,-37.563213,21.51,101776.99,1.2092791
232769231,-37.89615,21.51,101781.0,1.2093266
232779305,-37.47866,21.51,101775.99,1.2092671
232789342,-37.9807,21.51,101782.0,1.2093385
232809408,-37.72704,21.5,101779.0,1.2093029
232819442,-37.23028,21.5,101773.0,1.2092316
232829480,-37.647766,21.5,101778.0,1.209291
232849546,-37.39939,21.5,101775.0,1.2092553
232859631,-37.563213,21.5,101776.99,1.2092791
232869790,-37.23028,21.5,101773.0,1.2092316
232889859,-36.981903,21.5,101769.99,1.2091959
232899894,-37.647766,21.5,101778.0,1.209291
232909930,-36.81808,21.5,101768.0,1.2091722
232930177,-37.066456,21.5,101771.0,1.2092079
232940213,-36.89735,21.5,101769.0,1.209184
232950248,-36.64897,21.5,101766.0,1.2091484
232970314,-36.569702,21.5,101765.0,1.2091365
232980349,-36.81808,21.5,101768.0,1.2091722
232990574,-36.152218,21.5,101760.0,1.2090771
233010638,-36.569702,21.5,101765.0,1.2091365
233020671,-36.321323,21.5,101762.0,1.2091008
233030705,-36.64897,21.5,101766.0,1.2091484
233050996,-36.64897,21.5,101766.0,1.2091484
233061029,-37.066456,21.5,101771.0,1.2092079
233071063,-36.73353,21.5,101767.0,1.2091603
233091130,-36.485146,21.5,101763.99,1.2091246
233101225,-36.81808,21.5,101768.0,1.2091722
233111346,-37.066456,21.5,101771.0,1.2092079
233131412,-36.485146,21.5,101763.99,1.2091246
233141446,-36.981903,21.5,101769.99,1.2091959
233151481,-36.89735,21.5,101769.0,1.209184
233171544,-36.73353,21.5,101767.0,1.2091603
233181766,-36.981903,21.5,101769.99,1.2091959
233191802,-36.81808,21.5,101768.0,1.2091722
233211879,-36.81808,21.5,101768.0,1.2091722
233221916,-36.64897,21.5,101766.0,1.2091484
233231959,-36.81808,21.5,101768.0,1.2091722
233252121,-36.81808,21.5,101768.0,1.2091722
233262160,-36.73353,21.5,101767.0,1.2091603
233272235,-37.151012,21.5,101772.0,1.2092197
233292300,-36.485146,21.5,101763.99,1.2091246
233302337,-36.569702,21.5,101765.0,1.2091365
233312427,-36.81808,21.5,101768.0,1.2091722
233332612,-37.066456,21.5,101771.0,1.2092079
233342647,-36.89735,21.5,101769.0,1.209184
233352681,-37.47866,21.5,101775.99,1.2092671
233372944,-37.39939,21.5,101775.0,1.2092553
233382978,-37.066456,21.5,101771.0,1.2092079
233393014,-36.485146,21.5,101763.99,1.2091246
233413079,-36.89735,21.5,101769.0,1.209184
233423117,-36.89735,21.5,101769.0,1.209184
233433154,-37.47866,21.5,101775.99,1.2092671
233453427,-36.64897,21.5,101766.0,1.2091484
233463465,-37.151012,21.5,101772.0,1.2092197
233473498,-36.89735,21.5,101769.0,1.209184
233493562,-36.89735,21.5,101769.0,1.209184
233503634,-36.485146,21.5,101763.99,1.2091246
233513712,-37.151012,21.5,101772.0,1.2092197
233533795,-37.066456,21.5,101771.0,1.2092079
233543829,-36.81808,21.5,101768.0,1.2091722
233553863,-36.981903,21.5,101769.99,1.2091959
233573929,-37.151012,21.5,101772.0,1.2092197
233583963,-37.31484,21.5,101774.0,1.2092435
233594030,-37.066456,21.5,101771.0,1.2092079
233614201,-36.981903,21.5,101769.99,1.2091959
233624235,-37.23028,21.5,101773.0,1.2092316
233634278,-37.563213,21.5,101776.99,1.2092791
233654343,-37.23028,21.5,101773.0,1.2092316
233664426,-36.81808,21.5,101768.0,1.2091722
233674570,-37.151012,21.5,101772.0,1.2092197
233694639,-36.981903,21.5,101769.99,1.2091959
233704680,-36.321323,21.5,101762.0,1.2091008
233714841,-37.066456,21.5,101771.0,1.2092079
233734950,-37.23028,21.5,101773.0,1.2092316
233744989,-37.647766,21.5,101778.0,1.209291
233755027,-36.73353,21.5,101767.0,1.2091603
233775095,-36.981903,21.5,101769.99,1.2091959
233785131,-37.23028,21.5,101773.0,1.2092316
233795384,-37.39939,21.5,101775.0,1.2092553
233815448,-36.64897,21.5,101766.0,1.2091484
233825481,-36.81808,21.5,101768.0,1.2091722
233835519,-37.31484,21.5,101774.0,1.2092435
233855626,-36.981903,21.5,101769.99,1.2091959
233865749,-37.31484,21.5,101774.0,1.2092435
233875790,-37.23028,21.5,101773.0,1.2092316
233895853,-37.47866,21.5,101775.99,1.2092671
233905888,-37.151012,21.5,101772.0,1.2092197
233915922,-37.39939,21.5,101775.0,1.2092553
233936176,-37.151012,21.5,101772.0,1.2092197
233946209,-37.39939,21.5,101775.0,1.2092553
233956243,-37.31484,21.5,101774.0,1.2092435
233976308,-37.563213,21.5,101776.99,1.2092791
233986342,-37.47866,21.5,101775.99,1.2092671
233996428,-37.151012,21.5,101772.0,1.2092197
234016545,-37.563213,21.5,101776.99,1.2092791
234026582,-37.647766,21.5,101778.0,1.209291
234036617,-37.31484,21.5,101774.0,1.2092435
234056680,-37.563213,21.5,101776.99,1.2092791
234066827,-37.563213,21.5,101776.99,1.2092791
234076960,-37.72704,21.5,101779.0,1.2093029
234097028,-37.89615,21.5,101781.0,1.2093266
234107062,-36.981903,21.5,101769.99,1.2091959
234117097,-37.647766,21.5,101778.0,1.209291
234137231,-37.811592,21.5,101780.0,1.2093148
234147360,-37.647766,21.5,101778.0,1.209291
234157396,-37.89615,21.5,101781.0,1.2093266
234177464,-36.81808,21.49,101768.0,1.2091722
234187500,-37.066456,21.49,101771.0,1.2092079
234197535,-37.066456,21.49,101771.0,1.2092079
234217769,-37.31484,21.49,101774.0,1.2092435
234227805,-37.563213,21.49,101776.99,1.2092791
234237845,-37.39939,21.49,101775.0,1.2092553
234257911,-37.31484,21.5,101774.0,1.2092435
234267948,-36.73353,21.5,101767.0,1.2091603
234278036,-37.066456,21.5,101771.0,1.2092079
234298209,-36.89735,21.49,101769.0,1.209184
234308245,-36.485146,21.49,101763.99,1.2091246
234318280,-36.981903,21.49,101769.99,1.2091959
234338357,-37.066456,21.5,101771.0,1.2092079
234348428,-36.81808,21.5,101768.0,1.2091722
234358548,-37.151012,21.5,101772.0,1.2092197
234378612,-36.64897,21.49,101766.0,1.2091484
234388646,-36.89735,21.49,101769.0,1.209184
234398683,-36.73353,21.49,101767.0,1.2091603
234419009,-36.64897,21.49,101766.0,1.2091484
234429045,-36.981903,21.49,101769.99,1.2091959
234439080,-36.400593,21.49,101763.0,1.2091128
234459149,-36.81808,21.49,101768.0,1.2091722
234469232,-36.73353,21.49,101767.0,1.2091603
234479313,-36.64897,21.49,101766.0,1.2091484
234499379,-36.73353,21.49,101767.0,1.2091603
234509412,-36.89735,21.49,101769.0,1.209184
234519447,-36.569702,21.49,101765.0,1.2091365
234539511,-36.569702,21.49,101765.0,1.2091365
234549546,-36.81808,21.49,101768.0,1.2091722
234559630,-36.569702,21.49,101765.0,1.2091365
234579779,-36.981903,21.49,101769.99,1.2091959
234589813,-36.81808,21.49,101768.0,1.2091722
234599847,-36.23677,21.49,101761.0,1.209089
234619917,-36.64897,21.49,101766.0,1.2091484
234630032,-36.569702,21.49,101765.0,1.2091365
234640171,-36.400593,21.49,101763.0,1.2091128
234660236,-36.485146,21.49,101763.99,1.2091246
234670270,-36.64897,21.49,101766.0,1.2091484
234680305,-36.23677,21.49,101761.0,1.209089
234700434,-36.321323,21.49,101762.0,1.2091008
234710555,-36.321323,21.49,101762.0,1.2091008
234720589,-36.400593,21.49,101763.0,1.2091128
234740655,-36.400593,21.49,101763.0,1.2091128
234750693,-35.98839,21.49,101757.99,1.2090533
234760831,-36.400593,21.49,101763.0,1.2091128
234780942,-36.23677,21.49,101761.0,1.209089
234790977,-36.23677,21.49,101761.0,1.209089
234801011,-36.06766,21.49,101759.0,1.2090652
234821085,-36.23677,21.49,101761.0,1.209089
234831121,-35.903835,21.49,101757.0,1.2090415
234841156,-36.06766,21.49,101759.0,1.2090652
234861376,-35.48635,21.49,101751.99,1.208982
234871411,-35.65546,21.49,101754.0,1.2090058
234881449,-35.98839,21.49,101757.99,1.2090533
234901522,-35.98839,21.49,101757.99,1.2090533
234911556,-35.65546,21.49,101754.0,1.2090058
234921791,-35.40708,21.49,101750.99,1.2089701
234941855,-35.570908,21.49,101753.0,1.2089939
234951889,-35.740013,21.49,101755.0,1.2090178
234961926,-35.322525,21.49,101750.0,1.2089583
234982028,-35.740013,21.49,101755.0,1.2090178
234992150,-35.819283,21.49,101756.0,1.2090296
235002232,-35.570908,21.49,101753.0,1.2089939
235022301,-35.570908,21.49,101753.0,1.2089939
235032340,-35.819283,21.49,101756.0,1.2090296
235042556,-35.40708,21.49,101750.99,1.2089701
235062620,-35.570908,21.49,101753.0,1.2089939
235072654,-34.989597,21.49,101746.0,1.2089108
235082689,-35.07415,21.49,101747.0,1.2089226
235102991,-35.243256,21.49,101749.0,1.2089465
235113026,-34.989597,21.49,101746.0,1.2089108
235123062,-34.661945,21.49,101742.0,1.2088633
235143131,-35.07415,21.49,101747.0,1.2089226
235153233,-35.07415,21.49,101747.0,1.2089226
235163352,-35.243256,21.49,101749.0,1.2089465
235183417,-34.989597,21.49,101746.0,1.2089108
235193458,-34.910328,21.49,101744.99,1.2088988
235203493,-34.989597,21.49,101746.0,1.2089108
235223625,-34.741215,21.49,101743.0,1.2088752
235233708,-34.989597,21.49,101746.0,1.2089108
235243765,-34.49284,21.49,101740.0,1.2088395
235263829,-34.989597,21.49,101746.0,1.2089108
235273865,-34.577393,21.49,101741.0,1.2088513
235283901,-34.577393,21.49,101741.0,1.2088513
235304152,-34.49284,21.49,101740.0,1.2088395
235314192,-34.741215,21.49,101743.0,1.2088752
235324235,-34.577393,21.49,101741.0,1.2088513
235344314,-34.408287,21.49,101738.99,1.2088275
235354351,-34.16519,21.49,101736.0,1.208792
235364433,-34.741215,21.49,101743.0,1.2088752
235384614,-34.080635,21.48,101735.0,1.20878
235394650,-34.16519,21.48,101736.0,1.208792
235404684,-34.080635,21.48,101735.0,1.20878
235424919,-33.499325,21.49,101728.0,1.208697
235434963,-34.49284,21.49,101740.0,1.2088395
235445001,-34.24446,21.49,101737.0,1.2088039
235465069,-34.16519,21.49,101736.0,1.208792
235475105,-33.91153,21.49,101732.99,1.2087562
235485142,-34.16519,21.49,101736.0,1.208792
235505369,-33.66315,21.49,101730.0,1.2087207
235515405,-33.66315,21.49,101730.0,1.2087207
235525440,-33.747707,21.49,101731.0,1.2087326
235545510,-34.080635,21.49,101735.0,1.20878
235555543,-33.747707,21.49,101731.0,1.2087326
235565763,-33.66315,21.49,101730.0,1.2087207
235585829,-33.66315,21.48,101730.0,1.2087207
235595863,-33.25095,21.48,101725.0,1.2086613
235605903,-33.25095,21.48,101725.0,1.2086613
235626036,-33.747707,21.49,101731.0,1.2087326
235636149,-33.00257,21.49,101722.0,1.2086257
235646182,-33.166397,21.49,101724.0,1.2086494
235666250,-33.25095,21.49,101725.0,1.2086613
235676295,-33.166397,21.49,101724.0,1.2086494
235686331,-33.414772,21.49,101726.99,1.2086849
235706514,-33.33022,21.49,101725.99,1.2086731
235716550,-33.08184,21.49,101723.0,1.2086375
235726584,-33.00257,21.49,101722.0,1.2086257
235746649,-32.918015,21.48,101721.0,1.2086138
235756689,-33.00257,21.48,101722.0,1.2086257
235766830,-33.166397,21.48,101724.0,1.2086494
235786982,-32.83346,21.49,101719.99,1.2086018
235797023,-32.83346,21.49,101719.99,1.2086018
235807061,-32.66964,21.49,101718.0,1.2085781
235827132,-32.74891,21.48,101719.0,1.20859
235837226,-32.42126,21.48,101715.0,1.2085425
235847377,-32.585087,21.48,101717.0,1.2085662
235867440,-32.918015,21.49,101721.0,1.2086138
235877474,-32.66964,21.49,101718.0,1.2085781
235887511,-32.50053,21.49,101716.0,1.2085544
235907626,-32.74891,21.49,101719.0,1.20859
235917753,-32.66964,21.49,101718.0,1.2085781
235927788,-32.66964,21.49,101718.0,1.2085781
235947854,-32.003777,21.49,101710.0,1.2084831
235957888,-32.585087,21.49,101717.0,1.2085662
235967922,-32.25215,21.49,101713.0,1.2085187
235988154,-32.003777,21.48,101710.0,1.2084831
235998187,-32.1676,21.48,101712.0,1.2085068
236008224,-32.08833,21.48,101711.0,1.2084949
236028291,-32.003777,21.48,101710.0,1.2084831
236038328,-32.25215,21.48,101713.0,1.2085187
236048427,-31.83995,21.48,101707.99,1.2084591
236068602,-31.83995,21.48,101707.99,1.2084591
236078655,-32.08833,21.48,101711.0,1.2084949
236088691,-31.83995,21.48,101707.99,1.2084591
236108950,-31.83995,21.48,101707.99,1.2084591
236118987,-31.83995,21.48,101707.99,1.2084591
236129024,-31.91922,21.48,101709.0,1.2084712
236149100,-31.755398,21.48,101707.0,1.2084475
236159159,-32.003777,21.48,101710.0,1.2084831
236169229,-31.755398,21.48,101707.0,1.2084475
236189358,-31.591572,21.48,101705.0,1.2084236
236199392,-31.422464,21.48,101703.0,1.2083999
236209428,-31.591572,21.48,101705.0,1.2084236
236229494,-31.174088,21.48,101700.0,1.2083642
236239530,-31.591572,21.48,101705.0,1.2084236
236249744,-31.422464,21.48,101703.0,1.2083999
236269813,-31.591572,21.48,101705.0,1.2084236
236279847,-31.507019,21.48,101704.0,1.2084118
236289883,-31.08953,21.48,101699.0,1.2083523
236309952,-31.507019,21.48,101704.0,1.2084118
236320182,-31.25864,21.48,101700.99,1.208376
236330215,-31.507019,21.48,101704.0,1.2084118
236350283,-31.507019,21.48,101704.0,1.2084118
236360318,-31.33791,21.48,101701.99,1.2083879
236370352,-31.33791,21.48,101701.99,1.2083879
236390558,-31.670841,21.48,101706.0,1.2084355
236400604,-31.08953,21.48,101699.0,1.2083523
236410640,-31.174088,21.48,101700.0,1.2083642
236430705,-30.925707,21.48,101697.0,1.2083286
236440947,-31.010262,21.48,101698.0,1.2083405
236450982,-31.08953,21.48,101699.0,1.2083523
236471047,-31.010262,21.48,101698.0,1.2083405
236481081,-30.67733,21.48,101694.0,1.208293
236491114,-30.841154,21.48,101696.0,1.2083167
236511360,-30.50822,21.48,101692.0,1.2082692
236521395,-31.010262,21.48,101698.0,1.2083405
236531440,-30.592777,21.48,101693.0,1.208281
236551507,-31.010262,21.48,101698.0,1.2083405
236561543,-30.925707,21.48,101697.0,1.2083286
236571634,-30.592777,21.48,101693.0,1.208281
236591772,-30.925707,21.48,101697.0,1.2083286
236601816,-30.428951,21.48,101691.0,1.2082573
236611859,-31.174088,21.48,101700.0,1.2083642
236631924,-30.841154,21.48,101696.0,1.2083167
236642035,-30.592777,21.48,101693.0,1.208281
236652117,-30.7566,21.48,101694.99,1.2083048
236672190,-30.428951,21.48,101691.0,1.2082573
236682235,-30.259844,21.48,101688.99,1.2082335
236692283,-30.259844,21.48,101688.99,1.2082335
236712349,-30.17529,21.48,101688.0,1.2082217
236722560,-30.09602,21.48,101687.0,1.2082098
236732597,-30.011467,21.48,101686.0,1.208198
236752662,-29.92691,21.48,101685.0,1.208186
236762699,-30.841154,21.48,101696.0,1.2083167
236772991,-30.09602,21.48,101687.0,1.2082098
236793056,-30.17529,21.48,101688.0,1.2082217
236803095,-30.344397,21.48,101690.0,1.2082454
236813130,-30.09602,21.48,101687.0,1.2082098
236833376,-30.7566,21.48,101694.99,1.2083048
236843411,-30.011467,21.48,101686.0,1.208198
236853446,-29.92691,21.48,101685.0,1.208186
236873513,-30.344397,21.48,101690.0,1.2082454
236883547,-30.09602,21.48,101687.0,1.2082098
236893750,-30.17529,21.48,101688.0,1.2082217
236913851,-30.344397,21.48,101690.0,1.2082454
236923885,-30.428951,21.48,101691.0,1.2082573
236933926,-30.011467,21.48,101686.0,1.208198
236954030,-30.09602,21.48,101687.0,1.2082098
236964162,-30.09602,21.48,101687.0,1.2082098
236974195,-29.678534,21.48,101682.0,1.2081504
236994261,-30.344397,21.48,101690.0,1.2082454
237004298,-29.763086,21.48,101682.99,1.2081622
237014333,-29.847641,21.48,101684.0,1.2081741
237034553,-29.847641,21.48,101684.0,1.2081741
237044597,-29.847641,21.48,101684.0,1.2081741
237054633,-29.678534,21.48,101682.0,1.2081504
237074700,-29.51471,21.48,101680.0,1.2081265
237084832,-29.51471,21.48,101680.0,1.2081265
237094915,-29.26633,21.48,101676.99,1.2080909
237114980,-29.3456,21.48,101678.0,1.2081028
237125017,-29.763086,21.48,101682.99,1.2081622
237135054,-29.599264,21.48,101681.0,1.2081385
237155135,-29.3456,21.48,101678.0,1.2081028
237165236,-29.678534,21.48,101682.0,1.2081504
237175354,-29.097223,21.48,101675.0,1.2080672
237195433,-29.181776,21.47,101675.99,1.208079
237205470,-29.3456,21.47,101678.0,1.2081028
237215506,-29.097223,21.47,101675.0,1.2080672
237235628,-29.181776,21.47,101675.99,1.208079
237245795,-28.9334,21.47,101673.0,1.2080435
237255829,-29.181776,21.47,101675.99,1.208079
237275892,-29.097223,21.48,101675.0,1.2080672
237285927,-29.181776,21.48,101675.99,1.208079
237295962,-28.848846,21.48,101672.0,1.2080315
237316102,-29.181776,21.47,101675.99,1.208079
237326189,-28.9334,21.47,101673.0,1.2080435
237336224,-29.181776,21.47,101675.99,1.208079
237356292,-29.26633,21.48,101676.99,1.2080909
237366330,-28.848846,21.48,101672.0,1.2080315
237376428,-28.68502,21.48,101669.99,1.2080077
237396544,-29.181776,21.47,101675.99,1.208079
237406579,-28.76429,21.47,101671.0,1.2080196
237416613,-28.76429,21.47,101671.0,1.2080196
237436677,-28.515913,21.47,101668.0,1.207984
237446714,-28.76429,21.47,101671.0,1.2080196
237456957,-28.76429,21.47,101671.0,1.2080196
237477023,-28.600466,21.48,101669.0,1.2079959
237487061,-28.848846,21.48,101672.0,1.2080315
237497097,-28.600466,21.48,101669.0,1.2079959
237517236,-28.68502,21.47,101669.99,1.2080077
237527348,-28.515913,21.47,101668.0,1.207984
237537383,-28.515913,21.47,101668.0,1.207984
237557449,-28.515913,21.47,101668.0,1.207984
237567486,-29.097223,21.47,101675.0,1.2080672
237577522,-28.600466,21.47,101669.0,1.2079959
237597766,-28.68502,21.48,101669.99,1.2080077
237607799,-28.68502,21.48,101669.99,1.2080077
237617837,-28.68502,21.48,101669.99,1.2080077
237637902,-28.600466,21.47,101669.0,1.2079959
237647937,-28.436644,21.47,101667.0,1.2079722
237658039,-28.352089,21.47,101666.0,1.2079602
237678190,-28.848846,21.47,101672.0,1.2080315
237688224,-28.352089,21.47,101666.0,1.2079602
237698263,-28.019156,21.47,101662.0,1.2079127
237718332,-28.600466,21.47,101669.0,1.2079959
237728421,-28.9334,21.47,101673.0,1.2080435
237738584,-28.019156,21.47,101662.0,1.2079127
237758659,-28.436644,21.47,101667.0,1.2079722
237768697,-28.436644,21.47,101667.0,1.2079722
237778828,-28.18298,21.47,101663.99,1.2079364
237798980,-28.267536,21.47,101665.0,1.2079483
237809016,-28.267536,21.47,101665.0,1.2079483
237819050,-28.18298,21.47,101663.99,1.2079364
237839227,-28.019156,21.47,101662.0,1.2079127
237849261,-28.019156,21.47,101662.0,1.2079127
237859322,-28.019156,21.47,101662.0,1.2079127
237879385,-28.436644,21.47,101667.0,1.2079722
237889418,-27.934603,21.47,101661.0,1.2079009
237899452,-28.352089,21.47,101666.0,1.2079602
237919515,-28.10371,21.47,101663.0,1.2079246
237929549,-28.18298,21.47,101663.99,1.2079364
237939638,-28.267536,21.47,101665.0,1.2079483
237959801,-27.770779,21.47,101659.0,1.207877
237969836,-28.10371,21.47,101663.0,1.2079246
237979871,-28.267536,21.47,101665.0,1.2079483
237999941,-27.770779,21.47,101659.0,1.207877
238010045,-28.267536,21.47,101665.0,1.2079483
238020151,-28.019156,21.47,101662.0,1.2079127
238040215,-28.10371,21.47,101663.0,1.2079246
238050250,-28.352089,21.47,101666.0,1.2079602
238060286,-28.019156,21.47,101662.0,1.2079127
238080353,-27.770779,21.47,101659.0,1.207877
238090565,-27.855333,21.47,101660.0,1.207889
238100598,-27.437845,21.47,101655.0,1.2078296
238120664,-27.770779,21.47,101659.0,1.207877
238130699,-27.934603,21.47,101661.0,1.2079009
238140934,-27.189468,21.47,101651.99,1.2077938
238161003,-27.686226,21.47,101657.99,1.2078651
238171043,-27.606956,21.47,101657.0,1.2078533
238181081,-27.686226,21.47,101657.99,1.2078651
238201149,-27.686226,21.47,101657.99,1.2078651
238211384,-27.5224,21.47,101656.0,1.2078414
238221417,-27.606956,21.47,101657.0,1.2078533
238241481,-27.770779,21.47,101659.0,1.207877
238251518,-27.934603,21.47,101661.0,1.2079009
238261553,-27.353292,21.47,101654.0,1.2078177
238281761,-27.437845,21.47,101655.0,1.2078296
238291794,-27.5224,21.47,101656.0,1.2078414
238301829,-27.5224,21.47,101656.0,1.2078414
238321895,-27.770779,21.47,101659.0,1.207877
238331929,-27.686226,21.47,101657.99,1.2078651
238342036,-27.437845,21.47,101655.0,1.2078296
238362134,-27.5224,21.47,101656.0,1.2078414
238372168,-27.606956,21.47,101657.0,1.2078533
238382237,-27.437845,21.47,101655.0,1.2078296
238402303,-28.019156,21.47,101662.0,1.2079127
238412341,-27.770779,21.47,101659.0,1.207877
238422562,-27.5224,21.47,101656.0,1.2078414
238442630,-28.019156,21.47,101662.0,1.2079127
238452663,-28.019156,21.47,101662.0,1.2079127
238462699,-27.274023,21.47,101653.0,1.2078058
238482984,-27.437845,21.47,101655.0,1.2078296
238493021,-27.5224,21.47,101656.0,1.2078414
238503057,-27.437845,21.47,101655.0,1.2078296
238523121,-26.94109,21.47,101649.0,1.2077583
238533157,-27.353292,21.47,101654.0,1.2078177
238543363,-26.94109,21.47,101649.0,1.2077583
238563431,-27.437845,21.47,101655.0,1.2078296
238573465,-27.5224,21.47,101656.0,1.2078414
238583503,-27.104916,21.47,101650.99,1.2077819
238603631,-27.606956,21.47,101657.0,1.2078533
238613705,-27.437845,21.47,101655.0,1.2078296
238623766,-26.856535,21.47,101648.0,1.2077464
238643838,-27.189468,21.47,101651.99,1.2077938
238653873,-27.189468,21.47,101651.99,1.2077938
238663907,-27.5224,21.47,101656.0,1.2078414
238684182,-27.353292,21.47,101654.0,1.2078177
238694216,-27.437845,21.47,101655.0,1.2078296
238704251,-27.189468,21.47,101651.99,1.2077938
238724316,-27.189468,21.47,101651.99,1.2077938
238734349,-27.104916,21.47,101650.99,1.2077819
238744432,-26.692713,21.47,101646.0,1.2077227
238764587,-27.437845,21.46,101655.0,1.2078296
238774621,-26.94109,21.46,101649.0,1.2077583
238784655,-27.437845,21.46,101655.0,1.2078296
238804827,-27.104916,21.47,101650.99,1.2077819
238814860,-27.274023,21.47,101653.0,1.2078058
238824922,-26.94109,21.47,101649.0,1.2077583
238844991,-27.274023,21.46,101653.0,1.2078058
238855027,-26.771982,21.46,101647.0,1.2077345
238865066,-26.94109,21.46,101649.0,1.2077583
238885143,-27.353292,21.46,101654.0,1.2078177
238895359,-27.020359,21.46,101650.0,1.2077701
238905392,-27.274023,21.46,101653.0,1.2078058
238925460,-27.274023,21.47,101653.0,1.2078058
238935497,-26.856535,21.47,101648.0,1.2077464
238945532,-27.353292,21.47,101654.0,1.2078177
238965763,-27.189468,21.47,101651.99,1.2077938
238975796,-27.020359,21.47,101650.0,1.2077701
238985831,-27.104916,21.47,101650.99,1.2077819
239005894,-27.104916,21.46,101650.99,1.2077819
239015928,-27.189468,21.46,101651.99,1.2077938
239026037,-27.189468,21.46,101651.99,1.2077938
239046189,-27.274023,21.46,101653.0,1.2078058
239056231,-26.771982,21.46,101647.0,1.2077345
239066265,-27.104916,21.46,101650.99,1.2077819
239086335,-26.608158,21.46,101644.99,1.2077106
239096426,-27.274023,21.46,101653.0,1.2078058
239106517,-27.020359,21.46,101650.0,1.2077701
239126584,-27.274023,21.46,101653.0,1.2078058
239136618,-27.020359,21.46,101650.0,1.2077701
239146652,-27.274023,21.46,101653.0,1.2078058
239166831,-27.437845,21.46,101655.0,1.2078296
239176981,-26.94109,21.46,101649.0,1.2077583
239187014,-26.692713,21.46,101646.0,1.2077227
239207086,-26.94109,21.46,101649.0,1.2077583
239217121,-27.020359,21.46,101650.0,1.2077701
239227154,-26.94109,21.46,101649.0,1.2077583
239247350,-26.94109,21.46,101649.0,1.2077583
239257384,-27.104916,21.46,101650.99,1.2077819
239267421,-26.856535,21.46,101648.0,1.2077464
239287488,-27.020359,21.46,101650.0,1.2077701
239297522,-26.94109,21.46,101649.0,1.2077583
239307556,-26.94109,21.46,101649.0,1.2077583
239327817,-27.104916,21.47,101650.99,1.2077819
239337850,-26.771982,21.47,101647.0,1.2077345
239347887,-26.771982,21.47,101647.0,1.2077345
239367952,-26.275225,21.46,101641.0,1.2076632
239378035,-26.692713,21.46,101646.0,1.2077227
239388159,-27.020359,21.46,101650.0,1.2077701
239408228,-27.189468,21.46,101651.99,1.2077938
239418262,-26.771982,21.46,101647.0,1.2077345
239428296,-26.692713,21.46,101646.0,1.2077227
