timestamp,timestamp_sample,baro_device_id,baro_alt_meter,baro_temp_celcius,baro_pressure_pa,rho,calibration_count
1627179,1627120,3997730,671.6935,23.76,93513.0,1.1110891,0
1717564,1677320,3997730,671.8203,23.769999,93511.57,1.1110721,0
1727595,1727543,3997730,671.9603,23.779999,93510.0,1.1110535,0
1807951,1777761,3997730,671.7833,23.784998,93512.0,1.1110772,0
1828010,1827959,3997730,672.1374,23.789999,93508.0,1.1110297,0
1918346,1878151,3997730,671.897,23.797144,93510.71,1.1110619,0
1928381,1928329,3997730,671.7833,23.8,93512.0,1.1110772,0
2008650,1978495,3997730,671.9313,23.804998,93510.336,1.1110574,0
2028870,2028797,3997730,671.6935,23.81,93513.0,1.1110891,0
2119243,2079012,3997730,671.77014,23.812857,93512.14,1.1110789,0
2129274,2129221,3997730,671.5165,23.82,93515.0,1.111113,0
2209654,2179441,3997730,671.8573,23.82,93511.164,1.1110673,0
2229875,2229658,3997730,671.3368,23.83,93517.0,1.1111367,0
2320225,2279998,3997730,671.8335,23.83,93511.43,1.1110704,0
2330248,2330196,3997730,671.6037,23.83,93514.0,1.111101,0
2410582,2380376,3997730,671.9313,23.835,93510.336,1.1110574,0
2430650,2430596,3997730,671.3368,23.84,93517.0,1.1111367,0
2521097,2480855,3997730,671.84674,23.847143,93511.29,1.1110688,0
2531171,2531118,3997730,671.6935,23.85,93513.0,1.1110891,0
2611511,2581300,3997730,671.6037,23.85,93514.0,1.111101,0
2631594,2631536,3997730,671.7833,23.85,93512.0,1.1110772,0
2722017,2681806,3997730,671.6935,23.852858,93513.0,1.1110891,0
2732052,2731999,3997730,671.8731,23.859999,93511.0,1.1110654,0
2812363,2782199,3997730,671.6644,23.859999,93513.336,1.1110932,0
2832418,2832368,3997730,671.6037,23.869999,93514.0,1.111101,0
2922961,2882601,3997730,671.75696,23.869997,93512.29,1.1110806,0
2932992,2932909,3997730,671.7833,23.869999,93512.0,1.1110772,0
3013360,2983133,3997730,671.6644,23.869997,93513.336,1.1110932,0
3033434,3033374,3997730,671.6935,23.869999,93513.0,1.1110891,0
3123923,3083646,3997730,671.9207,23.877142,93510.43,1.1110586,0
3133955,3133905,3997730,671.6935,23.88,93513.0,1.1110891,0
3214243,3184079,3997730,671.6354,23.88,93513.664,1.111097,0
3234315,3234265,3997730,672.1374,23.88,93508.0,1.1110297,0
3324646,3284450,3997730,671.8731,23.887142,93511.0,1.1110654,0
3334845,3334647,3997730,671.5165,23.89,93515.0,1.111113,0
3415226,3385018,3997730,671.6644,23.89,93513.336,1.1110932,0
3435322,3435271,3997730,671.7833,23.89,93512.0,1.1110772,0
3525831,3485484,3997730,671.75696,23.892855,93512.29,1.1110806,0
3535899,3535830,3997730,671.7833,23.9,93512.0,1.1110772,0
3616208,3586020,3997730,671.6644,23.9,93513.336,1.1110932,0
3636265,3636216,3997730,671.4266,23.91,93516.0,1.1111248,0
3726599,3686389,3997730,671.5165,23.905716,93515.0,1.111113,0
3736659,3736595,3997730,671.6935,23.91,93513.0,1.1110891,0
3817101,3786874,3997730,671.7833,23.910002,93512.0,1.1110772,0
3837198,3837144,3997730,671.6935,23.91,93513.0,1.1110891,0
3927590,3887347,3997730,671.7331,23.912857,93512.57,1.111084,0
3937663,3937596,3997730,671.6935,23.92,93513.0,1.1110891,0
4018227,3987929,3997730,671.75165,23.92,93512.336,1.1110812,0
4038321,4038271,3997730,671.9603,23.92,93510.0,1.1110535,0
4128646,4088446,3997730,671.6935,23.922855,93513.0,1.1110891,0
4138817,4138651,3997730,671.8731,23.93,93511.0,1.1110654,0
4219094,4188923,3997730,671.70667,23.93,93512.836,1.1110872,0
4239167,4239119,3997730,671.6037,23.93,93514.0,1.111101,0
4329494,4289293,3997730,671.70667,23.930002,93512.86,1.1110874,0
4339572,4339507,3997730,671.5165,23.93,93515.0,1.111113,0
4419991,4389750,3997730,671.47156,23.94,93515.5,1.1111189,0
4440045,4439996,3997730,672.1374,23.939999,93508.0,1.1110297,0
4530390,4490188,3997730,671.6803,23.944284,93513.14,1.1110908,0
4540439,4540374,3997730,671.8731,23.939999,93511.0,1.1110654,0
4620873,4590592,3997730,671.56134,23.949999,93514.5,1.111107,0
4640963,4640880,3997730,671.5165,23.949999,93515.0,1.111113,0
4731337,4691100,3997730,671.63007,23.952854,93513.71,1.1110976,0
4741364,4741313,3997730,671.5165,23.96,93515.0,1.111113,0
4821838,4791554,3997730,671.64856,23.96,93513.5,1.1110951,0
4841892,4841843,3997730,671.7833,23.96,93512.0,1.1110772,0
4932289,4892033,3997730,671.7199,23.962856,93512.71,1.1110857,0
4942320,4942271,3997730,671.3368,23.97,93517.0,1.1111367,0
5022625,4992437,3997730,671.54553,23.97,93514.664,1.1111089,0
5042811,5042645,3997730,671.5165,23.97,93515.0,1.111113,0
5133355,5093134,3997730,671.6935,23.97,93513.0,1.1110891,0
5143391,5143334,3997730,671.7833,23.97,93512.0,1.1110772,0
5223873,5193588,3997730,671.6037,23.979998,93514.0,1.111101,0
5243923,5243872,3997730,671.4266,23.98,93516.0,1.1111248,0
5334325,5294109,3997730,671.77014,23.982859,93512.14,1.1110789,0
5344359,5344308,3997730,671.9603,23.99,93510.0,1.1110535,0
5424657,5394487,3997730,671.7966,23.99,93511.836,1.1110754,0
5444768,5444718,3997730,671.8731,23.99,93511.0,1.1110654,0
5535231,5494991,3997730,671.5534,23.990002,93514.57,1.1111078,0
5545255,5545206,3997730,671.6935,23.99,93513.0,1.1110891,0
5625641,5595436,3997730,671.6354,24.0,93513.664,1.111097,0
5645934,5645633,3997730,671.3368,24.0,93517.0,1.1111367,0
5736207,5695952,3997730,671.66705,24.0,93513.29,1.1110926,0
5746231,5746181,3997730,671.6935,24.0,93513.0,1.1110891,0
5826566,5796379,3997730,671.75165,24.01,93512.336,1.1110812,0
5846803,5846640,3997730,671.6935,24.01,93513.0,1.1110891,0
5937099,5896876,3997730,671.6169,24.009998,93513.86,1.1110992,0
5947168,5947119,3997730,671.6037,24.01,93514.0,1.111101,0
6027529,5997297,3997730,671.3817,24.019999,93516.5,1.1111307,0
6047579,6047529,3997730,671.7833,24.019999,93512.0,1.1110772,0
6138029,6097778,3997730,671.6539,24.02,93513.43,1.1110942,0
6148067,6148010,3997730,671.9603,24.019999,93510.0,1.1110535,0
6228354,6198196,3997730,671.73834,24.025,93512.5,1.1110831,0
6248412,6248362,3997730,671.5165,24.029999,93515.0,1.111113,0
6338993,6298633,3997730,671.593,24.029999,93514.14,1.1111027,0
6349069,6348975,3997730,671.6935,24.029999,93513.0,1.1110891,0
6429351,6399186,3997730,671.6644,24.039999,93513.336,1.1110932,0
6449413,6449361,3997730,671.9603,24.039999,93510.0,1.1110535,0
6539921,6499635,3997730,671.6539,24.039997,93513.43,1.1110942,0
6549972,6549922,3997730,671.4266,24.039999,93516.0,1.1111248,0
6630271,6600104,3997730,671.6935,24.039999,93513.0,1.1110891,0
6650332,6650280,3997730,671.8731,24.05,93511.0,1.1110654,0
6740851,6700467,3997730,671.63007,24.050001,93513.71,1.1110976,0
6750904,6750828,3997730,671.3368,24.05,93517.0,1.1111367,0
6831240,6801031,3997730,671.6644,24.050001,93513.336,1.1110932,0
6851334,6851270,3997730,671.6935,24.06,93513.0,1.1110891,0
6941827,6901479,3997730,671.6433,24.06,93513.57,1.1110959,0
6951847,6951666,3997730,671.8731,24.06,93511.0,1.1110654,0
7032174,7001977,3997730,671.70667,24.065,93512.836,1.1110872,0
7052292,7052242,3997730,671.4266,24.07,93516.0,1.1111248,0
7142879,7102417,3997730,671.7199,24.069998,93512.71,1.1110857,0
7152784,7152618,3997730,671.6935,24.07,93513.0,1.1110891,0
7233257,7203080,3997730,671.5006,24.074999,93515.164,1.1111149,0
7253342,7253291,3997730,671.3368,24.07,93517.0,1.1111367,0
7343841,7303482,3997730,671.4266,24.077145,93516.0,1.1111248,0
7353884,7353664,3997730,671.4266,24.08,93516.0,1.1111248,0
7434167,7403986,3997730,671.7675,24.08,93512.164,1.1110792,0
7454221,7454173,3997730,671.8731,24.08,93511.0,1.1110654,0
7544588,7504381,3997730,671.593,24.087141,93514.14,1.1111027,0
7554628,7554570,3997730,671.7833,24.09,93512.0,1.1110772,0
7635038,7604838,3997730,671.6195,24.089998,93513.836,1.1110991,0
7655135,7655068,3997730,671.4266,24.09,93516.0,1.1111248,0
7745415,7705246,3997730,671.4266,24.09286,93516.0,1.1111248,0
7755511,7755442,3997730,671.6037,24.1,93514.0,1.111101,0
7835926,7805674,3997730,671.47156,24.1,93515.5,1.1111189,0
7856019,7855947,3997730,671.6935,24.1,93513.0,1.1110891,0
7946324,7906120,3997730,671.6433,24.102858,93513.57,1.1110959,0
7956355,7956306,3997730,671.5165,24.109999,93515.0,1.111113,0
8036829,8006492,3997730,671.6195,24.105001,93513.836,1.1110991,0
8056923,8056845,3997730,671.5165,24.109999,93515.0,1.111113,0
8147235,8107018,3997730,671.7331,24.114285,93512.57,1.111084,0
8157260,8157210,3997730,671.7833,24.109999,93512.0,1.1110772,0
8237555,8207392,3997730,671.5746,24.119997,93514.336,1.111105,0
8257645,8257593,3997730,671.4266,24.119999,93516.0,1.1111248,0
8348060,8307835,3997730,671.47687,24.119997,93515.43,1.1111181,0
8358086,8358018,3997730,671.3368,24.119999,93517.0,1.1111367,0
8438392,8408229,3997730,671.5746,24.13,93514.336,1.111105,0
8458471,8458404,3997730,671.7833,24.13,93512.0,1.1110772,0
8548938,8508642,3997730,671.6433,24.130001,93513.57,1.1110959,0
8558969,8558919,3997730,671.7833,24.13,93512.0,1.1110772,0
8639319,8609135,3997730,671.44244,24.135,93515.836,1.1111228,0
8659375,8659326,3997730,671.5165,24.14,93515.0,1.111113,0
8749840,8709507,3997730,671.56665,24.14,93514.43,1.1111062,0
8759865,8759815,3997730,671.5165,24.14,93515.0,1.111113,0
8840131,8809964,3997730,671.6037,24.15,93514.0,1.111101,0
8860200,8860144,3997730,671.4266,24.15,93516.0,1.1111248,0
8950562,8910337,3997730,671.56665,24.149998,93514.43,1.1111062,0
8960585,8960537,3997730,671.6037,24.15,93514.0,1.111101,0
9040952,9010772,3997730,671.56134,24.15,93514.5,1.111107,0
9061015,9060958,3997730,671.6037,24.16,93514.0,1.111101,0
9151393,9111174,3997730,671.453,24.160002,93515.71,1.1111214,0
9161438,9161372,3997730,671.5165,24.16,93515.0,1.111113,0
9241930,9211624,3997730,671.6354,24.160002,93513.664,1.111097,0
9261953,9261902,3997730,671.6935,24.17,93513.0,1.1110891,0
9352342,9312110,3997730,671.6169,24.17,93513.86,1.1110992,0
9362374,9362325,3997730,671.7833,24.17,93512.0,1.1110772,0
9442818,9412530,3997730,671.5904,24.17,93514.164,1.1111029,0
9462871,9462823,3997730,671.4266,24.17,93516.0,1.1111248,0
9553192,9512976,3997730,671.52966,24.172855,93514.86,1.1111113,0
9563211,9563154,3997730,671.7833,24.18,93512.0,1.1110772,0
9643509,9613325,3997730,671.54553,24.18,93514.664,1.1111089,0
9663581,9663532,3997730,671.2496,24.18,93518.0,1.1111485,0
9754084,9713831,3997730,671.5402,24.182858,93514.71,1.1111095,0
9764119,9764030,3997730,671.6037,24.189999,93514.0,1.111101,0
9844423,9814262,3997730,671.6195,24.19,93513.836,1.1110991,0
9864496,9864428,3997730,671.5165,24.189999,93515.0,1.111113,0
9954973,9914703,3997730,671.63007,24.19,93513.71,1.1110976,0
9965011,9964954,3997730,671.6037,24.189999,93514.0,1.111101,0
10045352,10015181,3997730,671.6354,24.194998,93513.664,1.111097,0
10065408,10065358,3997730,671.6935,24.199999,93513.0,1.1110891,0
10155849,10115562,3997730,671.56665,24.199999,93514.43,1.1111062,0
10165890,10165841,3997730,671.6037,24.199999,93514.0,1.111101,0
10246203,10216041,3997730,671.5165,24.199999,93515.0,1.111113,0
10266287,10266215,3997730,671.5165,24.199999,93515.0,1.111113,0
10356583,10316381,3997730,671.57983,24.20714,93514.29,1.1111044,0
10366650,10366598,3997730,671.5165,24.21,93515.0,1.111113,0
10447102,10416881,3997730,671.6195,24.21,93513.836,1.1110991,0
10467194,10467144,3997730,671.2496,24.22,93518.0,1.1111485,0
10557491,10517300,3997730,671.6037,24.215714,93514.0,1.111101,0
10567516,10567467,3997730,671.6935,24.22,93513.0,1.1110891,0
10647957,10617726,3997730,671.56134,24.22,93514.5,1.111107,0
10668011,10667961,3997730,671.4266,24.22,93516.0,1.1111248,0
10758411,10718153,3997730,671.6169,24.22714,93513.86,1.1110992,0
10768436,10768385,3997730,671.5165,24.23,93515.0,1.111113,0
10848870,10818589,3997730,671.47156,24.229998,93515.5,1.1111189,0
10868934,10868878,3997730,671.4266,24.23,93516.0,1.1111248,0
10959319,10919097,3997730,671.49005,24.232859,93515.29,1.1111164,0
10969350,10969300,3997730,671.5165,24.24,93515.0,1.111113,0
11049835,11019534,3997730,671.48474,24.24,93515.336,1.1111169,0
11069892,11069843,3997730,671.5165,24.24,93515.0,1.111113,0
11160212,11120008,3997730,671.6539,24.240002,93513.43,1.1110942,0
11170236,11170186,3997730,671.4266,24.24,93516.0,1.1111248,0
11250516,11220364,3997730,671.5904,24.24,93514.164,1.1111029,0
11270586,11270530,3997730,671.6037,24.25,93514.0,1.111101,0
11360974,11320754,3997730,671.56665,24.25,93514.43,1.1111062,0
11371005,11370955,3997730,671.6037,24.25,93514.0,1.111101,0
11451317,11421140,3997730,671.5165,24.26,93515.0,1.111113,0
11471400,11471324,3997730,671.2496,24.26,93518.0,1.1111485,0
11561829,11521496,3997730,671.47687,24.259998,93515.43,1.1111181,0
11571716,11571658,3997730,671.6037,24.26,93514.0,1.111101,0
11652123,11621957,3997730,671.54553,24.26,93514.664,1.1111089,0
11672249,11672177,3997730,671.5165,24.269999,93515.0,1.111113,0
11762623,11722387,3997730,671.7437,24.27,93512.43,1.1110823,0
11772628,11772566,3997730,671.2496,24.269999,93518.0,1.1111485,0
11853023,11822839,3997730,671.54553,24.275,93514.664,1.1111089,0
11873097,11873042,3997730,671.5165,24.279999,93515.0,1.111113,0
11963525,11923274,3997730,671.593,24.275713,93514.14,1.1111027,0
11973555,11973506,3997730,671.6037,24.279999,93514.0,1.111101,0
12054020,12023767,3997730,671.6037,24.279999,93514.0,1.111101,0
12074116,12074028,3997730,671.5165,24.289999,93515.0,1.111113,0
12164417,12124242,3997730,671.6169,24.285711,93513.86,1.1110992,0
12174466,12174399,3997730,671.7833,24.289999,93512.0,1.1110772,0
12254904,12224667,3997730,671.56134,24.289999,93514.5,1.111107,0
12274966,12274917,3997730,671.1597,24.289999,93519.0,1.1111604,0
12365356,12325137,3997730,671.57983,24.292858,93514.29,1.1111044,0
12375396,12375338,3997730,671.5165,24.3,93515.0,1.111113,0
12455855,12425565,3997730,671.6644,24.300001,93513.336,1.1110932,0
12475927,12475879,3997730,671.4266,24.3,93516.0,1.1111248,0
12566230,12526038,3997730,671.4266,24.302856,93516.0,1.1111248,0
12576291,12576242,3997730,671.4266,24.31,93516.0,1.1111248,0
12656555,12626397,3997730,671.6354,24.31,93513.664,1.111097,0
12676622,12676568,3997730,671.1597,24.31,93519.0,1.1111604,0
12767232,12726969,3997730,671.5402,24.31,93514.71,1.1111095,0
12777269,12777211,3997730,671.4266,24.31,93516.0,1.1111248,0
12857624,12827433,3997730,671.26544,24.32,93517.836,1.1111466,0
12877729,12877629,3997730,671.1597,24.32,93519.0,1.1111604,0
12968105,12927909,3997730,671.52966,24.319998,93514.86,1.1111113,0
12978170,12978119,3997730,671.5165,24.32,93515.0,1.111113,0
13058468,13028300,3997730,671.6195,24.33,93513.836,1.1110991,0
13078514,13078465,3997730,671.6935,24.33,93513.0,1.1110891,0
13169170,13128873,3997730,671.5402,24.332857,93514.71,1.1111095,0
13179201,13179152,3997730,671.4266,24.34,93516.0,1.1111248,0
13259521,13229311,3997730,671.5165,24.335,93515.0,1.111113,0
13279585,13279528,3997730,671.2496,24.34,93518.0,1.1111485,0
13370067,13329787,3997730,671.50323,24.339998,93515.14,1.1111146,0
13380099,13380043,3997730,671.3368,24.34,93517.0,1.1111367,0
13460425,13430261,3997730,671.52966,24.345001,93514.836,1.1111109,0
13480498,13480430,3997730,671.4266,24.35,93516.0,1.1111248,0
13570963,13530735,3997730,671.46625,24.350002,93515.57,1.1111197,0
13581001,13580945,3997730,671.7833,24.35,93512.0,1.1110772,0
13661351,13631182,3997730,671.36847,24.354998,93516.664,1.1111327,0
13681413,13681365,3997730,671.3368,24.359999,93517.0,1.1111367,0
13771923,13731635,3997730,671.52966,24.359999,93514.86,1.1111113,0
13781990,13781940,3997730,671.4266,24.359999,93516.0,1.1111248,0
13862380,13832200,3997730,671.5165,24.364998,93515.0,1.111113,0
13882434,13882385,3997730,671.8731,24.369999,93511.0,1.1110654,0
13972903,13932631,3997730,671.7199,24.369997,93512.71,1.1110857,0
13982948,13982898,3997730,671.5165,24.369999,93515.0,1.111113,0
14063262,14033089,3997730,671.54553,24.375,93514.664,1.1111089,0
14083321,14083271,3997730,671.2496,24.38,93518.0,1.1111485,0
14173887,14133485,3997730,671.52966,24.380001,93514.86,1.1111113,0
14183875,14183826,3997730,671.3368,24.38,93517.0,1.1111367,0
14264118,14233972,3997730,671.5165,24.385,93515.0,1.111113,0
14284199,14284142,3997730,671.4266,24.39,93516.0,1.1111248,0
14374588,14334337,3997730,671.56665,24.39,93514.43,1.1111062,0
14384588,14384536,3997730,671.7833,24.39,93512.0,1.1110772,0
14465014,14434806,3997730,671.56134,24.39,93514.5,1.111107,0
14485113,14485058,3997730,671.6935,24.39,93513.0,1.1110891,0
14575462,14535257,3997730,671.4002,24.397142,93516.29,1.1111282,0
14585498,14585425,3997730,671.3368,24.4,93517.0,1.1111367,0
14665961,14635730,3997730,671.47156,24.404999,93515.5,1.1111189,0
14686009,14685960,3997730,671.3368,24.41,93517.0,1.1111367,0
14776351,14736148,3997730,671.46625,24.410002,93515.57,1.1111197,0
14786383,14786333,3997730,671.2496,24.41,93518.0,1.1111485,0
14866852,14836524,3997730,671.48474,24.414999,93515.336,1.1111169,0
14886925,14886859,3997730,671.3368,24.42,93517.0,1.1111367,0
14977255,14937050,3997730,671.3368,24.42,93517.0,1.1111367,0
14987319,14987269,3997730,671.4266,24.42,93516.0,1.1111248,0
15067594,15037431,3997730,671.44244,24.42,93515.836,1.1111228,0
15087650,15087599,3997730,671.4266,24.43,93516.0,1.1111248,0
15178153,15137882,3997730,671.47687,24.430002,93515.43,1.1111181,0
15188175,15188121,3997730,671.6935,24.43,93513.0,1.1110891,0
15268418,15238271,3997730,671.47156,24.43,93515.5,1.1111189,0
15288493,15288425,3997730,671.9603,24.43,93510.0,1.1110535,0
15378921,15338672,3997730,671.6037,24.432858,93514.0,1.111101,0
15388952,15388903,3997730,671.8731,24.439999,93511.0,1.1110654,0
15469261,15439085,3997730,671.36847,24.44,93516.664,1.1111327,0
15489344,15489294,3997730,671.4266,24.439999,93516.0,1.1111248,0
15579862,15539510,3997730,671.50323,24.44,93515.14,1.1111146,0
15589893,15589845,3997730,671.6037,24.439999,93514.0,1.111101,0
15670200,15640012,3997730,671.48474,24.449999,93515.336,1.1111169,0
15690260,15690211,3997730,671.3368,24.449999,93517.0,1.1111367,0
15780555,15740370,3997730,671.5402,24.452854,93514.71,1.1111095,0
15790598,15790541,3997730,671.7833,24.46,93512.0,1.1110772,0
15871017,15840832,3997730,671.5006,24.46,93515.164,1.1111149,0
15891065,15890999,3997730,671.1597,24.46,93519.0,1.1111604,0
15981409,15941213,3997730,671.50323,24.462856,93515.14,1.1111146,0
15991462,15991392,3997730,671.7833,24.47,93512.0,1.1110772,0
16071857,16041564,3997730,671.48474,24.47,93515.336,1.1111169,0
16091957,16091878,3997730,671.7833,24.47,93512.0,1.1110772,0
16182322,16142078,3997730,671.46625,24.472857,93515.57,1.1111197,0
16192364,16192305,3997730,671.2496,24.48,93518.0,1.1111485,0
16272659,16242483,3997730,671.3077,24.479998,93517.336,1.1111406,0
16292859,16292810,3997730,671.6935,24.48,93513.0,1.1110891,0
16383234,16343012,3997730,671.5165,24.482859,93515.0,1.111113,0
16393267,16393209,3997730,671.5165,24.49,93515.0,1.111113,0
16473620,16443433,3997730,671.3817,24.49,93516.5,1.1111307,0
16493852,16493630,3997730,671.1597,24.49,93519.0,1.1111604,0
16584213,16543995,3997730,671.46625,24.490002,93515.57,1.1111197,0
16594236,16594187,3997730,671.4266,24.49,93516.0,1.1111248,0
16674554,16644375,3997730,671.3817,24.495,93516.5,1.1111307,0
16694622,16694563,3997730,671.7833,24.5,93512.0,1.1110772,0
16785203,16744893,3997730,671.49005,24.502855,93515.29,1.1111164,0
16795241,16795185,3997730,671.5165,24.51,93515.0,1.111113,0
16875586,16845398,3997730,671.47156,24.505,93515.5,1.1111189,0
16895784,16895618,3997730,671.6037,24.51,93514.0,1.111101,0
16986086,16945886,3997730,671.5534,24.509998,93514.57,1.1111078,0
16996115,16996066,3997730,671.4266,24.51,93516.0,1.1111248,0
17076438,17046263,3997730,671.52966,24.519999,93514.836,1.1111109,0
17096499,17096429,3997730,671.6037,24.519999,93514.0,1.111101,0
17187020,17146758,3997730,671.6037,24.52,93514.0,1.111101,0
17197131,17197069,3997730,671.6037,24.519999,93514.0,1.111101,0
17277416,17247253,3997730,671.56134,24.525,93514.5,1.111107,0
17297554,17297505,3997730,671.3368,24.529999,93517.0,1.1111367,0
17387979,17347750,3997730,671.6037,24.529999,93514.0,1.111101,0
17398011,17397962,3997730,671.3368,24.529999,93517.0,1.1111367,0
17478322,17448147,3997730,671.6037,24.534998,93514.0,1.111101,0
17498378,17498329,3997730,671.2496,24.539999,93518.0,1.1111485,0
17588822,17548500,3997730,671.56665,24.539997,93514.43,1.1111062,0
17598879,17598795,3997730,671.7833,24.539999,93512.0,1.1110772,0
17679169,17648985,3997730,671.70667,24.550001,93512.836,1.1110872,0
17699228,17699172,3997730,671.4266,24.55,93516.0,1.1111248,0
17789587,17749370,3997730,671.63007,24.552856,93513.71,1.1110976,0
17799623,17799569,3997730,672.05023,24.56,93509.0,1.1110417,0
17880093,17849840,3997730,671.54553,24.56,93514.664,1.1111089,0
17900200,17900119,3997730,671.5165,24.56,93515.0,1.111113,0
17990484,17950281,3997730,671.6037,24.562857,93514.0,1.111101,0
18000516,18000466,3997730,671.3368,24.57,93517.0,1.1111367,0
18080924,18050703,3997730,671.44244,24.57,93515.836,1.1111228,0
18100993,18100934,3997730,671.7833,24.57,93512.0,1.1110772,0
18191375,18151168,3997730,671.5165,24.569998,93515.0,1.111113,0
18201408,18201357,3997730,671.1597,24.57,93519.0,1.1111604,0
18281815,18251529,3997730,671.54553,24.57,93514.664,1.1111089,0
18301913,18301849,3997730,671.4266,24.57,93516.0,1.1111248,0
18392234,18352017,3997730,671.49005,24.569998,93515.29,1.1111164,0
18402257,18402208,3997730,671.8731,24.57,93511.0,1.1110654,0
18482515,18452365,3997730,671.52966,24.57,93514.836,1.1111109,0
18502606,18502531,3997730,671.7833,24.57,93512.0,1.1110772,0
18593117,18552842,3997730,671.5165,24.569998,93515.0,1.111113,0
18603167,18603119,3997730,671.4266,24.57,93516.0,1.1111248,0
18683509,18653297,3997730,671.72253,24.57,93512.664,1.1110852,0
18703599,18703544,3997730,671.6935,24.57,93513.0,1.1110891,0
18794036,18753800,3997730,671.46625,24.577145,93515.57,1.1111197,0
18804077,18804020,3997730,671.7833,24.58,93512.0,1.1110772,0
18884366,18854211,3997730,671.48474,24.58,93515.336,1.1111169,0
18904503,18904378,3997730,671.8731,24.58,93511.0,1.1110654,0
18994872,18954592,3997730,671.57983,24.582857,93514.29,1.1111044,0
19004903,19004854,3997730,671.6037,24.59,93514.0,1.111101,0
19085263,19055078,3997730,671.72253,24.589998,93512.664,1.1110852,0
19105340,19105291,3997730,671.2496,24.59,93518.0,1.1111485,0
19195651,19155461,3997730,671.593,24.589998,93514.14,1.1111027,0
19205908,19205859,3997730,671.8731,24.59,93511.0,1.1110654,0
19286204,19256042,3997730,671.6644,24.595,93513.336,1.1110932,0
19306270,19306220,3997730,671.6037,24.6,93514.0,1.111101,0
19396596,19356386,3997730,671.6169,24.602858,93513.86,1.1110992,0
19406634,19406583,3997730,671.7833,24.609999,93512.0,1.1110772,0
19487175,19456935,3997730,671.52966,24.609999,93514.836,1.1111109,0
19507236,19507180,3997730,671.5165,24.609999,93515.0,1.111113,0
19597647,19557392,3997730,671.6433,24.612856,93513.57,1.1110959,0
19607799,19607629,3997730,671.4266,24.619999,93516.0,1.1111248,0
19688053,19657905,3997730,671.70667,24.624998,93512.836,1.1110872,0
19708112,19708063,3997730,671.4266,24.63,93516.0,1.1111248,0
19798475,19758270,3997730,671.63007,24.637142,93513.71,1.1110976,0
19808507,19808438,3997730,671.5165,24.64,93515.0,1.111113,0
19888952,19858713,3997730,671.6195,24.644999,93513.836,1.1110991,0
19909018,19908961,3997730,671.7833,24.65,93512.0,1.1110772,0
19999510,19959267,3997730,671.7833,24.657145,93512.0,1.1110772,0
20009557,20009507,3997730,671.6935,24.66,93513.0,1.1110891,0
20089957,20059751,3997730,671.6354,24.67,93513.664,1.111097,0
20110014,20109964,3997730,671.4266,24.67,93516.0,1.1111248,0
20200383,20160153,3997730,671.6803,24.672855,93513.14,1.1110908,0
20210414,20210365,3997730,671.8731,24.68,93511.0,1.1110654,0
20290880,20260624,3997730,671.6354,24.69,93513.664,1.111097,0
20310977,20310928,3997730,671.7833,24.689999,93512.0,1.1110772,0
20401372,20361153,3997730,671.6539,24.692856,93513.43,1.1110942,0
20411414,20411355,3997730,671.7833,24.699999,93512.0,1.1110772,0
20491908,20461600,3997730,671.73834,24.705,93512.5,1.1110831,0
20511975,20511911,3997730,671.4266,24.71,93516.0,1.1111248,0
20602324,20562114,3997730,671.5534,24.710001,93514.57,1.1111078,0
20612356,20612307,3997730,671.6935,24.71,93513.0,1.1110891,0
20692645,20662483,3997730,671.6037,24.714998,93514.0,1.111101,0
20712850,20712666,3997730,671.5165,24.72,93515.0,1.111113,0
20803236,20762996,3997730,671.57983,24.72714,93514.29,1.1111044,0
20813260,20813211,3997730,672.05023,24.73,93509.0,1.1110417,0
20893561,20863394,3997730,671.6195,24.735,93513.836,1.1110991,0
20913607,20913559,3997730,671.7833,24.74,93512.0,1.1110772,0
21004131,20963834,3997730,671.57983,24.740002,93514.29,1.1111044,0
21014171,21014120,3997730,671.6935,24.74,93513.0,1.1110891,0
21697234,21667047,3997730,671.8124,24.769999,93511.664,1.1110733,0
21717314,21717243,3997730,671.7833,24.769999,93512.0,1.1110772,0
21807650,21767439,3997730,671.593,24.77,93514.14,1.1111027,0
21817747,21817632,3997730,671.4266,24.769999,93516.0,1.1111248,0
21898088,21867931,3997730,671.6195,24.769999,93513.836,1.1110991,0
21918169,21918119,3997730,671.1597,24.769999,93519.0,1.1111604,0
22008517,21968316,3997730,671.453,24.77,93515.71,1.1111214,0
22018562,22018507,3997730,671.6037,24.769999,93514.0,1.111101,0
22098966,22068742,3997730,671.6195,24.769999,93513.836,1.1110991,0
22119022,22118973,3997730,671.5165,24.769999,93515.0,1.111113,0
22209417,22169232,3997730,671.52966,24.77,93514.86,1.1111113,0
22219513,22219443,3997730,671.3368,24.769999,93517.0,1.1111367,0
22299926,22269713,3997730,671.6037,24.769999,93514.0,1.111101,0
22319983,22319935,3997730,671.2496,24.769999,93518.0,1.1111485,0
22410327,22370119,3997730,671.66705,24.77,93513.29,1.1110926,0
22420375,22420310,3997730,671.4266,24.769999,93516.0,1.1111248,0
22500647,22470483,3997730,671.56134,24.765,93514.5,1.111107,0
22520840,22520791,3997730,671.3368,24.76,93517.0,1.1111367,0
22611172,22570954,3997730,671.7437,24.759998,93512.43,1.1110823,0
22621199,22621149,3997730,671.9603,24.76,93510.0,1.1110535,0
22701492,22671324,3997730,671.64856,24.765,93513.5,1.1110951,0
22721556,22721507,3997730,671.6037,24.76,93514.0,1.111101,0
22812109,22771790,3997730,671.593,24.767141,93514.14,1.1111027,0
22822157,22822035,3997730,671.9603,24.769999,93510.0,1.1110535,0
22902461,22872295,3997730,671.6776,24.765,93513.164,1.111091,0
22922519,22922469,3997730,671.5165,24.769999,93515.0,1.111113,0
23013032,22972765,3997730,671.6169,24.77,93513.86,1.1110992,0
23023142,23023008,3997730,671.8731,24.769999,93511.0,1.1110654,0
23103526,23073235,3997730,671.6037,24.775,93514.0,1.111101,0
23123510,23123442,3997730,671.5165,24.769999,93515.0,1.111113,0
23214038,23173732,3997730,671.8071,24.774286,93511.71,1.1110737,0
23224076,23224019,3997730,672.1374,24.769999,93508.0,1.1110297,0
23304412,23274251,3997730,671.7675,24.779999,93512.164,1.1110792,0
23324488,23324420,3997730,671.5165,24.779999,93515.0,1.111113,0
23414925,23374638,3997730,671.75696,24.779999,93512.29,1.1110806,0
23424964,23424901,3997730,671.8731,24.779999,93511.0,1.1110654,0
23505366,23475190,3997730,671.8731,24.784998,93511.0,1.1110654,0
23525425,23525375,3997730,671.9603,24.789999,93510.0,1.1110535,0
23615926,23575639,3997730,671.84674,24.789997,93511.29,1.1110688,0
23625958,23625908,3997730,671.8731,24.789999,93511.0,1.1110654,0
23706238,23676072,3997730,671.73834,24.789999,93512.5,1.1110831,0
23726326,23726276,3997730,671.6037,24.8,93514.0,1.111101,0
23816842,23776461,3997730,671.75696,24.795715,93512.29,1.1110806,0
23826864,23826814,3997730,672.05023,24.8,93509.0,1.1110417,0
23907171,23876981,3997730,671.7675,24.800001,93512.164,1.1110792,0
23927255,23927196,3997730,671.5165,24.8,93515.0,1.111113,0
24017610,23977389,3997730,671.77014,24.800001,93512.14,1.1110789,0
24027645,24027593,3997730,672.05023,24.8,93509.0,1.1110417,0
24108101,24077864,3997730,671.6354,24.800001,93513.664,1.111097,0
24128202,24128144,3997730,671.7833,24.8,93512.0,1.1110772,0
24218497,24178304,3997730,671.6803,24.807142,93513.14,1.1110908,0
24228600,24228509,3997730,671.6935,24.81,93513.0,1.1110891,0
24308957,24278771,3997730,671.6644,24.804998,93513.336,1.1110932,0
24329019,24328962,3997730,671.6037,24.81,93514.0,1.111101,0
24419374,24379171,3997730,671.70667,24.81,93512.86,1.1110874,0
24429406,24429356,3997730,671.7833,24.81,93512.0,1.1110772,0
24509837,24479527,3997730,671.6644,24.81,93513.336,1.1110932,0
24529892,24529843,3997730,671.7833,24.81,93512.0,1.1110772,0
24620295,24580055,3997730,671.6935,24.812857,93513.0,1.1110891,0
24630333,24630282,3997730,671.8731,24.82,93511.0,1.1110654,0
24710820,24680476,3997730,671.6935,24.82,93513.0,1.1110891,0
24730881,24730824,3997730,671.4266,24.82,93516.0,1.1111248,0
24821202,24780995,3997730,671.6803,24.822857,93513.14,1.1110908,0
24831241,24831185,3997730,671.8731,24.83,93511.0,1.1110654,0
24911590,24881398,3997730,671.72253,24.83,93512.664,1.1110852,0
24931648,24931596,3997730,671.6935,24.83,93513.0,1.1110891,0
25022225,24981925,3997730,671.7437,24.832857,93512.43,1.1110823,0
25032303,25032249,3997730,671.7833,24.84,93512.0,1.1110772,0
25112625,25082449,3997730,671.75165,24.835,93512.336,1.1110812,0
25132885,25132665,3997730,671.7833,24.84,93512.0,1.1110772,0
25223236,25183005,3997730,671.70667,24.839998,93512.86,1.1110874,0
25233264,25233212,3997730,671.7833,24.84,93512.0,1.1110772,0
25313627,25283441,3997730,671.7675,24.845001,93512.164,1.1110792,0
25333805,25333631,3997730,671.9603,24.85,93510.0,1.1110535,0
25424131,25383931,3997730,671.6539,24.850002,93513.43,1.1110942,0
25434172,25434123,3997730,671.5165,24.85,93515.0,1.111113,0
25514477,25484303,3997730,671.84143,24.855001,93511.336,1.1110693,0
25534570,25534506,3997730,671.7833,24.859999,93512.0,1.1110772,0
25624985,25584741,3997730,671.7833,24.859999,93512.0,1.1110772,0
25635096,25635007,3997730,672.05023,24.859999,93509.0,1.1110417,0
25715324,25685178,3997730,671.91547,24.859999,93510.5,1.1110594,0
25735386,25735330,3997730,671.6935,24.859999,93513.0,1.1110891,0
25825906,25785571,3997730,671.593,24.859999,93514.14,1.1111027,0
25835928,25835872,3997730,671.6037,24.859999,93514.0,1.111101,0
25916263,25886063,3997730,671.64856,24.859999,93513.5,1.1110951,0
25936297,25936248,3997730,672.05023,24.859999,93509.0,1.1110417,0
26026626,25986414,3997730,671.7437,24.859999,93512.43,1.1110823,0
26036650,26036599,3997730,671.5165,24.859999,93515.0,1.111113,0
26117054,26086866,3997730,671.6776,24.869997,93513.164,1.111091,0
26137123,26137065,3997730,671.6935,24.869999,93513.0,1.1110891,0
26227512,26187268,3997730,671.6803,24.869997,93513.14,1.1110908,0
26237576,26237506,3997730,671.3368,24.869999,93517.0,1.1111367,0
26318003,26287752,3997730,671.64856,24.869997,93513.5,1.1110951,0
26338040,26337979,3997730,671.7833,24.869999,93512.0,1.1110772,0
26428347,26388162,3997730,671.6935,24.869997,93513.0,1.1110891,0
26438382,26438330,3997730,671.6935,24.869999,93513.0,1.1110891,0
26518859,26488521,3997730,671.84143,24.875,93511.336,1.1110693,0
26538913,26538864,3997730,671.9603,24.88,93510.0,1.1110535,0
26629254,26589052,3997730,671.56665,24.880001,93514.43,1.1111062,0
26639321,26639270,3997730,671.5165,24.88,93515.0,1.111113,0
26719649,26689458,3997730,671.54553,24.88,93514.664,1.1111089,0
26739827,26739654,3997730,671.7833,24.869999,93512.0,1.1110772,0
26830223,26789997,3997730,671.66705,24.877142,93513.29,1.1110926,0
26840291,26840241,3997730,671.5165,24.88,93515.0,1.111113,0
26920561,26890398,3997730,671.7675,24.875,93512.164,1.1110792,0
26940608,26940559,3997730,671.8731,24.88,93511.0,1.1110654,0
27031189,26990906,3997730,671.94714,24.872854,93510.14,1.1110551,0
27041198,27041148,3997730,671.9603,24.869999,93510.0,1.1110535,0
27121585,27091353,3997730,671.6644,24.88,93513.336,1.1110932,0
27141610,27141560,3997730,671.5165,24.88,93515.0,1.111113,0
27232006,27191798,3997730,671.70667,24.875715,93512.86,1.1110874,0
27242036,27241987,3997730,671.7833,24.88,93512.0,1.1110772,0
27322327,27292176,3997730,671.64856,24.874998,93513.5,1.1110951,0
27342406,27342334,3997730,672.05023,24.88,93509.0,1.1110417,0
27432885,27392543,3997730,671.6935,24.880001,93513.0,1.1110891,0
27442917,27442867,3997730,671.7833,24.88,93512.0,1.1110772,0
27523239,27493051,3997730,671.6776,24.88,93513.164,1.111091,0
27543318,27543268,3997730,671.3368,24.88,93517.0,1.1111367,0
27633865,27593438,3997730,671.7437,24.880001,93512.43,1.1110823,0
27643827,27643622,3997730,671.4266,24.88,93516.0,1.1111248,0
27724116,27693944,3997730,671.54553,24.88,93514.664,1.1111089,0
27744199,27744142,3997730,671.6037,24.88,93514.0,1.111101,0
27834553,27794337,3997730,671.75696,24.880001,93512.29,1.1110806,0
27844586,27844537,3997730,671.6935,24.88,93513.0,1.1110891,0
27925003,27894797,3997730,671.6354,24.88,93513.664,1.111097,0
27945096,27945042,3997730,671.7833,24.88,93512.0,1.1110772,0
28035513,27995266,3997730,671.75696,24.884287,93512.29,1.1110806,0
28045562,28045506,3997730,671.4266,24.88,93516.0,1.1111248,0
28125957,28095742,3997730,671.7675,24.885,93512.164,1.1110792,0
28146011,28145962,3997730,671.1597,24.89,93519.0,1.1111604,0
28236358,28196160,3997730,671.5402,24.89,93514.71,1.1111095,0
28246389,28246340,3997730,671.4266,24.89,93516.0,1.1111248,0
28326930,28296631,3997730,671.52966,24.885,93514.836,1.1111109,0
28346961,28346909,3997730,671.4266,24.89,93516.0,1.1111248,0
28437318,28397107,3997730,671.7199,24.89,93512.71,1.1110857,0
28447351,28447299,3997730,671.5165,24.89,93515.0,1.111113,0
28527830,28497516,3997730,671.4556,24.89,93515.664,1.1111207,0
28547918,28547868,3997730,671.7833,24.88,93512.0,1.1110772,0
28638328,28598101,3997730,671.8071,24.880001,93511.71,1.1110737,0
28648360,28648309,3997730,671.7833,24.88,93512.0,1.1110772,0
28728646,28698482,3997730,671.70667,24.88,93512.836,1.1110872,0
28748885,28748836,3997730,671.9603,24.89,93510.0,1.1110535,0
28839235,28799013,3997730,671.6433,24.885714,93513.57,1.1110959,0
28849260,28849210,3997730,671.7833,24.89,93512.0,1.1110772,0
28929555,28899393,3997730,671.6935,24.885,93513.0,1.1110891,0
28949641,28949590,3997730,671.6935,24.89,93513.0,1.1110891,0
29040056,28999841,3997730,671.70667,24.89,93512.86,1.1110874,0
29050090,29050036,3997730,671.9603,24.89,93510.0,1.1110535,0
29130386,29100233,3997730,671.9313,24.89,93510.336,1.1110574,0
29150470,29150393,3997730,671.4266,24.89,93516.0,1.1111248,0
29240907,29200630,3997730,671.6169,24.89,93513.86,1.1110992,0
29250937,29250889,3997730,671.6935,24.89,93513.0,1.1110891,0
29331203,29301044,3997730,671.6935,24.89,93513.0,1.1110891,0
29351266,29351215,3997730,671.6935,24.89,93513.0,1.1110891,0
29441626,29401405,3997730,671.66705,24.89,93513.29,1.1110926,0
29451656,29451605,3997730,671.6037,24.89,93514.0,1.111101,0
29532139,29501929,3997730,671.6776,24.885,93513.164,1.111091,0
29552185,29552128,3997730,672.05023,24.89,93509.0,1.1110417,0
29642514,29602326,3997730,671.7199,24.89,93512.71,1.1110857,0
29652606,29652535,3997730,671.8731,24.89,93511.0,1.1110654,0
29732989,29702800,3997730,671.6935,24.89,93513.0,1.1110891,0
29753042,29752992,3997730,671.6935,24.89,93513.0,1.1110891,0
29843386,29803191,3997730,671.57983,24.89,93514.29,1.1111044,0
29853425,29853366,3997730,672.05023,24.89,93509.0,1.1110417,0
29933904,29903663,3997730,671.8864,24.89,93510.836,1.1110634,0
29953960,29953911,3997730,671.7833,24.89,93512.0,1.1110772,0
30044296,30004079,3997730,671.56665,24.89,93514.43,1.1111062,0
30054330,30054280,3997730,671.5165,24.89,93515.0,1.111113,0
30134630,30104455,3997730,671.72253,24.89,93512.664,1.1110852,0
30154852,30154653,3997730,671.5165,24.89,93515.0,1.111113,0
30245264,30205040,3997730,671.7833,24.89,93512.0,1.1110772,0
30255321,30255271,3997730,671.6935,24.89,93513.0,1.1110891,0
30335794,30305483,3997730,671.56134,24.894999,93514.5,1.111107,0
30355841,30355792,3997730,671.6037,24.89,93514.0,1.111101,0
30446170,30405972,3997730,671.75696,24.89,93512.29,1.1110806,0
30456211,30456153,3997730,671.6935,24.89,93513.0,1.1110891,0
30536504,30506339,3997730,671.6195,24.89,93513.836,1.1110991,0
30556586,30556530,3997730,671.5165,24.89,93515.0,1.111113,0
30647028,30606808,3997730,671.70667,24.887144,93512.86,1.1110874,0
30657117,30657063,3997730,671.4266,24.88,93516.0,1.1111248,0
30737406,30707249,3997730,671.5746,24.88,93514.336,1.111105,0
30757495,30757427,3997730,671.5165,24.88,93515.0,1.111113,0
30847981,30807732,3997730,671.6169,24.880001,93513.86,1.1110992,0
30858013,30857963,3997730,671.4266,24.88,93516.0,1.1111248,0
30938323,30908148,3997730,671.64856,24.88,93513.5,1.1110951,0
30958380,30958329,3997730,671.6037,24.88,93514.0,1.111101,0
31048908,31008539,3997730,671.56665,24.872854,93514.43,1.1111062,0
31058939,31058889,3997730,671.4266,24.869999,93516.0,1.1111248,0
31139201,31109044,3997730,671.6037,24.865,93514.0,1.111101,0
31159286,31159221,3997730,672.22723,24.859999,93507.0,1.1110178,0
31249644,31209405,3997730,671.6935,24.859999,93513.0,1.1110891,0
31259837,31259627,3997730,671.8731,24.859999,93511.0,1.1110654,0
31340111,31309931,3997730,671.6644,24.85,93513.336,1.1110932,0
31360206,31360144,3997730,671.5165,24.84,93515.0,1.111113,0
31450593,31410337,3997730,671.56665,24.839998,93514.43,1.1111062,0
31460624,31460573,3997730,671.6037,24.84,93514.0,1.111101,0
31541024,31510855,3997730,671.6037,24.83,93514.0,1.111101,0
31561102,31561045,3997730,671.3368,24.82,93517.0,1.1111367,0
31651590,31611286,3997730,671.6935,24.819998,93513.0,1.1110891,0
31661556,31661507,3997730,670.89557,24.82,93522.0,1.1111962,0
31742010,31711768,3997730,671.6354,24.805,93513.664,1.111097,0
31762113,31762016,3997730,671.6037,24.8,93514.0,1.111101,0
31852493,31812285,3997730,671.593,24.792856,93514.14,1.1111027,0
31862522,31862470,3997730,671.4266,24.789999,93516.0,1.1111248,0
31942936,31912727,3997730,671.3817,24.784998,93516.5,1.1111307,0
31962991,31962942,3997730,671.3368,24.769999,93517.0,1.1111367,0
32163816,32163649,3997730,671.9603,24.75,93510.0,1.1110535,0
32344515,32314355,3997730,671.54553,24.725,93514.664,1.1111089,0
32364577,32364529,3997730,671.8731,24.72,93511.0,1.1110654,0
32455129,32414849,3997730,671.35,24.709997,93516.86,1.111135,0
32465167,32465118,3997730,671.6935,24.699999,93513.0,1.1110891,0
32545468,32515273,3997730,671.4134,24.69,93516.164,1.1111268,0
32565555,32565506,3997730,671.7833,24.68,93512.0,1.1110772,0
32655922,32615689,3997730,671.416,24.677143,93516.14,1.1111264,0
32665953,32665904,3997730,671.4266,24.67,93516.0,1.1111248,0
32746279,32716080,3997730,671.3077,24.654999,93517.336,1.1111406,0
32766336,32766286,3997730,671.2496,24.65,93518.0,1.1111485,0
32856649,32816457,3997730,671.35,24.640001,93516.86,1.111135,0
32866821,32866652,3997730,671.6935,24.63,93513.0,1.1110891,0
32947097,32916925,3997730,671.2496,24.619997,93518.0,1.1111485,0
32967171,32967120,3997730,671.5165,24.609999,93515.0,1.111113,0
33057496,33017294,3997730,671.276,24.607143,93517.71,1.1111451,0
33067562,33067506,3997730,671.3368,24.6,93517.0,1.1111367,0
33147965,33117738,3997730,671.2786,24.589998,93517.664,1.1111445,0
33168023,33167973,3997730,671.5165,24.58,93515.0,1.111113,0
33258326,33218145,3997730,671.2126,24.569998,93518.43,1.1111536,0
33268359,33268308,3997730,671.7833,24.56,93512.0,1.1110772,0
33348641,33318481,3997730,671.26544,24.555,93517.836,1.1111466,0
33368844,33368789,3997730,671.4266,24.55,93516.0,1.1111248,0
33459173,33418960,3997730,671.3129,24.539999,93517.29,1.1111401,0
33469209,33469159,3997730,671.2496,24.529999,93518.0,1.1111485,0
33549490,33519324,3997730,671.36847,24.525,93516.664,1.1111327,0
33569577,33569527,3997730,671.3368,24.519999,93517.0,1.1111367,0
33660027,33619772,3997730,671.1359,24.51,93519.29,1.1111639,0
33670063,33670007,3997730,671.3368,24.5,93517.0,1.1111367,0
33750328,33720181,3997730,671.36847,24.495,93516.664,1.1111327,0
33770387,33770336,3997730,671.6037,24.49,93514.0,1.111101,0
33860921,33820604,3997730,671.35,24.48714,93516.86,1.111135,0
33870955,33870905,3997730,671.2496,24.48,93518.0,1.1111485,0
33951316,33921134,3997730,671.2786,24.475,93517.664,1.1111445,0
33971371,33971322,3997730,671.2496,24.47,93518.0,1.1111485,0
34061891,34021560,3997730,671.47687,24.47,93515.43,1.1111181,0
34071923,34071873,3997730,671.6037,24.47,93514.0,1.111101,0
34152294,34122098,3997730,671.4134,24.46,93516.164,1.1111268,0
34172349,34172300,3997730,671.7833,24.46,93512.0,1.1110772,0
34262840,34222475,3997730,671.28656,24.457142,93517.57,1.1111435,0
34272880,34272825,3997730,671.4266,24.449999,93516.0,1.1111248,0
34353201,34323010,3997730,671.2337,24.449999,93518.164,1.1111505,0
34373308,34373257,3997730,672.05023,24.449999,93509.0,1.1110417,0
34463796,34423450,3997730,671.3129,24.447142,93517.29,1.1111401,0
34473850,34473659,3997730,671.1597,24.439999,93519.0,1.1111604,0
34554102,34523948,3997730,671.3368,24.449999,93517.0,1.1111367,0
34574194,34574145,3997730,671.5165,24.439999,93515.0,1.111113,0
34664514,34624323,3997730,671.63007,24.44,93513.71,1.1110976,0
34674553,34674505,3997730,671.7833,24.439999,93512.0,1.1110772,0
34754945,34724733,3997730,671.36847,24.44,93516.664,1.1111327,0
34775004,34774954,3997730,671.1597,24.439999,93519.0,1.1111604,0
34865353,34825150,3997730,671.52966,24.437143,93514.86,1.1111113,0
34875391,34875334,3997730,671.6037,24.43,93514.0,1.111101,0
34955863,34925562,3997730,671.52966,24.43,93514.836,1.1111109,0
34975919,34975868,3997730,671.0726,24.43,93520.0,1.1111723,0
35066317,35026072,3997730,671.50323,24.430002,93515.14,1.1111146,0
35076350,35076300,3997730,671.6037,24.43,93514.0,1.111101,0
35156625,35126465,3997730,671.2945,24.43,93517.5,1.1111426,0
35176835,35176663,3997730,671.6037,24.43,93514.0,1.111101,0
35267167,35226955,3997730,671.3764,24.430002,93516.57,1.1111315,0
35277197,35277149,3997730,671.6037,24.43,93514.0,1.111101,0
35357575,35327347,3997730,671.52966,24.425001,93514.836,1.1111109,0
35377913,35377593,3997730,671.4266,24.42,93516.0,1.1111248,0
35468297,35428069,3997730,671.46625,24.42,93515.57,1.1111197,0
35478329,35478279,3997730,671.5165,24.42,93515.0,1.111113,0
35558653,35528453,3997730,671.48474,24.42,93515.336,1.1111169,0
35578872,35578650,3997730,671.4266,24.42,93516.0,1.1111248,0
35669288,35629035,3997730,671.4266,24.42,93516.0,1.1111248,0
35679317,35679268,3997730,671.5165,24.42,93515.0,1.111113,0
35759590,35729430,3997730,671.35266,24.42,93516.836,1.1111346,0
35779659,35779594,3997730,671.4266,24.42,93516.0,1.1111248,0
35870132,35829873,3997730,671.3129,24.42,93517.29,1.1111401,0
35880168,35880118,3997730,671.3368,24.42,93517.0,1.1111367,0
35960423,35930276,3997730,671.20465,24.410002,93518.5,1.1111544,0
35980496,35980428,3997730,671.6935,24.41,93513.0,1.1110891,0
36070943,36030698,3997730,671.3368,24.40714,93517.0,1.1111367,0
36080974,36080925,3997730,671.1597,24.4,93519.0,1.1111604,0
36161294,36131134,3997730,671.35266,24.4,93516.836,1.1111346,0
36181349,36181300,3997730,671.5165,24.39,93515.0,1.111113,0
36271839,36231486,3997730,671.453,24.392855,93515.71,1.1111214,0
36281879,36281665,3997730,670.89557,24.4,93522.0,1.1111962,0
36362227,36331993,3997730,671.4134,24.385,93516.164,1.1111268,0
36382258,36382209,3997730,671.4266,24.38,93516.0,1.1111248,0
36472591,36432383,3997730,671.2364,24.380001,93518.14,1.1111501,0
36482636,36482572,3997730,671.5165,24.38,93515.0,1.111113,0
36563000,36532839,3997730,671.2205,24.369997,93518.336,1.1111525,0
36583067,36583012,3997730,671.5165,24.369999,93515.0,1.111113,0
36673433,36633225,3997730,671.1729,24.362856,93518.86,1.1111587,0
36683509,36683441,3997730,671.4266,24.359999,93516.0,1.1111248,0
36763923,36733683,3997730,671.18884,24.35,93518.664,1.1111565,0
36783980,36783930,3997730,671.1597,24.34,93519.0,1.1111604,0
36874324,36834113,3997730,671.2496,24.337143,93518.0,1.1111485,0
36884356,36884307,3997730,671.7833,24.33,93512.0,1.1110772,0
36964825,36934480,3997730,671.36847,24.324999,93516.664,1.1111327,0
36984904,36984664,3997730,671.1597,24.32,93519.0,1.1111604,0
37075262,37035015,3997730,671.3632,24.31,93516.71,1.1111332,0
37085291,37085242,3997730,671.6037,24.3,93514.0,1.111101,0
37165561,37135397,3997730,671.44244,24.300001,93515.836,1.1111228,0
37185609,37185560,3997730,671.3368,24.289999,93517.0,1.1111367,0
37276056,37235837,3997730,671.26276,24.287142,93517.86,1.1111468,0
37286093,37286036,3997730,671.0726,24.279999,93520.0,1.1111723,0
37366383,37336236,3997730,671.26544,24.275,93517.836,1.1111466,0
37386440,37386390,3997730,671.4266,24.269999,93516.0,1.1111248,0
37477023,37436722,3997730,671.32623,24.262857,93517.14,1.1111383,0
37487097,37486998,3997730,671.0726,24.26,93520.0,1.1111723,0
37567399,37537228,3997730,671.3077,24.255,93517.336,1.1111406,0
37587510,37587442,3997730,671.6037,24.25,93514.0,1.111101,0
37788354,37788301,3997730,671.2496,24.23,93518.0,1.1111485,0
37878807,37838470,3997730,671.3764,24.227142,93516.57,1.1111315,0
37888841,37888792,3997730,671.6037,24.22,93514.0,1.111101,0
37989193,37989144,3997730,670.80566,24.21,93523.0,1.111208,0
38079586,38039346,3997730,671.35,24.210001,93516.86,1.111135,0
38089645,38089593,3997730,671.4266,24.21,93516.0,1.1111248,0
38170086,38139876,3997730,671.3817,24.195,93516.5,1.1111307,0
38190168,38190119,3997730,671.6037,24.189999,93514.0,1.111101,0
38280539,38240315,3997730,671.4266,24.182858,93516.0,1.1111248,0
38290563,38290506,3997730,671.1597,24.18,93519.0,1.1111604,0
38370963,38340731,3997730,671.3368,24.17,93517.0,1.1111367,0
38391027,38390969,3997730,671.1597,24.16,93519.0,1.1111604,0
38481410,38441215,3997730,671.1968,24.152857,93518.57,1.1111553,0
38491509,38491442,3997730,671.2496,24.15,93518.0,1.1111485,0
38571928,38541713,3997730,671.3077,24.135,93517.336,1.1111406,0
38591976,38591927,3997730,670.89557,24.119999,93522.0,1.1111962,0
38682343,38642121,3997730,671.0329,24.117142,93520.43,1.1111773,0
38692374,38692326,3997730,670.89557,24.109999,93522.0,1.1111962,0
38772647,38742492,3997730,671.08575,24.095,93519.836,1.1111704,0
38792758,38792694,3997730,671.0726,24.08,93520.0,1.1111723,0
38883169,38842944,3997730,671.28656,24.072859,93517.57,1.1111435,0
38893220,38893153,3997730,671.1597,24.07,93519.0,1.1111604,0
38973554,38943355,3997730,671.1597,24.055,93519.0,1.1111604,0
38993845,38993565,3997730,670.80566,24.039999,93523.0,1.111208,0
39084171,39043878,3997730,671.1597,24.037142,93519.0,1.1111604,0
39094220,39094157,3997730,671.5165,24.029999,93515.0,1.111113,0
39174555,39144367,3997730,671.1597,24.019999,93519.0,1.1111604,0
39194623,39194564,3997730,671.2496,24.01,93518.0,1.1111485,0
39285113,39244854,3997730,671.12274,24.007143,93519.43,1.1111655,0
39295171,39295120,3997730,671.2496,24.0,93518.0,1.1111485,0
39375470,39345287,3997730,671.2945,23.99,93517.5,1.1111426,0
39395516,39395466,3997730,671.1597,23.98,93519.0,1.1111604,0
39485973,39445694,3997730,671.2496,23.977142,93518.0,1.1111485,0
39496001,39495952,3997730,670.98267,23.97,93521.0,1.1111841,0
39576291,39546132,3997730,671.2337,23.96,93518.164,1.1111505,0
39596350,39596299,3997730,671.4266,23.96,93516.0,1.1111248,0
39686850,39646487,3997730,671.1597,23.952854,93519.0,1.1111604,0
39696952,39696881,3997730,671.0726,23.949999,93520.0,1.1111723,0
39777256,39747083,3997730,671.0726,23.945,93520.0,1.1111723,0
39797340,39797291,3997730,671.6037,23.939999,93514.0,1.111101,0
39887825,39847493,3997730,671.4002,23.94,93516.29,1.1111282,0
39897890,39897840,3997730,671.4266,23.939999,93516.0,1.1111248,0
39978219,39948044,3997730,671.20465,23.93,93518.5,1.1111544,0
39998340,39998269,3997730,671.0726,23.93,93520.0,1.1111723,0
40088618,40048431,3997730,671.2364,23.930002,93518.14,1.1111501,0
40098809,40098640,3997730,671.1597,23.93,93519.0,1.1111604,0
40179044,40148901,3997730,671.2786,23.92,93517.664,1.1111445,0
40199119,40199069,3997730,671.3368,23.92,93517.0,1.1111367,0
40289417,40249244,3997730,671.3764,23.917143,93516.57,1.1111315,0
40299510,40299442,3997730,671.1597,23.91,93519.0,1.1111604,0
40379952,40349731,3997730,671.3368,23.904999,93517.0,1.1111367,0
40400007,40399957,3997730,671.0726,23.9,93520.0,1.1111723,0
40490406,40450171,3997730,671.1359,23.897142,93519.29,1.1111639,0
40500422,40500370,3997730,671.6935,23.89,93513.0,1.1110891,0
40580837,40550585,3997730,671.35266,23.88,93516.836,1.1111346,0
40600892,40600844,3997730,671.3368,23.88,93517.0,1.1111367,0
40691241,40651013,3997730,671.3632,23.872854,93516.71,1.1111332,0
40701257,40701206,3997730,671.2496,23.869999,93518.0,1.1111485,0
40781873,40751591,3997730,671.2496,23.859999,93518.0,1.1111485,0
40801932,40801881,3997730,670.98267,23.85,93521.0,1.1111841,0
40892293,40852072,3997730,671.1492,23.847141,93519.14,1.1111621,0
40902328,40902277,3997730,670.98267,23.84,93521.0,1.1111841,0
40982839,40952475,3997730,671.1465,23.83,93519.164,1.1111624,0
41002843,41002793,3997730,671.2496,23.83,93518.0,1.1111485,0
41093219,41052995,3997730,671.26276,23.815714,93517.86,1.1111468,0
41103261,41103194,3997730,671.2496,23.81,93518.0,1.1111485,0
41183530,41153366,3997730,671.4134,23.805,93516.164,1.1111268,0
41203624,41203541,3997730,671.3368,23.8,93517.0,1.1111367,0
41293965,41253752,3997730,671.3764,23.79714,93516.57,1.1111315,0
41303998,41303947,3997730,670.98267,23.789999,93521.0,1.1111841,0
41384291,41354111,3997730,671.4134,23.784998,93516.164,1.1111268,0
41404345,41404296,3997730,671.2496,23.779999,93518.0,1.1111485,0
41494849,41454487,3997730,671.4398,23.779999,93515.86,1.1111231,0
41504881,41504831,3997730,671.3368,23.779999,93517.0,1.1111367,0
41585265,41555050,3997730,671.3817,23.769999,93516.5,1.1111307,0
41605346,41605295,3997730,670.62866,23.769999,93525.0,1.1112317,0
41695869,41655542,3997730,671.416,23.77,93516.14,1.1111264,0
41705897,41705842,3997730,671.5165,23.769999,93515.0,1.111113,0
41786168,41755994,3997730,671.44244,23.769999,93515.836,1.1111228,0
41806225,41806175,3997730,671.2496,23.769999,93518.0,1.1111485,0
41896561,41856367,3997730,671.416,23.76714,93516.14,1.1111264,0
41906592,41906536,3997730,671.1597,23.76,93519.0,1.1111604,0
41987181,41956965,3997730,671.4556,23.76,93515.664,1.1111207,0
42007244,42007187,3997730,671.3368,23.76,93517.0,1.1111367,0
42097573,42057362,3997730,671.4002,23.759998,93516.29,1.1111282,0
42107586,42107537,3997730,671.8731,23.76,93511.0,1.1110654,0
42188021,42157783,3997730,671.2496,23.76,93518.0,1.1111485,0
42208082,42208027,3997730,671.3368,23.76,93517.0,1.1111367,0
42298390,42258211,3997730,671.32623,23.757143,93517.14,1.1111383,0
42308425,42308373,3997730,671.6037,23.75,93514.0,1.111101,0
42388869,42358618,3997730,671.3817,23.75,93516.5,1.1111307,0
42408998,42408940,3997730,671.4266,23.75,93516.0,1.1111248,0
42499385,42459166,3997730,671.3632,23.75,93516.71,1.1111332,0
42509427,42509366,3997730,671.2496,23.75,93518.0,1.1111485,0
42589919,42559660,3997730,671.4556,23.75,93515.664,1.1111207,0
42609976,42609925,3997730,671.5165,23.75,93515.0,1.111113,0
42700303,42660109,3997730,671.5165,23.745714,93515.0,1.111113,0
42710336,42710285,3997730,671.7833,23.75,93512.0,1.1110772,0
42790822,42760489,3997730,671.52966,23.75,93514.836,1.1111109,0
42810879,42810829,3997730,671.5165,23.75,93515.0,1.111113,0
42901173,42860981,3997730,671.3129,23.742857,93517.29,1.1111401,0
42911211,42911154,3997730,671.6037,23.74,93514.0,1.111101,0
42991510,42961319,3997730,671.4266,23.745,93516.0,1.1111248,0
43011578,43011529,3997730,671.3368,23.75,93517.0,1.1111367,0
43102080,43061826,3997730,671.52966,23.745714,93514.86,1.1111113,0
43112115,43112057,3997730,671.6037,23.75,93514.0,1.111101,0
43192411,43162269,3997730,671.3368,23.745,93517.0,1.1111367,0
43212488,43212418,3997730,671.5165,23.75,93515.0,1.111113,0
43704649,43664448,3997730,671.50323,23.747145,93515.14,1.1111146,0
43714849,43714649,3997730,671.8731,23.74,93511.0,1.1110654,0
43795168,43764966,3997730,671.5746,23.74,93514.336,1.111105,0
43815232,43815175,3997730,671.7833,23.74,93512.0,1.1110772,0
43905600,43865373,3997730,671.63007,23.740002,93513.71,1.1110976,0
43915644,43915593,3997730,671.6935,23.74,93513.0,1.1110891,0
43996038,43965873,3997730,671.44244,23.74,93515.836,1.1111228,0
44016105,44016046,3997730,671.4266,23.74,93516.0,1.1111248,0
44106441,44066266,3997730,671.3896,23.740002,93516.43,1.1111299,0
44116492,44116424,3997730,671.3368,23.74,93517.0,1.1111367,0
44196940,44166699,3997730,671.5904,23.735,93514.164,1.1111029,0
44217002,44216945,3997730,671.5165,23.73,93515.0,1.111113,0
44307372,44267170,3997730,671.50323,23.729998,93515.14,1.1111146,0
44317445,44317355,3997730,671.1597,23.73,93519.0,1.1111604,0
44397896,44367649,3997730,671.48474,23.729998,93515.336,1.1111169,0
44417944,44417895,3997730,671.7833,23.73,93512.0,1.1110772,0
44508327,44468075,3997730,671.63007,23.729998,93513.71,1.1110976,0
44518359,44518309,3997730,671.6935,23.73,93513.0,1.1110891,0
44598833,44568558,3997730,671.4266,23.725,93516.0,1.1111248,0
44618887,44618838,3997730,671.2496,23.73,93518.0,1.1111485,0
44709208,44669002,3997730,671.3129,23.720001,93517.29,1.1111401,0
44719246,44719190,3997730,671.4266,23.71,93516.0,1.1111248,0
44799587,44769399,3997730,671.5904,23.714998,93514.164,1.1111029,0
44819852,44819645,3997730,671.1597,23.71,93519.0,1.1111604,0
44910248,44869995,3997730,671.3896,23.707142,93516.43,1.1111299,0
44920291,44920241,3997730,671.6935,23.699999,93513.0,1.1110891,0
45000564,44970398,3997730,671.3368,23.695,93517.0,1.1111367,0
45020618,45020567,3997730,671.6037,23.689999,93514.0,1.111101,0
45111068,45070858,3997730,671.2496,23.69,93518.0,1.1111485,0
45121097,45121042,3997730,671.2496,23.689999,93518.0,1.1111485,0
45201408,45171252,3997730,671.5165,23.68,93515.0,1.111113,0
45221489,45221420,3997730,671.8731,23.67,93511.0,1.1110654,0
45311920,45271641,3997730,671.6037,23.67,93514.0,1.111101,0
45321951,45321902,3997730,671.7833,23.67,93512.0,1.1110772,0
45402255,45372079,3997730,671.6037,23.660002,93514.0,1.111101,0
45422316,45422266,3997730,671.3368,23.66,93517.0,1.1111367,0
45512830,45472461,3997730,671.56665,23.652857,93514.43,1.1111062,0
45522869,45522662,3997730,671.4266,23.65,93516.0,1.1111248,0
45603248,45573044,3997730,671.3817,23.65,93516.5,1.1111307,0
45623317,45623268,3997730,671.9603,23.64,93510.0,1.1110535,0
45713648,45673436,3997730,671.49005,23.64,93515.29,1.1111164,0
45723818,45723631,3997730,671.6935,23.64,93513.0,1.1110891,0
45804052,45773899,3997730,671.5904,23.635,93514.164,1.1111029,0
45824155,45824051,3997730,671.1597,23.63,93519.0,1.1111604,0
45914477,45874269,3997730,671.56665,23.630001,93514.43,1.1111062,0
45924526,45924440,3997730,671.7833,23.63,93512.0,1.1110772,0
46004937,45974682,3997730,671.5165,23.619997,93515.0,1.111113,0
46025005,46024947,3997730,671.1597,23.619999,93519.0,1.1111604,0
46115385,46075172,3997730,671.5165,23.612856,93515.0,1.111113,0
46125410,46125359,3997730,671.6935,23.609999,93513.0,1.1110891,0
46205892,46175656,3997730,671.4134,23.604998,93516.164,1.1111268,0
46225949,46225896,3997730,671.5165,23.6,93515.0,1.111113,0
46316295,46276074,3997730,671.29974,23.597141,93517.43,1.1111418,0
46326366,46326314,3997730,671.2496,23.59,93518.0,1.1111485,0
46406809,46376496,3997730,671.2945,23.58,93517.5,1.1111426,0
46426981,46426920,3997730,671.4266,23.58,93516.0,1.1111248,0
46517317,46477111,3997730,671.4266,23.572859,93516.0,1.1111248,0
46527351,46527301,3997730,671.5165,23.57,93515.0,1.111113,0
46607852,46577490,3997730,671.20465,23.56,93518.5,1.1111544,0
46627907,46627858,3997730,671.3368,23.55,93517.0,1.1111367,0
46718256,46678047,3997730,671.3129,23.542856,93517.29,1.1111401,0
46728291,46728242,3997730,671.5165,23.539999,93515.0,1.111113,0
46808574,46778398,3997730,671.1597,23.525,93519.0,1.1111604,0
46828645,46828593,3997730,671.6037,23.51,93514.0,1.111101,0
46919082,46878874,3997730,671.22314,23.507143,93518.29,1.1111519,0
46929138,46929070,3997730,671.3368,23.5,93517.0,1.1111367,0
47009413,46979260,3997730,671.2337,23.49,93518.164,1.1111505,0
47029577,47029507,3997730,671.3368,23.48,93517.0,1.1111367,0
47120078,47079812,3997730,671.26276,23.477142,93517.86,1.1111468,0
47130182,47130132,3997730,671.3368,23.47,93517.0,1.1111367,0
47210472,47180304,3997730,671.3975,23.464998,93516.336,1.1111288,0
47230561,47230506,3997730,671.0726,23.449999,93520.0,1.1111723,0
47321012,47280741,3997730,671.3764,23.447142,93516.57,1.1111315,0
47331036,47330986,3997730,670.80566,23.439999,93523.0,1.111208,0
47411334,47381182,3997730,671.3077,23.44,93517.336,1.1111406,0
47431398,47431341,3997730,671.3368,23.43,93517.0,1.1111367,0
47521900,47481577,3997730,671.35,23.427143,93516.86,1.111135,0
47531925,47531876,3997730,671.3368,23.42,93517.0,1.1111367,0
47612233,47582040,3997730,671.26544,23.42,93517.836,1.1111466,0
47632290,47632240,3997730,671.2496,23.41,93518.0,1.1111485,0
47722649,47682413,3997730,671.4266,23.410002,93516.0,1.1111248,0
47732838,47732631,3997730,670.80566,23.41,93523.0,1.111208,0
47813148,47782935,3997730,671.3975,23.4,93516.336,1.1111288,0
47833204,47833154,3997730,671.3368,23.4,93517.0,1.1111367,0
47923590,47883349,3997730,671.276,23.397142,93517.71,1.1111451,0
47933622,47933572,3997730,671.2496,23.39,93518.0,1.1111485,0
48014171,47983980,3997730,671.5006,23.39,93515.164,1.1111149,0
48034226,48034176,3997730,671.6037,23.39,93514.0,1.111101,0
48124564,48084369,3997730,671.26276,23.387144,93517.86,1.1111468,0
48134614,48134539,3997730,671.6037,23.38,93514.0,1.111101,0
48215070,48184867,3997730,671.26544,23.38,93517.836,1.1111466,0
48235168,48235119,3997730,671.3368,23.369999,93517.0,1.1111367,0
48325562,48285311,3997730,671.26276,23.369997,93517.86,1.1111468,0
48335587,48335537,3997730,670.98267,23.369999,93521.0,1.1111841,0
48415978,48385758,3997730,671.2786,23.364998,93517.664,1.1111445,0
48436111,48436035,3997730,671.2496,23.359999,93518.0,1.1111485,0
48526379,48486205,3997730,671.1968,23.359999,93518.57,1.1111553,0
48536417,48536361,3997730,671.7833,23.359999,93512.0,1.1110772,0
48616889,48586597,3997730,671.35266,23.354998,93516.836,1.1111346,0
48636945,48636895,3997730,671.3368,23.35,93517.0,1.1111367,0
48727324,48687131,3997730,671.3129,23.342855,93517.29,1.1111401,0
48737357,48737307,3997730,670.80566,23.34,93523.0,1.111208,0
48817840,48787516,3997730,671.26544,23.339998,93517.836,1.1111466,0
48837858,48837808,3997730,671.0726,23.34,93520.0,1.1111723,0
48928208,48887983,3997730,671.3368,23.332857,93517.0,1.1111367,0
48938232,48938183,3997730,671.2496,23.33,93518.0,1.1111485,0
49018562,48988394,3997730,671.26544,23.32,93517.836,1.1111466,0
49038618,49038561,3997730,670.89557,23.32,93522.0,1.1111962,0
49129043,49088821,3997730,671.22314,23.312855,93518.29,1.1111519,0
49139091,49139019,3997730,671.5165,23.31,93515.0,1.111113,0
49219391,49189226,3997730,671.2786,23.300001,93517.664,1.1111445,0
49239461,49239391,3997730,671.5165,23.3,93515.0,1.111113,0
49329890,49289579,3997730,671.1597,23.300001,93519.0,1.1111604,0
49339923,49339874,3997730,671.1597,23.3,93519.0,1.1111604,0
49420293,49390083,3997730,671.3077,23.289999,93517.336,1.1111406,0
49440352,49440301,3997730,671.4266,23.279999,93516.0,1.1111248,0
49530824,49490471,3997730,671.46625,23.284285,93515.57,1.1111197,0
49540841,49540792,3997730,671.2496,23.279999,93518.0,1.1111485,0
49621098,49590943,3997730,671.2945,23.279999,93517.5,1.1111426,0
49641171,49641122,3997730,671.3368,23.279999,93517.0,1.1111367,0
49731516,49691314,3997730,671.3632,23.279999,93516.71,1.1111332,0
49741562,49741506,3997730,671.3368,23.279999,93517.0,1.1111367,0
49821972,49791735,3997730,671.44244,23.279999,93515.836,1.1111228,0
49842018,49841965,3997730,671.2496,23.279999,93518.0,1.1111485,0
49932424,49892204,3997730,671.29974,23.277143,93517.43,1.1111418,0
49942475,49942407,3997730,671.7833,23.269999,93512.0,1.1110772,0
50022935,49992662,3997730,671.3368,23.269999,93517.0,1.1111367,0
50042967,50042918,3997730,671.6037,23.269999,93514.0,1.111101,0
50133350,50093137,3997730,671.3764,23.262857,93516.57,1.1111315,0
50143390,50143332,3997730,671.4266,23.26,93516.0,1.1111248,0
50223856,50193535,3997730,671.35266,23.255,93516.836,1.1111346,0
50243913,50243864,3997730,671.0726,23.25,93520.0,1.1111723,0
50334254,50294066,3997730,671.276,23.242857,93517.71,1.1111451,0
50344290,50344241,3997730,671.5165,23.24,93515.0,1.111113,0
50424572,50394397,3997730,671.3975,23.229998,93516.336,1.1111288,0
50444840,50444623,3997730,671.1597,23.22,93519.0,1.1111604,0
50535167,50494927,3997730,671.32623,23.209997,93517.14,1.1111383,0
50545207,50545158,3997730,671.3368,23.199999,93517.0,1.1111367,0
50625492,50595325,3997730,671.4266,23.199999,93516.0,1.1111248,0
50645570,50645509,3997730,670.98267,23.189999,93521.0,1.1111841,0
50735979,50695758,3997730,671.4002,23.187143,93516.29,1.1111282,0
50746011,50745962,3997730,670.98267,23.18,93521.0,1.1111841,0
50826340,50796147,3997730,671.2786,23.175001,93517.664,1.1111445,0
