timestamp,timestamp_sample,control_mode_flags,output_tracking_error[0],output_tracking_error[1],output_tracking_error[2],filter_fault_flags,pos_horiz_accuracy,pos_vert_accuracy,mag_test_ratio,vel_test_ratio,pos_test_ratio,hgt_test_ratio,tas_test_ratio,hagl_test_ratio,beta_test_ratio,time_slip,accel_device_id,gyro_device_id,baro_device_id,mag_device_id,gps_check_fail_flags,innovation_check_flags,solution_status_flags,reset_count_vel_ne,reset_count_vel_d,reset_count_pos_ne,reset_count_pod_d,reset_count_quat,pre_flt_fail_innov_heading,pre_flt_fail_innov_vel_horiz,pre_flt_fail_innov_vel_vert,pre_flt_fail_innov_height,pre_flt_fail_mag_field_disturbed,health_flags,timeout_flags
1668417,1541452,6979322880,3.7366102e-05,0.009174758,0.0030325935,0,0.7063398,0.53034216,nan,nan,nan,1.7802435e-05,0.0,0.0,0.0,0.0,6029322,6029322,3997730,0,0,0,164,1,1,1,2,0,0,0,0,0,0,0,0
1684805,1554452,6979322880,2.559683e-05,0.008666634,0.0030541408,0,0.7063978,0.43302256,nan,nan,nan,4.702748e-06,0.0,0.0,0.0,0.0,6029322,6029322,3997730,0,0,0,164,1,1,1,2,0,0,0,0,0,0,0,0
1876493,1748452,6979322880,7.699267e-05,0.0034486463,0.0056142705,0,0.5027957,0.37501264,nan,nan,nan,5.1691928e-05,0.0,0.0,0.0,0.0,6029322,6029322,3997730,0,0,0,164,1,1,1,2,0,0,0,0,0,0,0,0
2077492,1948455,6979323392,0.0006075866,0.0031053824,0.008047299,0,0.43011266,0.30608597,nan,nan,nan,0.0027007808,0.0,0.0,0.0,0.0,6029322,6029322,3997730,0,0,0,164,1,1,1,2,0,0,0,0,0,0,0,0
2275440,2141453,6979323392,0.0024259514,0.013172311,0.013322441,0,0.42350528,0.26497996,nan,nan,nan,0.0046742344,0.0,0.0,0.0,0.0,6029322,6029322,3997730,0,0,0,164,1,1,1,2,0,0,0,0,0,0,0,0
2473432,2344452,6979323392,0.005782951,0.038992286,0.023819147,0,0.47004372,0.23700985,nan,nan,nan,0.0043985555,0.0,0.0,0.0,0.0,6029322,6029322,3997730,0,0,0,164,1,1,1,2,0,0,0,0,0,0,0,0
2675411,2541451,6979323392,0.008320616,0.06947276,0.039205268,0,0.5141779,0.216423,nan,nan,nan,0.004108458,0.0,0.0,0.0,0.0,6029322,6029322,3997730,0,0,0,164,1,1,1,2,0,0,0,0,0,0,0,0
2873426,2744452,6979323392,0.007875131,0.07467439,0.045916818,0,0.536571,0.20047551,nan,nan,nan,0.0031649368,0.0,0.0,0.0,0.0,6029322,6029322,3997730,0,0,0,164,1,1,1,2,0,0,0,0,0,0,0,0
3073571,2947454,6979323392,0.0051945173,0.06006641,0.042519253,0,0.5336825,0.18768351,nan,nan,nan,0.004072692,0.0,0.0,0.0,0.0,6029322,6029322,3997730,0,0,0,164,1,1,1,2,0,0,0,0,0,0,0,0
3278594,3149452,6979323392,0.0026153869,0.03303707,0.028492548,0,0.52542967,0.17717479,nan,nan,nan,0.0050388677,0.0,0.0,0.0,0.0,6029322,6029322,3997730,0,0,0,164,1,1,1,2,0,0,0,0,0,0,0,0
3477545,3345451,6979323392,0.001014737,0.01012295,0.01253642,0,0.5067957,0.16836867,nan,nan,nan,0.006616741,0.0,0.0,0.0,0.0,6029322,6029322,3997730,0,0,0,164,1,1,1,2,0,0,0,0,0,0,0,0
3673431,3560452,6979323392,0.00067334756,0.014466586,0.007847216,0,0.5210983,0.1574475,nan,nan,nan,0.0056571113,0.0,0.0,0.0,0.0,6029322,6029322,3997730,0,0,0,164,1,1,1,2,0,0,0,0,0,0,0,0
3871650,3737452,7046432256,0.0128670335,0.07522282,0.0368993,0,0.014130924,0.15310673,nan,nan,nan,0.006712983,0.0,0.0,0.0,0.0,6029322,6029322,3997730,0,0,0,164,1,1,1,2,0,0,0,0,0,0,0,0
4079548,3945452,7046432257,0.0071086637,0.05430018,0.03314424,0,0.010725079,0.14708488,nan,nan,nan,0.0034297886,0.0,0.0,0.0,0.0,6029322,6029322,3997730,0,0,0,164,1,1,1,2,0,0,0,0,0,0,0,0
4277925,4153451,7046432257,0.003253271,0.021838902,0.026273284,0,0.012479261,0.13927767,nan,nan,nan,0.0024102377,0.0,0.0,0.0,0.0,6029322,6029322,3997730,0,0,0,164,1,1,1,2,0,0,0,0,0,0,0,0
4477650,4354452,7046432257,0.0036338284,0.0056012333,0.017403908,0,0.012827166,0.13476141,nan,nan,nan,0.005010021,0.0,0.0,0.0,0.0,6029322,6029322,3997730,0,0,0,164,1,1,1,2,0,0,0,0,0,0,0,0
4669616,4544451,7046432257,0.00082815526,0.0053107445,0.012659629,0,0.023687134,0.13273384,nan,nan,nan,0.0027707154,0.0,0.0,0.0,0.0,6029322,6029322,3997730,0,0,0,164,1,1,1,2,0,0,0,0,0,0,0,0
4877473,4746451,7046432257,0.00012602926,0.007384372,0.010138499,0,0.020131776,0.12893672,nan,nan,nan,0.005454002,0.0,0.0,0.0,0.0,6029322,6029322,3997730,0,0,0,164,1,1,1,2,0,0,0,0,0,0,0,0
5070837,4937452,7046432257,9.968423e-05,0.008420816,0.0092202965,0,0.017689276,0.12553127,nan,nan,nan,0.00703822,0.0,0.0,0.0,0.0,6029322,6029322,3997730,0,0,0,164,1,1,1,2,0,0,0,0,0,0,0,0
5272650,5147454,7046432257,2.5907277e-05,0.008553306,0.008645355,0,0.016517155,0.12252102,nan,nan,nan,0.00443767,0.0,0.0,0.0,0.0,6029322,6029322,3997730,0,0,0,164,1,1,1,2,0,0,0,0,0,0,0,0
5479900,5349450,7046432257,2.9511599e-05,0.008032871,0.007868916,0,0.015697118,0.11986522,nan,nan,nan,0.0036968775,0.0,0.0,0.0,0.0,6029322,6029322,3997730,0,0,0,164,1,1,1,2,0,0,0,0,0,0,0,0
5680415,5562452,7046432257,3.693919e-05,0.00753574,0.006903822,0,0.015541166,0.11617138,nan,nan,nan,0.006203398,0.0,0.0,0.0,0.0,6029322,6029322,3997730,0,0,0,164,1,1,1,2,0,0,0,0,0,0,0,0
5866368,5739452,7046432257,6.2661675e-05,0.007062129,0.006425217,0,0.014540349,0.11556115,nan,nan,nan,0.0065885587,0.0,0.0,0.0,0.0,6029322,6029322,3997730,0,0,0,164,1,1,1,2,0,0,0,0,0,0,0,0
6077439,5943452,7046432257,8.986392e-05,0.0067795026,0.005895307,0,0.01395729,0.11384729,nan,nan,nan,0.0075211003,0.0,0.0,0.0,0.0,6029322,6029322,3997730,0,0,0,164,1,1,1,2,0,0,0,0,0,0,0,0
6277473,6146451,7046432257,0.00010716293,0.006470718,0.0053927703,0,0.013690879,0.11242255,nan,nan,nan,0.0057141576,0.0,0.0,0.0,0.0,6029322,6029322,3997730,0,0,0,164,1,1,1,2,0,0,0,0,0,0,0,0
6476576,6354451,7046432257,0.000103225386,0.0060590454,0.0048140762,0,0.013558295,0.110064395,nan,nan,nan,0.008407701,0.0,0.0,0.0,0.0,6029322,6029322,3997730,0,0,0,164,1,1,1,2,0,0,0,0,0,0,0,0
6677406,6545451,7046432257,0.00010847114,0.005603265,0.004376924,0,0.013444606,0.110373594,nan,nan,nan,0.010418277,0.0,0.0,0.0,0.0,6029322,6029322,3997730,0,0,0,164,1,1,1,2,0,0,0,0,0,0,0,0
6879361,6764451,7046432257,8.909579e-05,0.004951994,0.003907009,0,0.013728357,0.10877774,nan,nan,nan,0.012039887,0.0,0.0,0.0,0.0,6029322,6029322,3997730,0,0,0,164,1,1,1,2,0,0,0,0,0,0,0,0
7073310,6943451,7046432257,0.0001015682,0.0045145447,0.0034509148,0,0.0129972175,0.109359376,nan,nan,nan,0.010261093,0.0,0.0,0.0,0.0,6029322,6029322,3997730,0,0,0,164,1,1,1,2,0,0,0,0,0,0,0,0
7272505,7145451,7046432257,9.9518395e-05,0.0041225743,0.0030992886,0,0.012618164,0.10908979,nan,nan,nan,0.010383946,0.0,0.0,0.0,0.0,6029322,6029322,3997730,0,0,0,164,1,1,1,2,0,0,0,0,0,0,0,0
7471416,7336452,7046432257,0.00011194518,0.003954842,0.003026291,0,0.012010375,0.108846135,nan,nan,nan,0.012934948,0.0,0.0,0.0,0.0,6029322,6029322,3997730,0,0,0,164,1,1,1,2,0,0,0,0,0,0,0,0
7679359,7545452,7046432257,0.00011822398,0.0037677377,0.0028349075,0,0.011881034,0.10892877,nan,nan,nan,0.012407665,0.0,0.0,0.0,0.0,6029322,6029322,3997730,0,0,0,164,1,1,1,2,0,0,0,0,0,0,0,0
7872398,7741453,7046432257,0.00012347655,0.003612934,0.0028697387,0,0.011572648,0.108997114,nan,nan,nan,0.014158277,0.0,0.0,0.0,0.0,6029322,6029322,3997730,0,0,0,164,1,1,1,2,0,0,0,0,0,0,0,0
8076306,7949451,7046432257,0.00011727136,0.0032811875,0.0027121815,0,0.011555045,0.10938791,nan,nan,nan,0.013260667,0.0,0.0,0.0,0.0,6029322,6029322,3997730,0,0,0,164,1,1,1,2,0,0,0,0,0,0,0,0
8270360,8139452,7046432257,0.00011438155,0.0030373672,0.0029598784,0,0.011274,0.109695986,nan,nan,nan,0.013264783,0.0,0.0,0.0,0.0,6029322,6029322,3997730,0,0,0,164,1,1,1,2,0,0,0,0,0,0,0,0
8479392,8348451,7046432257,0.000110536865,0.0027696863,0.0029096692,0,0.011243327,0.11030198,nan,nan,nan,0.0154422335,0.0,0.0,0.0,0.0,6029322,6029322,3997730,0,0,0,164,1,1,1,2,0,0,0,0,0,0,0,0
8675350,8542451,7046432257,0.000116389274,0.002731098,0.0032857424,0,0.010971137,0.110780805,nan,nan,nan,0.014919,0.0,0.0,0.0,0.0,6029322,6029322,3997730,0,0,0,164,1,1,1,2,0,0,0,0,0,0,0,0
8866353,8740452,7046432257,0.000117850934,0.0026956054,0.0036083641,0,0.01071081,0.11132031,nan,nan,nan,0.015897447,0.0,0.0,0.0,0.0,6029322,6029322,3997730,0,0,0,164,1,1,1,2,0,0,0,0,0,0,0,0
9073510,8960452,7046432257,0.00010918782,0.0025439113,0.005570013,0,0.010922309,0.11114134,nan,nan,nan,0.01658295,0.0,0.0,0.0,0.0,6029322,6029322,3997730,0,0,0,164,1,1,1,2,0,0,0,0,0,0,0,0
9267394,9135452,7046432257,0.000115591334,0.002703299,0.0045159617,0,0.010510175,0.11297348,nan,nan,nan,0.018001437,0.0,0.0,0.0,0.0,6029322,6029322,3997730,0,0,0,164,1,1,1,2,0,0,0,0,0,0,0,0
9472371,9343452,7046432257,0.00013514212,0.0026935295,0.0043314453,0,0.010413201,0.11382176,nan,nan,nan,0.017434213,0.0,0.0,0.0,0.0,6029322,6029322,3997730,0,0,0,164,1,1,1,2,0,0,0,0,0,0,0,0
9677387,9548451,7046432257,0.00014091522,0.002594985,0.004207016,0,0.010364031,0.1146964,nan,nan,nan,0.018383421,0.0,0.0,0.0,0.0,6029322,6029322,3997730,0,0,0,164,1,1,1,2,0,0,0,0,0,0,0,0
9869365,9741451,7046432257,0.00014143175,0.0026399244,0.0046009948,0,0.010125,0.1153131,nan,nan,nan,0.018738663,0.0,0.0,0.0,0.0,6029322,6029322,3997730,0,0,0,164,1,1,1,2,0,0,0,0,0,0,0,0
10076338,9942452,7046432257,0.00012742529,0.002345303,0.004278,0,0.010113135,0.11618999,nan,nan,nan,0.01845389,0.0,0.0,0.0,0.0,6029322,6029322,3997730,0,0,0,164,1,1,1,2,0,0,0,0,0,0,0,0
10273584,10145451,7046432257,0.000110809735,0.0022224076,0.004250783,0,0.009991609,0.11704748,nan,nan,nan,0.019193178,0.0,0.0,0.0,0.0,6029322,6029322,3997730,0,0,0,164,1,1,1,2,0,0,0,0,0,0,0,0
10465298,10334451,7046432257,4.922718e-05,0.0016465037,0.0050040213,0,0.013611386,0.1175969,nan,nan,nan,0.019360663,0.0,0.0,0.0,0.0,6029322,6029322,3997730,0,0,0,164,1,1,1,2,0,0,0,0,0,0,0,0
10674508,10543455,7046432257,4.4145563e-05,0.0015519462,0.0047830665,0,0.013505591,0.11839527,nan,nan,nan,0.019526843,0.0,0.0,0.0,0.0,6029322,6029322,3997730,0,0,0,164,1,1,1,2,0,0,0,0,0,0,0,0
10876894,10763453,7046432257,9.0383575e-05,0.0022485408,0.006941441,0,0.009856727,0.11797496,nan,nan,nan,0.020170245,0.0,0.0,0.0,0.0,6029322,6029322,3997730,0,0,0,164,1,1,1,2,0,0,0,0,0,0,0,0
11072391,10939452,7046432257,3.773928e-05,0.0016212392,0.0048865336,0,0.01395101,0.12048041,nan,nan,nan,0.020634636,0.0,0.0,0.0,0.0,6029322,6029322,3997730,0,0,0,164,1,1,1,2,0,0,0,0,0,0,0,0
11269420,11141451,7046432257,2.8234717e-05,0.0019193593,0.006115046,0,0.013308566,0.12103442,nan,nan,nan,0.019814176,0.0,0.0,0.0,0.0,6029322,6029322,3997730,0,0,0,164,1,1,1,2,0,0,0,0,0,0,0,0
11476360,11346456,7046432257,2.7723932e-05,0.0016851113,0.005454168,0,0.013036803,0.12157258,nan,nan,nan,0.020455416,0.0,0.0,0.0,0.0,6029322,6029322,3997730,0,0,0,164,1,1,1,2,0,0,0,0,0,0,0,0
11668580,11537451,7046432257,3.0561176e-05,0.0017802478,0.0057111615,0,0.012695458,0.121817544,nan,nan,nan,0.021172818,0.0,0.0,0.0,0.0,6029322,6029322,3997730,0,0,0,164,1,1,1,2,0,0,0,0,0,0,0,0
11876651,11745451,7046432257,3.426695e-05,0.0016239294,0.005130217,0,0.012695576,0.12232207,nan,nan,nan,0.019566502,0.0,0.0,0.0,0.0,6029322,6029322,3997730,0,0,0,164,1,1,1,2,0,0,0,0,0,0,0,0
12068366,11937451,7046432257,4.1479405e-05,0.00033810415,0.001042418,0,0.012500666,0.12332913,nan,nan,nan,0.02058957,0.0,0.0,0.0,0.0,6029322,6029322,3997730,0,0,0,164,1,1,1,2,0,0,0,0,0,0,0,0
12276337,12145451,7046432257,4.3977663e-05,0.0005079739,0.00060106494,0,0.012528886,0.12382542,nan,nan,nan,0.020498678,0.0,0.0,0.0,0.0,6029322,6029322,3997730,0,0,0,164,1,1,1,2,0,0,0,0,0,0,0,0
12467367,12341453,7046432257,4.74571e-05,0.000534406,0.00069131394,0,0.012291701,0.12401758,nan,nan,nan,0.020873897,0.0,0.0,0.0,0.0,6029322,6029322,3997730,0,0,0,164,1,1,1,2,0,0,0,0,0,0,0,0
12675385,12544451,7046432257,4.4412933e-05,0.00051222916,0.00075897557,0,0.012284994,0.12446456,nan,nan,nan,0.021962252,0.0,0.0,0.0,0.0,6029322,6029322,3997730,0,0,0,164,1,1,1,2,0,0,0,0,0,0,0,0
12874379,12739454,7046432257,4.123958e-05,0.0005065205,0.00073440885,0,0.012027932,0.12460699,nan,nan,nan,0.021198442,0.0,0.0,0.0,0.0,6029322,6029322,3997730,0,0,0,164,1,1,1,2,0,0,0,0,0,0,0,0
13070318,12946450,7046432257,3.518795e-05,0.00064439105,0.0007126165,0,0.012032311,0.12503108,nan,nan,nan,0.021320285,0.0,0.0,0.0,0.0,6029322,6029322,3997730,0,0,0,164,1,1,1,2,0,0,0,0,0,0,0,0
13280484,13147452,7046432257,3.1445954e-05,0.0006865589,0.0007600301,0,0.012015301,0.12542436,nan,nan,nan,0.021316871,0.0,0.0,0.0,0.0,6029322,6029322,3997730,0,0,0,164,1,1,1,2,0,0,0,0,0,0,0,0
13472384,13341451,7046432257,2.9917357e-05,0.00077964645,0.00085748173,0,0.011756099,0.12549208,nan,nan,nan,0.021621626,0.0,0.0,0.0,0.0,6029322,6029322,3997730,0,0,0,164,1,1,1,2,0,0,0,0,0,0,0,0
13666508,13535452,7046432257,3.5424615e-05,0.00094531645,0.0010539028,0,0.011510456,0.12554438,nan,nan,nan,0.02187472,0.0,0.0,0.0,0.0,6029322,6029322,3997730,0,0,0,164,1,1,1,2,0,0,0,0,0,0,0,0
13874414,13743452,7046432257,3.832226e-05,0.0010603173,0.0010708201,0,0.011506053,0.12586948,nan,nan,nan,0.021508625,0.0,0.0,0.0,0.0,6029322,6029322,3997730,0,0,0,164,1,1,1,2,0,0,0,0,0,0,0,0
14077509,13960451,7046432257,4.2241707e-05,0.001063761,0.0030143918,0,0.011744993,0.12471366,nan,nan,nan,0.020491837,0.0,0.0,0.0,0.0,6029322,6029322,3997730,0,0,0,164,1,1,1,2,0,0,0,0,0,0,0,0
14278438,14152451,7046432257,3.8452254e-05,0.0010223426,0.001048011,0,0.011570932,0.12671672,nan,nan,nan,0.021473465,0.0,0.0,0.0,0.0,6029322,6029322,3997730,0,0,0,164,1,1,1,2,0,0,0,0,0,0,0,0
14476391,14342451,7046432257,3.7592625e-05,0.00086055143,0.001070014,0,0.011243366,0.12662657,nan,nan,nan,0.021248072,0.0,0.0,0.0,0.0,6029322,6029322,3997730,0,0,0,164,1,1,1,2,0,0,0,0,0,0,0,0
14674512,14545451,7046432257,4.0879248e-05,0.0008212362,0.00084278843,0,0.011209307,0.12681985,nan,nan,nan,0.022288347,0.0,0.0,0.0,0.0,6029322,6029322,3997730,0,0,0,164,1,1,1,2,0,0,0,0,0,0,0,0
14866890,14735452,7046432257,4.3771768e-05,0.00078948063,0.0009923313,0,0.0109668905,0.12669936,nan,nan,nan,0.021873042,0.0,0.0,0.0,0.0,6029322,6029322,3997730,0,0,0,164,1,1,1,2,0,0,0,0,0,0,0,0
15066426,14943452,7046432257,4.8300728e-05,0.0008368156,0.0007224468,0,0.010852808,0.12685803,nan,nan,nan,0.022726413,0.0,0.0,0.0,0.0,6029322,6029322,3997730,0,0,0,164,1,1,1,2,0,0,0,0,0,0,0,0
15274310,15143452,7046432257,5.2499003e-05,0.00089502503,0.000737188,0,0.0107894195,0.12699926,nan,nan,nan,0.021779394,0.0,0.0,0.0,0.0,6029322,6029322,3997730,0,0,0,164,1,1,1,2,0,0,0,0,0,0,0,0
15472413,15341451,7046432257,5.3246968e-05,0.0008922662,0.0007349717,0,0.01055069,0.12686346,nan,nan,nan,0.021438295,0.0,0.0,0.0,0.0,6029322,6029322,3997730,0,0,0,164,1,1,1,2,0,0,0,0,0,0,0,0
15666479,15534452,7046432257,5.0652892e-05,0.00078622333,0.0007956697,0,0.010338696,0.12672663,nan,nan,nan,0.022137333,0.0,0.0,0.0,0.0,6029322,6029322,3997730,0,0,0,164,1,1,1,2,0,0,0,0,0,0,0,0
15877429,15741487,6979323393,1.6681428e-05,0.0012809834,0.0032118345,0,0.0142879095,0.12768547,nan,nan,nan,0.021776356,0.0,0.0,0.0,0.0,6029322,6029322,3997730,0,0,0,164,1,1,1,2,0,0,0,0,0,0,0,0
16077373,15951452,6979323393,1.29409e-06,0.001874137,0.0049545714,0,0.01931958,0.12868516,nan,nan,nan,0.022440512,0.0,0.0,0.0,0.0,6029322,6029322,3997730,0,0,0,164,1,1,1,2,0,0,0,0,0,0,0,0
16280381,16150451,6979323393,1.8529198e-06,0.0020921845,0.0050884024,0,0.02529632,0.12970862,nan,nan,nan,0.023105841,0.0,0.0,0.0,0.0,6029322,6029322,3997730,0,0,0,164,1,1,1,2,0,0,0,0,0,0,0,0
16473660,16342451,6979323393,1.740002e-06,0.0022517934,0.0044241245,0,0.03167198,0.13041599,nan,nan,nan,0.022550445,0.0,0.0,0.0,0.0,6029322,6029322,3997730,0,0,0,164,1,1,1,2,0,0,0,0,0,0,0,0
16665413,16534455,6979323393,1.738781e-06,0.0025132964,0.004092773,0,0.038857173,0.13112096,nan,nan,nan,0.024731815,0.0,0.0,0.0,0.0,6029322,6029322,3997730,0,0,0,164,1,1,1,2,0,0,0,0,0,0,0,0
16865405,16733451,6979323393,6.6097077e-06,0.003912396,0.00431355,0,0.04682378,0.13183868,nan,nan,nan,0.01873845,0.0,0.0,0.0,0.0,6029322,6029322,3997730,0,0,0,164,1,1,1,2,0,0,0,0,0,0,0,0
17069329,16936452,6979323393,1.691051e-05,0.004324102,0.005738271,0,0.056286465,0.13289182,nan,nan,nan,0.015812282,0.0,0.0,0.0,0.0,6029322,6029322,3997730,0,0,0,164,1,1,1,2,0,0,0,0,0,0,0,0
17277520,17146451,6979323393,3.4218905e-05,0.0029058373,0.0069710636,0,0.06660292,0.13392709,nan,nan,nan,0.012933717,0.0,0.0,0.0,0.0,6029322,6029322,3997730,0,0,0,164,1,1,1,2,0,0,0,0,0,0,0,0
17480552,17352452,6979323393,6.350523e-05,0.002783498,0.008204639,0,0.07773239,0.13496676,nan,nan,nan,0.010900736,0.0,0.0,0.0,0.0,6029322,6029322,3997730,0,0,0,164,1,1,1,2,0,0,0,0,0,0,0,0
17674416,17547453,6979323393,0.00011126922,0.0027973484,0.009215457,0,0.088670135,0.13565087,nan,nan,nan,0.010357566,0.0,0.0,0.0,0.0,6029322,6029322,3997730,0,0,0,164,1,1,1,2,0,0,0,0,0,0,0,0
17874363,17739451,6979323393,0.00017238592,0.004992089,0.010562324,0,0.09993253,0.13630329,nan,nan,nan,0.012393439,0.0,0.0,0.0,0.0,6029322,6029322,3997730,0,0,0,164,1,1,1,2,0,0,0,0,0,0,0,0
18074379,17943452,6979323393,0.00023224694,0.0061958316,0.01254511,0,0.112268604,0.13728899,nan,nan,nan,0.014713607,0.0,0.0,0.0,0.0,6029322,6029322,3997730,0,0,0,164,1,1,1,2,0,0,0,0,0,0,0,0
18266387,18135452,6979323393,0.00028912764,0.00786317,0.015780516,0,0.12383847,0.13787048,nan,nan,nan,0.016702393,0.0,0.0,0.0,0.0,6029322,6029322,3997730,0,0,0,164,1,1,1,2,0,0,0,0,0,0,0,0
18474376,18343451,6979323393,0.00033144694,0.009525339,0.018868556,0,0.13642785,0.13878788,nan,nan,nan,0.020213403,0.0,0.0,0.0,0.0,6029322,6029322,3997730,0,0,0,164,1,1,1,2,0,0,0,0,0,0,0,0
18673896,18551452,6979323393,0.00037047704,0.010747652,0.022113116,0,0.14899749,0.13966109,nan,nan,nan,0.01933866,0.0,0.0,0.0,0.0,6029322,6029322,3997730,0,0,0,164,1,1,1,2,0,0,0,0,0,0,0,0
18878374,18757460,6979323393,0.00037107788,0.010300174,0.024274988,0,0.1632624,0.14120561,nan,nan,nan,0.019611375,0.0,0.0,0.0,0.0,6029322,6029322,3997730,0,0,0,164,1,1,1,2,0,0,0,0,0,0,0,0
19076391,18945451,6979323393,0.00044417384,0.0142925335,0.033969525,0,0.17355701,0.14150293,nan,nan,nan,0.016874626,0.0,0.0,0.0,0.0,6029322,6029322,3997730,0,0,0,164,1,1,1,2,0,0,0,0,0,0,0,0
19272427,19164451,6979323393,0.0005180161,0.013496063,0.034803733,0,0.18532537,0.13997558,nan,nan,nan,0.017338118,0.0,0.0,0.0,0.0,6029322,6029322,3997730,0,0,0,164,1,1,1,2,0,0,0,0,0,0,0,0
19474419,19349451,6979323393,0.00056974986,0.017128274,0.043872844,0,0.19510926,0.1430375,nan,nan,nan,0.017220777,0.0,0.0,0.0,0.0,6029322,6029322,3997730,0,0,0,164,1,1,1,2,0,0,0,0,0,0,0,0
19673332,19539451,6979323393,0.0006080366,0.019436158,0.0520326,0,0.20282136,0.14314836,nan,nan,nan,0.018587818,0.0,0.0,0.0,0.0,6029322,6029322,3997730,0,0,0,164,1,1,1,2,0,0,0,0,0,0,0,0
19865332,19734451,6979323393,0.0006810873,0.022942415,0.060148343,0,0.20971857,0.14327568,nan,nan,nan,0.020450491,0.0,0.0,0.0,0.0,6029322,6029322,3997730,0,0,0,164,1,1,1,2,0,0,0,0,0,0,0,0
20068468,19955452,6979323393,0.0006769537,0.021663262,0.060053784,0,0.21780653,0.1441187,nan,nan,nan,0.018896945,0.0,0.0,0.0,0.0,6029322,6029322,3997730,0,0,0,164,1,1,1,2,0,0,0,0,0,0,0,0
20279613,20159452,6979323393,0.00062746246,0.022059456,0.0655468,0,0.22464456,0.14490668,nan,nan,nan,0.019088143,0.0,0.0,0.0,0.0,6029322,6029322,3997730,0,0,0,164,1,1,1,2,0,0,0,0,0,0,0,0
20471389,20341451,6979323393,0.00062976254,0.02371485,0.07602744,0,0.2282047,0.14490059,nan,nan,nan,0.015115834,0.0,0.0,0.0,0.0,6029322,6029322,3997730,0,0,0,164,1,1,1,2,0,0,0,0,0,0,0,0
20679368,20545451,6979323393,0.0005763434,0.021931,0.077484004,0,0.23186688,0.14523429,nan,nan,nan,0.17031148,0.0,0.0,0.0,0.0,6029322,6029322,3997730,0,0,0,164,1,1,1,2,0,0,0,0,0,0,0,0
20872367,20740452,6979323393,0.00054306176,0.022360813,0.09272385,0,0.2338334,0.1452422,nan,nan,nan,0.16065197,0.0,0.0,0.0,0.0,6029322,6029322,3997730,0,0,0,164,1,1,1,2,0,0,0,0,0,0,0,0
21678345,21542451,6979323393,0.00031231652,0.008800376,0.052226678,0,0.23877725,0.14628054,nan,nan,nan,0.12389208,0.0,0.0,0.0,0.0,6029322,6029322,3997730,0,0,0,164,1,1,1,2,0,0,0,0,0,0,0,0
21872411,21752451,6979323393,0.00030142846,0.008331548,0.035752796,0,0.23912188,0.14661303,nan,nan,nan,0.11681328,0.0,0.0,0.0,0.0,6029322,6029322,3997730,0,0,0,164,1,1,1,2,0,0,0,0,0,0,0,0
22077397,21949452,6979323393,0.00030547075,0.010353797,0.034861278,0,0.23909464,0.1469241,nan,nan,nan,0.11106915,0.0,0.0,0.0,0.0,6029322,6029322,3997730,0,0,0,164,1,1,1,2,0,0,0,0,0,0,0,0
22273386,22142451,6979323393,0.00036254444,0.015099892,0.042935893,0,0.23800595,0.14682019,nan,nan,nan,0.10031673,0.0,0.0,0.0,0.0,6029322,6029322,3997730,0,0,0,164,1,1,1,2,0,0,0,0,0,0,0,0
22474369,22350453,6979323393,0.0004594497,0.018560769,0.054421913,0,0.23773336,0.14710768,nan,nan,nan,0.09625371,0.0,0.0,0.0,0.0,6029322,6029322,3997730,0,0,0,164,1,1,1,2,0,0,0,0,0,0,0,0
22680369,22552453,6979323393,0.0005798783,0.021228233,0.06465042,0,0.23739593,0.14737459,nan,nan,nan,0.09185689,0.0,0.0,0.0,0.0,6029322,6029322,3997730,0,0,0,164,1,1,1,2,0,0,0,0,0,0,0,0
22867357,22738452,6979323393,0.00027827456,0.0188178,0.057733335,0,0.25051776,0.1472549,nan,nan,nan,0.08120328,0.0,0.0,0.0,0.0,6029322,6029322,3997730,0,0,0,164,1,1,1,2,0,0,0,0,0,0,0,0
23077563,22962452,6979323393,0.00084926665,0.02497606,0.081161335,0,0.23707348,0.1482018,nan,nan,nan,0.077472806,0.0,0.0,0.0,0.0,6029322,6029322,3997730,0,0,0,164,1,1,1,2,0,0,0,0,0,0,0,0
23271289,23143451,6979323393,0.00039568392,0.018972374,0.060021702,0,0.24984744,0.14795423,nan,nan,nan,0.07168921,0.0,0.0,0.0,0.0,6029322,6029322,3997730,0,0,0,164,1,1,1,2,0,0,0,0,0,0,0,0
23479343,23343456,6979323393,0.00049266923,0.018687068,0.06190921,0,0.24898033,0.14807567,nan,nan,nan,0.06502385,0.0,0.0,0.0,0.0,6029322,6029322,3997730,0,0,0,164,1,1,1,2,0,0,0,0,0,0,0,0
23672382,23540452,6979323393,0.00057002704,0.018440496,0.063511156,0,0.24737331,0.14782639,nan,nan,nan,0.0554994,0.0,0.0,0.0,0.0,6029322,6029322,3997730,0,0,0,164,1,1,1,2,0,0,0,0,0,0,0,0
23865419,23733452,6979323393,0.00064111175,0.019239087,0.065367766,0,0.24594063,0.14760017,nan,nan,nan,0.050131205,0.0,0.0,0.0,0.0,6029322,6029322,3997730,0,0,0,164,1,1,1,2,0,0,0,0,0,0,0,0
24072381,23959451,6979323393,0.00061505515,0.018888542,0.06392275,0,0.24650113,0.14812769,nan,nan,nan,0.04816645,0.0,0.0,0.0,0.0,6029322,6029322,3997730,0,0,0,164,1,1,1,2,0,0,0,0,0,0,0,0
24274316,24146451,6979323393,0.0006506843,0.01766892,0.062103942,0,0.24625297,0.14823653,nan,nan,nan,0.04228902,0.0,0.0,0.0,0.0,6029322,6029322,3997730,0,0,0,164,1,1,1,2,0,0,0,0,0,0,0,0
24472348,24341451,6979323393,0.0007869262,0.019979239,0.078051224,0,0.24521609,0.14795454,nan,nan,nan,0.099746354,0.0,0.0,0.0,0.0,6029322,6029322,3997730,0,0,0,164,1,1,1,2,0,0,0,0,0,0,0,0
24674415,24549451,6979323393,0.0008576849,0.018779574,0.075697534,0,0.24534085,0.14808083,nan,nan,nan,0.038014516,0.0,0.0,0.0,0.0,6029322,6029322,3997730,0,0,0,164,1,1,1,2,0,0,0,0,0,0,0,0
24878540,24747452,6979323393,0.00089302595,0.017121755,0.07123619,0,0.2456369,0.14819048,nan,nan,nan,0.026707415,0.0,0.0,0.0,0.0,6029322,6029322,3997730,0,0,0,164,1,1,1,2,0,0,0,0,0,0,0,0
25074501,24942452,6979323393,0.00096906925,0.016452786,0.06661753,0,0.24520633,0.14793128,nan,nan,nan,0.043952886,0.0,0.0,0.0,0.0,6029322,6029322,3997730,0,0,0,164,1,1,1,2,0,0,0,0,0,0,0,0
25275324,25143452,6979323393,0.0009924473,0.013866007,0.048483353,0,0.24593908,0.14808992,nan,nan,nan,0.04236222,0.0,0.0,0.0,0.0,6029322,6029322,3997730,0,0,0,164,1,1,1,2,0,0,0,0,0,0,0,0
25467538,25336452,6979323393,0.0009856863,0.013625073,0.04325711,0,0.24583551,0.14785792,nan,nan,nan,0.033291347,0.0,0.0,0.0,0.0,6029322,6029322,3997730,0,0,0,164,1,1,1,2,0,0,0,0,0,0,0,0
25671412,25543452,6979323393,0.0009717011,0.0121796215,0.037065506,0,0.24693099,0.14799516,nan,nan,nan,0.032941315,0.0,0.0,0.0,0.0,6029322,6029322,3997730,0,0,0,164,1,1,1,2,0,0,0,0,0,0,0,0
25880301,25751452,6979323393,0.0009424707,0.010917403,0.03269065,0,0.24821071,0.14814098,nan,nan,nan,0.025482157,0.0,0.0,0.0,0.0,6029322,6029322,3997730,0,0,0,164,1,1,1,2,0,0,0,0,0,0,0,0
26075482,25954451,6979323393,0.0009200861,0.009694206,0.028418826,0,0.2497091,0.14832382,nan,nan,nan,0.02297065,0.0,0.0,0.0,0.0,6029322,6029322,3997730,0,0,0,164,1,1,1,2,0,0,0,0,0,0,0,0
26275483,26144451,6979323393,0.00084626337,0.010912149,0.03009711,0,0.25099295,0.14843276,nan,nan,nan,0.0231274,0.0,0.0,0.0,0.0,6029322,6029322,3997730,0,0,0,164,1,1,1,2,0,0,0,0,0,0,0,0
26468647,26339452,6979323393,0.0008255649,0.010131349,0.027951205,0,0.25130093,0.14815195,nan,nan,nan,0.020672735,0.0,0.0,0.0,0.0,6029322,6029322,3997730,0,0,0,164,1,1,1,2,0,0,0,0,0,0,0,0
26678345,26559452,6979323393,0.0007607389,0.008259502,0.028209664,0,0.25395885,0.14859465,nan,nan,nan,0.021030214,0.0,0.0,0.0,0.0,6029322,6029322,3997730,0,0,0,164,1,1,1,2,0,0,0,0,0,0,0,0
26877394,26755452,6979323393,0.0007368363,0.0076372987,0.021538572,0,0.2553959,0.14867751,nan,nan,nan,0.022724308,0.0,0.0,0.0,0.0,6029322,6029322,3997730,0,0,0,164,1,1,1,2,0,0,0,0,0,0,0,0
27068383,26940452,6979323393,0.00076067727,0.0076663075,0.019742273,0,0.2568116,0.14872985,nan,nan,nan,0.01625551,0.0,0.0,0.0,0.0,6029322,6029322,3997730,0,0,0,164,1,1,1,2,0,0,0,0,0,0,0,0
27274846,27140451,7046432257,0.001975803,0.025397412,0.04915392,0,0.24550608,0.14719799,nan,nan,nan,0.016978199,0.0,0.0,0.0,0.0,6029322,6029322,3997730,0,0,0,164,1,1,1,2,0,0,0,0,0,0,0,0
27466371,27335452,7046432257,0.0041836323,0.07718894,0.21639119,0,0.014550812,0.1468406,nan,nan,nan,0.022806853,0.0,0.0,0.0,0.0,6029322,6029322,3997730,0,0,0,164,1,1,1,2,0,0,0,0,0,0,0,0
27669415,27544451,7046432257,0.0051219794,0.042253926,0.06867411,0,0.012982132,0.14549105,nan,nan,nan,0.021339193,0.0,0.0,0.0,0.0,6029322,6029322,3997730,0,0,0,164,1,1,1,2,0,0,0,0,0,0,0,0
27877418,27746451,7046432257,0.0048831627,0.060405824,0.03980827,0,0.012874607,0.14425726,nan,nan,nan,0.02083075,0.0,0.0,0.0,0.0,6029322,6029322,3997730,0,0,0,164,1,1,1,2,0,0,0,0,0,0,0,0
28079483,27947453,7046432257,0.0031844673,0.05735713,0.06360627,0,0.01234381,0.1431259,nan,nan,nan,0.020322973,0.0,0.0,0.0,0.0,6029322,6029322,3997730,0,0,0,164,1,1,1,2,0,0,0,0,0,0,0,0
28269476,28142451,6979323393,0.0006627859,0.031212324,0.06533714,0,0.018004304,0.14174348,nan,nan,nan,0.027464911,0.0,0.0,0.0,0.0,6029322,6029322,3997730,0,0,0,164,1,1,1,2,0,0,0,0,0,0,0,0
28477657,28346451,6979323393,0.00016526159,0.019080117,0.06250727,0,0.025257908,0.1418793,nan,nan,nan,0.018330287,0.0,0.0,0.0,0.0,6029322,6029322,3997730,0,0,0,164,1,1,1,2,0,0,0,0,0,0,0,0
28677505,28542451,6979323393,9.510019e-05,0.015862508,0.05865123,0,0.032950524,0.14175552,nan,nan,nan,0.018414088,0.0,0.0,0.0,0.0,6029322,6029322,3997730,0,0,0,164,1,1,1,2,0,0,0,0,0,0,0,0
28880425,28752451,6979323393,1.6066748e-05,0.014982694,0.054449275,0,0.0420389,0.1420128,nan,nan,nan,0.0126338005,0.0,0.0,0.0,0.0,6029322,6029322,3997730,0,0,0,164,1,1,1,2,0,0,0,0,0,0,0,0
29068465,28940451,6979323393,4.379587e-05,0.014037683,0.04936208,0,0.05130262,0.1419923,nan,nan,nan,0.019502936,0.0,0.0,0.0,0.0,6029322,6029322,3997730,0,0,0,164,1,1,1,2,0,0,0,0,0,0,0,0
29272573,29144454,6979323393,6.108844e-05,0.013150609,0.04504861,0,0.061881214,0.14227289,nan,nan,nan,0.016225174,0.0,0.0,0.0,0.0,6029322,6029322,3997730,0,0,0,164,1,1,1,2,0,0,0,0,0,0,0,0
29478586,29349451,6979323393,9.1944166e-05,0.012267497,0.04169087,0,0.07318663,0.14258978,nan,nan,nan,0.013369845,0.0,0.0,0.0,0.0,6029322,6029322,3997730,0,0,0,164,1,1,1,2,0,0,0,0,0,0,0,0
29672336,29539453,6979323393,4.936774e-05,0.011101747,0.037348635,0,0.08493502,0.14259128,nan,nan,nan,0.014788602,0.0,0.0,0.0,0.0,6029322,6029322,3997730,0,0,0,164,1,1,1,2,0,0,0,0,0,0,0,0
29880430,29749451,6979323393,7.27449e-05,0.0103461575,0.034710146,0,0.09770671,0.14294489,nan,nan,nan,0.013276988,0.0,0.0,0.0,0.0,6029322,6029322,3997730,0,0,0,164,1,1,1,2,0,0,0,0,0,0,0,0
30080491,29957451,6979323393,0.000105680534,0.009647938,0.032186646,0,0.11106031,0.1433341,nan,nan,nan,0.013268495,0.0,0.0,0.0,0.0,6029322,6029322,3997730,0,0,0,164,1,1,1,2,0,0,0,0,0,0,0,0
30274512,30148452,6979323393,0.00015795763,0.009067693,0.030195126,0,0.12382118,0.14336811,nan,nan,nan,0.015398895,0.0,0.0,0.0,0.0,6029322,6029322,3997730,0,0,0,164,1,1,1,2,0,0,0,0,0,0,0,0
30478382,30347452,6979323393,0.00022492676,0.008974454,0.029088635,0,0.1376096,0.1437263,nan,nan,nan,0.010100239,0.0,0.0,0.0,0.0,6029322,6029322,3997730,0,0,0,164,1,1,1,2,0,0,0,0,0,0,0,0
30668346,30541451,6979323521,0.00031648838,0.009048667,0.031038212,0,0.15038106,0.14374773,nan,nan,nan,0.03736932,0.0,0.0,0.0,0.0,6029322,6029322,3997730,0,0,0,228,1,1,1,2,0,0,0,0,0,0,0,0
30872359,30745451,6979323521,3.646705e-05,0.006868969,0.024591306,0,0.1678847,0.14411491,nan,nan,nan,0.018013913,0.0,0.05670465,0.0,0.0,6029322,6029322,3997730,0,0,0,228,1,1,1,2,0,0,0,0,0,0,0,0
31080363,30949476,6979323521,2.0797443e-05,0.0054334677,0.018133795,0,0.18652833,0.14448713,nan,nan,nan,0.021893203,0.0,0.032476697,0.0,0.0,6029322,6029322,3997730,0,0,0,228,1,1,1,2,0,0,0,0,0,0,0,0
31274348,31144451,6979323521,4.953076e-06,0.0047643576,0.015239179,0,0.20506509,0.14452103,nan,nan,nan,0.02050028,0.0,0.01592215,0.0,0.0,6029322,6029322,3997730,0,0,0,228,1,1,1,2,0,0,0,0,0,0,0,0
31476361,31351452,6979323521,5.3478207e-06,0.0038534508,0.0130251115,0,0.22602664,0.14490917,nan,nan,nan,0.017969523,0.0,0.0064191055,0.0,0.0,6029322,6029322,3997730,0,0,0,228,1,1,1,2,0,0,0,0,0,0,0,0
31678325,31553451,6979323521,6.491001e-06,0.0040600845,0.011451058,0,0.24816985,0.14529362,nan,nan,nan,0.018376691,0.0,0.003661197,0.0,0.0,6029322,6029322,3997730,0,0,0,228,1,1,1,2,0,0,0,0,0,0,0,0
31868369,31742452,6979323521,7.038981e-06,0.0043753306,0.010586268,0,0.26995212,0.14529702,nan,nan,nan,0.018406924,0.0,0.0024839977,0.0,0.0,6029322,6029322,3997730,0,0,0,228,1,1,1,2,0,0,0,0,0,0,0,0
32475520,32344455,6979323521,1.13468905e-05,0.0038204647,0.008872114,0,0.34516582,0.14595202,nan,nan,nan,0.020919962,0.0,0.0035774645,0.0,0.0,6029322,6029322,3997730,0,0,0,228,1,1,1,2,0,0,0,0,0,0,0,0
32670480,32540452,6979323521,1.4544333e-05,0.0034528435,0.00818694,0,0.37155387,0.14592052,nan,nan,nan,0.02050678,0.0,0.000148034,0.0,0.0,6029322,6029322,3997730,0,0,0,228,1,1,1,2,0,0,0,0,0,0,0,0
32878485,32760452,6979323521,1.5774216e-05,0.002845219,0.007313557,0,0.40302563,0.14661628,nan,nan,nan,0.021828987,0.0,0.0009686142,0.0,0.0,6029322,6029322,3997730,0,0,0,228,1,1,1,2,0,0,0,0,0,0,0,0
33075359,32955452,6979323521,2.0403462e-05,0.0025144115,0.006677789,0,0.43384135,0.14691865,nan,nan,nan,0.020659883,0.0,0.0012791096,0.0,0.0,6029322,6029322,3997730,0,0,0,228,1,1,1,2,0,0,0,0,0,0,0,0
33265350,33142451,6979323521,2.5386333e-05,0.0018282129,0.006387885,0,0.46391067,0.14680074,nan,nan,nan,0.021110728,0.0,0.0010417463,0.0,0.0,6029322,6029322,3997730,0,0,0,228,1,1,1,2,0,0,0,0,0,0,0,0
33475366,33338451,6979323521,3.1214684e-05,0.0013631858,0.006237208,0,0.4973218,0.14701718,nan,nan,nan,0.022570224,0.0,0.0024853987,0.0,0.0,6029322,6029322,3997730,0,0,0,228,1,1,1,2,0,0,0,0,0,0,0,0
33680380,33549478,6979323521,3.6916477e-05,0.0010979107,0.006167624,0,0.53217196,0.1472183,nan,nan,nan,0.023499673,0.0,0.004650738,0.0,0.0,6029322,6029322,3997730,0,0,0,228,1,1,1,2,0,0,0,0,0,0,0,0
33879351,33750450,6979323521,4.3452226e-05,0.0014541614,0.006130348,0,0.5685683,0.14744836,nan,nan,nan,0.021959566,0.0,0.0008540181,0.0,0.0,6029322,6029322,3997730,0,0,0,228,1,1,1,2,0,0,0,0,0,0,0,0
34071350,33941451,6979323521,5.2146814e-05,0.0013221855,0.006780154,0,0.6039019,0.14728875,nan,nan,nan,0.02293366,0.0,0.0010512951,0.0,0.0,6029322,6029322,3997730,0,0,0,228,1,1,1,2,0,0,0,0,0,0,0,0
34265352,34133452,6979323521,6.193186e-05,0.0012241475,0.0074605998,0,0.64051974,0.14711247,nan,nan,nan,0.020263283,0.0,0.002653484,0.0,0.0,6029322,6029322,3997730,0,0,0,228,1,1,1,2,0,0,0,0,0,0,0,0
34480406,34359452,6979323521,6.155745e-05,0.001840024,0.008604744,0,0.6838247,0.14767142,nan,nan,nan,0.020396449,0.0,0.036758907,0.0,0.0,6029322,6029322,3997730,0,0,0,228,1,1,1,2,0,0,0,0,0,0,0,0
34675357,34548452,6979323521,7.66292e-05,0.002334124,0.009141184,0,0.72596455,0.14785616,nan,nan,nan,0.01725789,0.0,0.0025344905,0.0,0.0,6029322,6029322,3997730,0,0,0,228,1,1,1,2,0,0,0,0,0,0,0,0
34873490,34739452,6979323521,9.270546e-05,0.002885851,0.010601139,0,0.76656204,0.1476135,nan,nan,nan,0.01730163,0.0,0.0029908316,0.0,0.0,6029322,6029322,3997730,0,0,0,228,1,1,1,2,0,0,0,0,0,0,0,0
35077433,34947452,6979323521,0.00010882267,0.0029363951,0.012096568,0,0.8114693,0.1477632,nan,nan,nan,0.023627251,0.0,0.012530049,0.0,0.0,6029322,6029322,3997730,0,0,0,228,1,1,1,2,0,0,0,0,0,0,0,0
35271441,35140451,6979323521,4.897353e-05,0.001099182,0.006738653,0,0.8565724,0.14755481,nan,nan,nan,0.012478974,0.0,0.017926658,0.0,0.0,6029322,6029322,3997730,0,0,0,228,1,1,1,2,0,0,0,0,0,0,0,0
35475359,35344452,6979323521,6.205379e-05,0.0011083847,0.0057254625,0,0.9048335,0.14772575,nan,nan,nan,0.023527663,0.0,0.015432532,0.0,0.0,6029322,6029322,3997730,0,0,0,228,1,1,1,2,0,0,0,0,0,0,0,0
35674433,35539452,6979323521,7.917337e-05,0.002072998,0.0076522245,0,0.9513578,0.14752543,nan,nan,nan,0.023465674,0.0,0.008425324,0.0,0.0,6029322,6029322,3997730,0,0,0,228,1,1,1,2,0,0,0,0,0,0,0,0
35874542,35750451,6979323521,5.410982e-05,0.004223505,0.021203872,0,1.0060878,0.14805546,nan,nan,nan,0.057704374,0.0,0.082677014,0.0,0.0,6029322,6029322,3997730,0,0,0,228,1,1,1,2,0,0,0,0,0,0,0,0
36067500,35935453,6979323521,9.557587e-05,0.0026106646,0.010622924,0,1.0549089,0.14780521,nan,nan,nan,0.027262043,0.0,0.040558256,0.0,0.0,6029322,6029322,3997730,0,0,0,228,1,1,1,2,0,0,0,0,0,0,0,0
36276355,36145450,6979323521,0.00012389048,0.0023436425,0.011318591,0,1.1085964,0.14791524,nan,nan,nan,0.025776476,0.0,0.024794966,0.0,0.0,6029322,6029322,3997730,0,0,0,228,1,1,1,2,0,0,0,0,0,0,0,0
36477361,36353451,6979323521,0.00014326247,0.002555429,0.014136998,0,1.1639699,0.14805534,nan,nan,nan,0.029016098,0.0,0.021004343,0.0,0.0,6029322,6029322,3997730,0,0,0,228,1,1,1,2,0,0,0,0,0,0,0,0
36671437,36541451,6979323521,0.00017370333,0.004105219,0.019126259,0,1.216749,0.14784682,nan,nan,nan,0.033731602,0.0,0.017924206,0.0,0.0,6029322,6029322,3997730,0,0,0,228,1,1,1,2,0,0,0,0,0,0,0,0
36879469,36748451,6979323521,0.0001943313,0.0049228338,0.021534558,0,1.2744188,0.147987,nan,nan,nan,0.030243527,0.0,0.0059862006,0.0,0.0,6029322,6029322,3997730,0,0,0,228,1,1,1,2,0,0,0,0,0,0,0,0
37073504,36940452,6979323521,0.0002260108,0.005763109,0.025455484,0,1.3293741,0.14777695,nan,nan,nan,0.029231478,0.0,0.0026584314,0.0,0.0,6029322,6029322,3997730,0,0,0,228,1,1,1,2,0,0,0,0,0,0,0,0
37271411,37145479,6979323521,0.00024653674,0.0062438226,0.02786676,0,1.389438,0.14793709,nan,nan,nan,0.028177582,0.0,0.0011872211,0.0,0.0,6029322,6029322,3997730,0,0,0,228,1,1,1,2,0,0,0,0,0,0,0,0
37479359,37348451,6979323521,0.00026888712,0.0070480183,0.032505516,0,1.4503676,0.14807715,nan,nan,nan,0.02978018,0.0,0.001482743,0.0,0.0,6029322,6029322,3997730,0,0,0,228,1,1,1,2,0,0,0,0,0,0,0,0
37878346,37746451,6979323521,0.0003200235,0.008448005,0.04118462,0,1.5707121,0.14801192,nan,nan,nan,0.042124458,0.0,0.098329216,0.0,0.0,6029322,6029322,3997730,0,0,0,228,1,1,1,2,0,0,0,0,0,0,0,0
38072568,37941452,6979323521,0.0003689657,0.010278672,0.05052869,0,1.6294268,0.14778745,nan,nan,nan,0.034993608,0.0,0.026751965,0.0,0.0,6029322,6029322,3997730,0,0,0,228,1,1,1,2,0,0,0,0,0,0,0,0
38277317,38159464,6979323521,0.00039708626,0.010614968,0.05204542,0,1.6982498,0.14832985,nan,nan,nan,0.041844122,0.0,0.027259955,0.0,0.0,6029322,6029322,3997730,0,0,0,228,1,1,1,2,0,0,0,0,0,0,0,0
38475474,38344452,6979323521,0.0004464176,0.015652854,0.06895928,0,1.7574904,0.14808494,nan,nan,nan,0.03656456,0.0,0.0077160127,0.0,0.0,6029322,6029322,3997730,0,0,0,228,1,1,1,2,0,0,0,0,0,0,0,0
38670565,38555452,6979323521,0.00046584115,0.015827069,0.06965849,0,1.8266132,0.14856507,nan,nan,nan,0.036358185,0.0,0.0048987945,0.0,0.0,6029322,6029322,3997730,0,0,0,228,1,1,1,2,0,0,0,0,0,0,0,0
38865321,38735452,6979323521,0.0005152278,0.019515732,0.094273746,0,1.8850523,0.14825921,nan,nan,nan,0.04067371,0.0,0.0051869936,0.0,0.0,6029322,6029322,3997730,0,0,0,228,1,1,1,2,0,0,0,0,0,0,0,0
39067557,38938451,6979323521,0.0005813584,0.020301357,0.10228522,0,1.9482133,0.14827897,nan,nan,nan,0.038957912,0.0,0.0025511978,0.0,0.0,6029322,6029322,3997730,0,0,0,228,1,1,1,2,0,0,0,0,0,0,0,0
39277519,39152459,6979323521,0.00061824336,0.019747203,0.10196627,0,2.016438,0.1486834,nan,nan,nan,0.037048772,0.0,0.0012451262,0.0,0.0,6029322,6029322,3997730,0,0,0,228,1,1,1,2,0,0,0,0,0,0,0,0
39476426,39347452,6979323521,0.0006482814,0.022555795,0.11880496,0,2.0786536,0.14868648,nan,nan,nan,0.036856372,0.0,0.0009333747,0.0,0.0,6029322,6029322,3997730,0,0,0,228,1,1,1,2,0,0,0,0,0,0,0,0
39680440,39550451,6979323521,0.0006920395,0.025989963,0.13678311,0,2.1398852,0.14867324,nan,nan,nan,0.034746002,0.0,0.0042455015,0.0,0.0,6029322,6029322,3997730,0,0,0,228,1,1,1,2,0,0,0,0,0,0,0,0
39872428,39741451,6979323521,0.000791882,0.029899277,0.15779455,0,2.1951966,0.14832938,nan,nan,nan,0.035579953,0.0,0.0031616986,0.0,0.0,6029322,6029322,3997730,0,0,0,228,1,1,1,2,0,0,0,0,0,0,0,0
40080366,39959452,6979323521,0.00080889824,0.0285369,0.15783074,0,2.2607071,0.14872804,nan,nan,nan,0.033557534,0.0,0.0044946703,0.0,0.0,6029322,6029322,3997730,0,0,0,228,1,1,1,2,0,0,0,0,0,0,0,0
40274516,40141451,6979323521,0.000877855,0.035325654,0.19220759,0,2.3138015,0.14840382,nan,nan,nan,0.039411444,0.0,0.004861899,0.0,0.0,6029322,6029322,3997730,0,0,0,228,1,1,1,2,0,0,0,0,0,0,0,0
40480778,40351451,6979323521,0.0009338933,0.037903022,0.20400794,0,2.371353,0.14842668,nan,nan,nan,0.03822993,0.0,0.0030836782,0.0,0.0,6029322,6029322,3997730,0,0,0,228,1,1,1,2,0,0,0,0,0,0,0,0
40672465,40541451,6979323521,0.00045094485,0.007495601,0.040458255,0,2.458639,0.14813031,nan,nan,nan,0.027761322,0.0,0.012259887,0.0,0.0,6029322,6029322,3997730,0,0,0,228,1,1,1,2,0,0,0,0,0,0,0,0
40870487,40739451,6979323521,0.0005036194,0.0079510575,0.046234965,0,2.5107338,0.14785467,nan,nan,nan,0.037083633,0.0,0.0018973518,0.0,0.0,6029322,6029322,3997730,0,0,0,228,1,1,1,2,0,0,0,0,0,0,0,0
41072370,40940451,6979323521,0.00052975875,0.00699482,0.045828186,0,2.5675662,0.14796914,nan,nan,nan,0.036927927,0.0,0.0014521326,0.0,0.0,6029322,6029322,3997730,0,0,0,228,1,1,1,2,0,0,0,0,0,0,0,0
41265349,41136451,6979323521,0.00056543126,0.007839994,0.05350518,0,2.6166298,0.14771421,nan,nan,nan,0.036233887,0.0,0.0011443429,0.0,0.0,6029322,6029322,3997730,0,0,0,228,1,1,1,2,0,0,0,0,0,0,0,0
41473294,41342451,6979323521,0.0005756152,0.0069662156,0.04987559,0,2.6703718,0.1478635,nan,nan,nan,0.037698027,0.0,0.00050030195,0.0,0.0,6029322,6029322,3997730,0,0,0,228,1,1,1,2,0,0,0,0,0,0,0,0
41668291,41540451,6979323521,0.00063325383,0.008491956,0.05833464,0,2.716266,0.14766367,nan,nan,nan,0.035552546,0.0,0.000332531,0.0,0.0,6029322,6029322,3997730,0,0,0,228,1,1,1,2,0,0,0,0,0,0,0,0
41871436,41740452,6979323521,0.0006427397,0.008412745,0.059310753,0,2.7666295,0.14784114,nan,nan,nan,0.031431578,0.0,0.004475565,0.0,0.0,6029322,6029322,3997730,0,0,0,228,1,1,1,2,0,0,0,0,0,0,0,0
42071424,41948451,6979323521,0.0006260778,0.0078542745,0.059433848,0,2.8147314,0.14799243,nan,nan,nan,0.030798748,0.0,0.0076038456,0.0,0.0,6029322,6029322,3997730,0,0,0,228,1,1,1,2,0,0,0,0,0,0,0,0
42280509,42149451,6979323521,0.0006261587,0.007893191,0.058778994,0,2.8605874,0.14813027,nan,nan,nan,0.0048330585,0.0,0.04011122,0.0,0.0,6029322,6029322,3997730,0,0,0,228,1,1,1,2,0,0,0,0,0,0,0,0
42472392,42337451,6979323521,0.00067326555,0.008251697,0.060740296,0,2.8980422,0.14789215,nan,nan,nan,0.008573026,0.0,0.021435017,0.0,0.0,6029322,6029322,3997730,0,0,0,228,1,1,1,2,0,0,0,0,0,0,0,0
42679479,42555452,6979323521,0.00060164504,0.0058004023,0.046391007,0,2.946026,0.1483684,nan,nan,nan,0.02564046,0.0,0.054457746,0.0,0.0,6029322,6029322,3997730,0,0,0,228,1,1,1,2,0,0,0,0,0,0,0,0
42878426,42755455,6979323521,0.00069232716,0.0066385292,0.0550989,0,2.9850242,0.14848576,nan,nan,nan,0.036831945,0.0,0.036978964,0.0,0.0,6029322,6029322,3997730,0,0,0,228,1,1,1,2,0,0,0,0,0,0,0,0
43077324,42943452,6979323521,0.00074322056,0.011481018,0.08528016,0,3.0145051,0.1481878,nan,nan,nan,0.032107726,0.0,0.017676873,0.0,0.0,6029322,6029322,3997730,0,0,0,228,1,1,1,2,0,0,0,0,0,0,0,0
43877430,43748452,6979323521,0.0006687652,0.010558393,0.07084667,0,3.133624,0.14812304,nan,nan,nan,0.067461304,0.0,0.022561414,0.0,0.0,6029322,6029322,3997730,0,0,0,228,1,1,1,2,0,0,0,0,0,0,0,0
44077424,43958452,6979322497,0.0006970881,0.006629378,0.05647994,0,3.1667058,0.15442543,nan,nan,nan,0.0054385746,0.0,0.022561414,0.0,0.0,6029322,6029322,3997730,0,0,0,228,1,1,1,2,0,0,0,0,0,0,0,0
44279397,44169452,6979322497,0.0006442057,0.007082855,0.06053388,0,3.2023442,0.16127135,nan,nan,nan,0.007040636,0.0,0.022561414,0.0,0.0,6029322,6029322,3997730,0,0,0,228,1,1,1,2,0,0,0,0,0,0,0,0
44472365,44341451,6979322497,0.0006839279,0.018003765,0.13064988,0,3.2202876,0.16747113,nan,nan,nan,0.012791567,0.0,0.022561414,0.0,0.0,6029322,6029322,3997730,0,0,0,228,1,1,1,2,0,0,0,0,0,0,0,0
44678369,44545451,6979322497,0.00070557586,0.015456042,0.120037496,0,3.2355702,0.17381252,nan,nan,nan,0.0050100903,0.0,0.022561414,0.0,0.0,6029322,6029322,3997730,0,0,0,228,1,1,1,2,0,0,0,0,0,0,0,0
44869495,44738451,6979322497,0.00076563196,0.016477697,0.12760451,0,3.2438035,0.17994526,nan,nan,nan,0.007985288,0.0,0.022561414,0.0,0.0,6029322,6029322,3997730,0,0,0,228,1,1,1,2,0,0,0,0,0,0,0,0
45077313,44946451,6979322497,0.0007452827,0.0129541075,0.104356736,0,3.2580242,0.1867001,nan,nan,nan,0.0046858997,0.0,0.022561414,0.0,0.0,6029322,6029322,3997730,0,0,0,228,1,1,1,2,0,0,0,0,0,0,0,0
45273348,45150452,6979323521,0.00071839377,0.0105121415,0.09035859,0,3.2715065,0.75285035,nan,nan,nan,0.07454029,0.0,0.07688796,0.0,0.0,6029322,6029322,3997730,0,0,0,228,1,1,1,3,0,0,0,0,0,0,0,0
45468416,45336451,6979323521,0.00071566243,0.0152556505,0.121498145,0,3.2769341,0.43427208,nan,nan,nan,0.008203395,0.0,0.01966296,0.0,0.0,6029322,6029322,3997730,0,0,0,228,1,1,1,3,0,0,0,0,0,0,0,0
45675338,45546452,6979323521,0.0007106902,0.013311813,0.10791475,0,3.287741,0.33650038,nan,nan,nan,0.008986862,0.0,0.0048907166,0.0,0.0,6029322,6029322,3997730,0,0,0,228,1,1,1,3,0,0,0,0,0,0,0,0
45876330,45762451,6979323521,0.0006616111,0.008660098,0.07730975,0,3.304299,0.28469265,nan,nan,nan,0.0034932797,0.0,0.0076864334,0.0,0.0,6029322,6029322,3997730,0,0,0,228,1,1,1,3,0,0,0,0,0,0,0,0
46080354,45953450,6979323521,0.0006201971,0.011613495,0.09647625,0,3.3123667,0.2515523,nan,nan,nan,0.0028603398,0.0,0.0096282335,0.0,0.0,6029322,6029322,3997730,0,0,0,228,1,1,1,3,0,0,0,0,0,0,0,0
46279498,46171454,6979323521,0.0005971563,0.005964976,0.061844107,0,3.3258276,0.22830042,nan,nan,nan,0.026965367,0.0,0.0420156,0.0,0.0,6029322,6029322,3997730,0,0,0,228,1,1,1,3,0,0,0,0,0,0,0,0
46480425,46357452,6979323521,0.0005832371,0.011543396,0.09878514,0,3.3308654,0.21101658,nan,nan,nan,0.028151209,0.0,0.025616689,0.0,0.0,6029322,6029322,3997730,0,0,0,228,1,1,1,3,0,0,0,0,0,0,0,0
46678602,46544451,6979323521,0.00061253546,0.012749098,0.10897612,0,3.3284247,0.19754575,nan,nan,nan,0.033259694,0.0,0.027717602,0.0,0.0,6029322,6029322,3997730,0,0,0,228,1,1,1,3,0,0,0,0,0,0,0,0
46871368,46739452,6979323521,0.0002862203,0.020784648,0.12311139,0,3.4223342,0.18689014,nan,nan,nan,0.030035868,0.0,0.012472453,0.0,0.0,6029322,6029322,3997730,0,0,0,228,1,1,1,3,0,0,0,0,0,0,0,0
47065351,46948451,6979323521,0.00027752022,0.022532215,0.13425255,0,3.4264376,0.1785109,nan,nan,nan,0.03491754,0.0,0.014167284,0.0,0.0,6029322,6029322,3997730,0,0,0,228,1,1,1,3,0,0,0,0,0,0,0,0
47273309,47142451,6979323521,0.0002666553,0.020567626,0.12197583,0,3.429716,0.1718088,nan,nan,nan,0.035198692,0.0,0.009684656,0.0,0.0,6029322,6029322,3997730,0,0,0,228,1,1,1,3,0,0,0,0,0,0,0,0
47470435,47342451,6979323521,0.00027213222,0.020467794,0.12052248,0,3.4320574,0.1664596,nan,nan,nan,0.035535898,0.0,0.0021026772,0.0,0.0,6029322,6029322,3997730,0,0,0,228,1,1,1,3,0,0,0,0,0,0,0,0
47672346,47547454,6979323521,0.0002781177,0.019886663,0.11774367,0,3.4334455,0.16222584,nan,nan,nan,0.033746514,0.0,0.004322167,0.0,0.0,6029322,6029322,3997730,0,0,0,228,1,1,1,3,0,0,0,0,0,0,0,0
47869362,47747452,6979323521,0.00029225883,0.018566689,0.11001701,0,3.4340487,0.15892397,nan,nan,nan,0.038032636,0.0,0.0042947317,0.0,0.0,6029322,6029322,3997730,0,0,0,228,1,1,1,3,0,0,0,0,0,0,0,0
48068368,47946453,6979323521,0.00028661735,0.018278101,0.108814076,0,3.4344745,0.15642466,nan,nan,nan,0.03516532,0.0,0.0033467396,0.0,0.0,6029322,6029322,3997730,0,0,0,228,1,1,1,3,0,0,0,0,0,0,0,0
48272494,48145451,6979323521,0.000254635,0.018055007,0.10841164,0,3.433941,0.15453506,nan,nan,nan,0.047327712,0.0,0.10370515,0.0,0.0,6029322,6029322,3997730,0,0,0,228,1,1,1,3,0,0,0,0,0,0,0,0
48480413,48349452,6979323521,0.00025259377,0.018535553,0.11202445,0,3.4333427,0.1532361,nan,nan,nan,0.052159403,0.0,0.09999857,0.0,0.0,6029322,6029322,3997730,0,0,0,228,1,1,1,3,0,0,0,0,0,0,0,0
48677424,48544452,6979323521,0.00029042608,0.01761959,0.10494863,0,3.4267452,0.15210079,nan,nan,nan,0.051172372,0.0,0.06338173,0.0,0.0,6029322,6029322,3997730,0,0,0,228,1,1,1,3,0,0,0,0,0,0,0,0
48869349,48741452,6979323521,0.00028901114,0.01764766,0.10531982,0,3.4206603,0.15135193,nan,nan,nan,0.054184217,0.0,0.03852362,0.0,0.0,6029322,6029322,3997730,0,0,0,228,1,1,1,3,0,0,0,0,0,0,0,0
49077431,48944451,6979323521,0.0002707312,0.017561808,0.10529185,0,3.4210315,0.15129857,nan,nan,nan,0.047020853,0.0,0.016956598,0.0,0.0,6029322,6029322,3997730,0,0,0,228,1,1,1,3,0,0,0,0,0,0,0,0
49270473,49138451,6979323521,0.0002594624,0.01672552,0.10050315,0,3.4151518,0.15113081,nan,nan,nan,0.04154734,0.0,0.004593542,0.0,0.0,6029322,6029322,3997730,0,0,0,228,1,1,1,3,0,0,0,0,0,0,0,0
49471429,49335452,6979322497,0.00023197998,0.0161091,0.099353395,0,3.4093084,0.15735304,nan,nan,nan,0.005545401,0.0,0.004593542,0.0,0.0,6029322,6029322,3997730,0,0,0,228,1,1,1,3,0,0,0,0,0,0,0,0
49676440,49542451,6979322497,0.00020848293,0.016959747,0.106061496,0,3.4099844,0.16444862,nan,nan,nan,0.0041279485,0.0,0.004593542,0.0,0.0,6029322,6029322,3997730,0,0,0,228,1,1,1,3,0,0,0,0,0,0,0,0
49878487,49745451,6979322497,0.00019658147,0.016292442,0.103056185,0,3.4104836,0.17194591,nan,nan,nan,0.002733584,0.0,0.004593542,0.0,0.0,6029322,6029322,3997730,0,0,0,228,1,1,1,3,0,0,0,0,0,0,0,0
50078335,49955452,6979322497,0.00017721513,0.015835062,0.101416804,0,3.4227016,0.18077162,nan,nan,nan,0.0034086162,0.0,0.004593542,0.0,0.0,6029322,6029322,3997730,0,0,0,228,1,1,1,3,0,0,0,0,0,0,0,0
50273499,50140451,6979322497,0.00015884421,0.013992696,0.08974091,0,3.4143066,0.18833822,nan,nan,nan,0.0011837385,0.0,0.004593542,0.0,0.0,6029322,6029322,3997730,0,0,0,228,1,1,1,3,0,0,0,0,0,0,0,0
50465490,50334451,6979322497,0.000156789,0.014548667,0.09475603,0,3.4061017,0.1961799,nan,nan,nan,0.0030815154,0.0,0.004593542,0.0,0.0,6029322,6029322,3997730,0,0,0,228,1,1,1,3,0,0,0,0,0,0,0,0
50671325,50537451,6979322497,0.00014610268,0.0149223,0.09975988,0,3.4044304,0.20481546,nan,nan,nan,0.0023131305,0.0,0.004593542,0.0,0.0,6029322,6029322,3997730,0,0,0,228,1,1,1,3,0,0,0,0,0,0,0,0
50876477,50744467,6979322497,0.00012990933,0.015226879,0.10392221,0,3.4029922,0.2136863,nan,nan,nan,0.0068193134,0.0,0.004593542,0.0,0.0,6029322,6029322,3997730,0,0,0,228,1,1,1,3,0,0,0,0,0,0,0,0
51077462,50946451,6979322497,0.00011926347,0.015989995,0.10708474,0,3.4019864,0.2228315,nan,nan,nan,0.0014581019,0.0,0.004593542,0.0,0.0,6029322,6029322,3997730,0,0,0,228,1,1,1,3,0,0,0,0,0,0,0,0
51271353,51141451,6979322497,0.000113113805,0.016018214,0.10341843,0,3.394857,0.23161182,nan,nan,nan,0.0018107666,0.0,0.004593542,0.0,0.0,6029322,6029322,3997730,0,0,0,228,1,1,1,3,0,0,0,0,0,0,0,0
51474516,51343456,6979323521,0.0001059014,0.016217846,0.101849705,0,3.3940802,0.75337195,nan,nan,nan,0.09753461,0.0,0.048394036,0.0,0.0,6029322,6029322,3997730,0,0,0,228,1,1,1,4,0,0,0,0,0,0,0,0
51666497,51535452,6979323521,0.00010486109,0.015537345,0.09745159,0,3.3872786,0.4352028,nan,nan,nan,0.001780874,0.0,0.015552119,0.0,0.0,6029322,6029322,3997730,0,0,0,228,1,1,1,4,0,0,0,0,0,0,0,0
51874317,51743452,6979323521,9.854067e-05,0.015138424,0.10036391,0,3.3870437,0.3371882,nan,nan,nan,0.020077115,0.0,0.03733623,0.0,0.0,6029322,6029322,3997730,0,0,0,228,1,1,1,4,0,0,0,0,0,0,0,0
52078404,51947452,6979323521,9.6512296e-05,0.014469017,0.09807109,0,3.3872273,0.28552085,nan,nan,nan,0.021208936,0.0,0.023857996,0.0,0.0,6029322,6029322,3997730,0,0,0,228,1,1,1,4,0,0,0,0,0,0,0,0
52271411,52137452,6979323521,9.493965e-05,0.014048549,0.0989005,0,3.3812582,0.25263157,nan,nan,nan,0.021954898,0.0,0.014812894,0.0,0.0,6029322,6029322,3997730,0,0,0,228,1,1,1,4,0,0,0,0,0,0,0,0
52475395,52342451,6979323521,8.729267e-05,0.014410564,0.098821856,0,3.3816595,0.2296677,nan,nan,nan,0.02238921,0.0,0.011781974,0.0,0.0,6029322,6029322,3997730,0,0,0,228,1,1,1,4,0,0,0,0,0,0,0,0
52667524,52536452,6979323521,8.574387e-05,0.01432308,0.10045293,0,3.3760362,0.21263677,nan,nan,nan,0.024122374,0.0,0.009520838,0.0,0.0,6029322,6029322,3997730,0,0,0,228,1,1,1,4,0,0,0,0,0,0,0,0
52878370,52745451,6979323521,8.2804465e-05,0.01464707,0.10315105,0,3.3769116,0.19981395,nan,nan,nan,0.024735786,0.0,0.006808986,0.0,0.0,6029322,6029322,3997730,0,0,0,228,1,1,1,4,0,0,0,0,0,0,0,0
53071652,52940451,6979323521,8.9447174e-05,0.014734671,0.10906,0,3.3720078,0.1897577,nan,nan,nan,0.02750879,0.0,0.010558429,0.0,0.0,6029322,6029322,3997730,0,0,0,228,1,1,1,4,0,0,0,0,0,0,0,0
53280593,53148451,6979323521,9.5410345e-05,0.015964674,0.113135636,0,3.3736384,0.18214945,nan,nan,nan,0.03013916,0.0,0.00857846,0.0,0.0,6029322,6029322,3997730,0,0,0,228,1,1,1,4,0,0,0,0,0,0,0,0
53480472,53344451,6979323521,5.5772274e-05,0.014037178,0.09302858,0,3.4694939,0.17604713,nan,nan,nan,0.033919718,0.0,0.013149562,0.0,0.0,6029322,6029322,3997730,0,0,0,228,1,1,1,4,0,0,0,0,0,0,0,0
53674422,53552453,6979323521,5.9694397e-05,0.013880708,0.08982661,0,3.471883,0.17161837,nan,nan,nan,0.030231446,0.0,0.0014315383,0.0,0.0,6029322,6029322,3997730,0,0,0,228,1,1,1,4,0,0,0,0,0,0,0,0
53876375,53749451,6979323521,6.002253e-05,0.012737665,0.08385294,0,3.480208,0.1686938,nan,nan,nan,0.03059536,0.0,0.0023192742,0.0,0.0,6029322,6029322,3997730,0,0,0,228,1,1,1,4,0,0,0,0,0,0,0,0
54073330,53946451,6979323521,7.442253e-05,0.012512881,0.08295942,0,3.4799817,0.16625372,nan,nan,nan,0.039379016,0.0,0.01377722,0.0,0.0,6029322,6029322,3997730,0,0,0,228,1,1,1,4,0,0,0,0,0,0,0,0
54265352,54134451,6979323521,9.843975e-05,0.0133918235,0.08459012,0,3.4727447,0.1641412,nan,nan,nan,0.042846,0.0,0.014674916,0.0,0.0,6029322,6029322,3997730,0,0,0,228,1,1,1,4,0,0,0,0,0,0,0,0
54471350,54342451,6979323521,0.00010906384,0.013405866,0.081103235,0,3.4724536,0.16303799,nan,nan,nan,0.04159216,0.0,0.00353587,0.0,0.0,6029322,6029322,3997730,0,0,0,228,1,1,1,4,0,0,0,0,0,0,0,0
54676354,54545453,6979323521,0.00011734766,0.013190977,0.07913865,0,3.4720256,0.16240402,nan,nan,nan,0.04290944,0.0,0.0052154334,0.0,0.0,6029322,6029322,3997730,0,0,0,228,1,1,1,4,0,0,0,0,0,0,0,0
54866334,54743498,6979323521,0.0001338805,0.013148595,0.078660056,0,3.4658608,0.16171958,nan,nan,nan,0.043999597,0.0,0.0064412965,0.0,0.0,6029322,6029322,3997730,0,0,0,228,1,1,1,4,0,0,0,0,0,0,0,0
55076324,54943452,6979323521,0.00014506499,0.012673623,0.07630523,0,3.4664726,0.16178082,nan,nan,nan,0.04563645,0.0,0.008167662,0.0,0.0,6029322,6029322,3997730,0,0,0,228,1,1,1,4,0,0,0,0,0,0,0,0
55277492,55141452,6979323521,0.00015893919,0.012783562,0.076897755,0,3.4612658,0.16159455,nan,nan,nan,0.048648316,0.0,0.008434645,0.0,0.0,6029322,6029322,3997730,0,0,0,228,1,1,1,4,0,0,0,0,0,0,0,0
55473415,55344452,6979323521,0.00017143946,0.011887596,0.07409122,0,3.4634178,0.16209397,nan,nan,nan,0.047484912,0.0,0.00546162,0.0,0.0,6029322,6029322,3997730,0,0,0,228,1,1,1,4,0,0,0,0,0,0,0,0
55678481,55548458,6979323521,0.00017496571,0.012399838,0.07631632,0,3.4652781,0.16262546,nan,nan,nan,0.047718436,0.0,0.0029593562,0.0,0.0,6029322,6029322,3997730,0,0,0,228,1,1,1,4,0,0,0,0,0,0,0,0
55878405,55755452,6979323521,0.00018181383,0.01263771,0.076881394,0,3.466925,0.16317232,nan,nan,nan,0.044417553,0.0,0.0041767545,0.0,0.0,6029322,6029322,3997730,0,0,0,228,1,1,1,4,0,0,0,0,0,0,0,0
56073389,55942451,6979323521,0.00020525005,0.014182054,0.08715644,0,3.4616125,0.1631751,nan,nan,nan,0.04872713,0.0,0.004483245,0.0,0.0,6029322,6029322,3997730,0,0,0,228,1,1,1,4,0,0,0,0,0,0,0,0
56271375,56160451,6979323521,0.00021432426,0.012889962,0.08101221,0,3.4696395,0.164175,nan,nan,nan,0.052151904,0.0,0.008200404,0.0,0.0,6029322,6029322,3997730,0,0,0,228,1,1,1,4,0,0,0,0,0,0,0,0
56479399,56345455,6979323521,0.00023020478,0.0155306505,0.09543486,0,3.4697695,0.16454355,nan,nan,nan,0.054881833,0.0,0.0077188467,0.0,0.0,6029322,6029322,3997730,0,0,0,228,1,1,1,4,0,0,0,0,0,0,0,0
56673340,56540452,6979323521,0.00024939785,0.017045205,0.0992602,0,3.462984,0.164264,nan,nan,nan,0.050993036,0.0,0.00042985583,0.0,0.0,6029322,6029322,3997730,0,0,0,228,1,1,1,4,0,0,0,0,0,0,0,0
56877282,56761453,6979323521,0.0002503675,0.013314654,0.081177995,0,3.4767842,0.16547446,nan,nan,nan,0.053399127,0.0,0.0024450808,0.0,0.0,6029322,6029322,3997730,0,0,0,228,1,1,1,4,0,0,0,0,0,0,0,0
57068422,56944451,6979323521,0.00024513926,0.016613074,0.101298004,0,3.4689333,0.16491924,nan,nan,nan,0.049680732,0.0,0.0025702282,0.0,0.0,6029322,6029322,3997730,0,0,0,228,1,1,1,4,0,0,0,0,0,0,0,0
57278353,57144452,6979323521,0.00026503272,0.0164594,0.09699273,0,3.4682264,0.16485196,nan,nan,nan,0.05119242,0.0,0.0008071652,0.0,0.0,6029322,6029322,3997730,0,0,0,228,1,1,1,4,0,0,0,0,0,0,0,0
57473414,57338451,6979323521,0.00028760673,0.016664041,0.10148839,0,3.4614596,0.16425014,nan,nan,nan,0.053822596,0.0,0.004889058,0.0,0.0,6029322,6029322,3997730,0,0,0,228,1,1,1,4,0,0,0,0,0,0,0,0
57676348,57547452,6979323521,0.00026728018,0.01389621,0.09503123,0,3.4621015,0.16410188,nan,nan,nan,0.035988342,0.0,0.1436506,0.0,0.0,6029322,6029322,3997730,0,0,0,228,1,1,1,4,0,0,0,0,0,0,0,0
57868381,57737451,6979323521,0.00027394868,0.015532225,0.10550615,0,3.4567893,0.1634526,nan,nan,nan,0.049467452,0.0,0.047569193,0.0,0.0,6029322,6029322,3997730,0,0,0,228,1,1,1,4,0,0,0,0,0,0,0,0
58068289,57937451,6979323521,0.00032070302,0.016879948,0.10829221,0,3.4585457,0.16324162,nan,nan,nan,0.052319,0.0,0.03254052,0.0,0.0,6029322,6029322,3997730,0,0,0,228,1,1,1,4,0,0,0,0,0,0,0,0
58278329,58146451,6979323521,0.0003300718,0.017183132,0.10824704,0,3.4603841,0.16298617,nan,nan,nan,0.048161715,0.0,0.014089168,0.0,0.0,6029322,6029322,3997730,0,0,0,228,1,1,1,4,0,0,0,0,0,0,0,0
58471595,58342452,6979323521,0.00034787922,0.01857032,0.11590687,0,3.4558904,0.16226186,nan,nan,nan,0.05143513,0.0,0.014046932,0.0,0.0,6029322,6029322,3997730,0,0,0,228,1,1,1,4,0,0,0,0,0,0,0,0
58674568,58547455,6979323521,0.00034536805,0.018871682,0.11496281,0,3.4647908,0.16242175,nan,nan,nan,0.049729843,0.0,0.009317535,0.0,0.0,6029322,6029322,3997730,0,0,0,228,1,1,1,4,0,0,0,0,0,0,0,0
58880382,58747452,6979323521,0.0001609006,0.0024030064,0.010489364,0,3.5752935,0.16199794,nan,nan,nan,0.040822327,0.0,0.009179204,0.0,0.0,6029322,6029322,3997730,0,0,0,228,1,1,1,4,0,0,0,0,0,0,0,0
59075364,58951453,6979323521,0.0001766647,0.0014395042,0.009731499,0,3.5769925,0.16155662,nan,nan,nan,0.039101277,0.0,0.009129526,0.0,0.0,6029322,6029322,3997730,0,0,0,228,1,1,1,4,0,0,0,0,0,0,0,0
59275285,59147452,6979323521,0.00018103875,0.0014611008,0.0077857594,0,3.5784318,0.1610661,nan,nan,nan,0.037737496,0.0,0.008434632,0.0,0.0,6029322,6029322,3997730,0,0,0,228,1,1,1,4,0,0,0,0,0,0,0,0
59469548,59342451,6979323521,0.00019804973,0.0017188634,0.008440503,0,3.5723667,0.1601198,nan,nan,nan,0.043003645,0.0,0.003840209,0.0,0.0,6029322,6029322,3997730,0,0,0,228,1,1,1,4,0,0,0,0,0,0,0,0
59680432,59558451,6979323521,0.00019078457,0.0015180735,0.009903095,0,3.5809195,0.16003264,nan,nan,nan,0.03727738,0.0,0.008467875,0.0,0.0,6029322,6029322,3997730,0,0,0,228,1,1,1,4,0,0,0,0,0,0,0,0
59872474,59741451,6979323521,0.00020209681,0.0018059756,0.0084633,0,3.5752015,0.15909822,nan,nan,nan,0.034987427,0.0,0.0073136156,0.0,0.0,6029322,6029322,3997730,0,0,0,228,1,1,1,4,0,0,0,0,0,0,0,0
60076379,59945451,6979323521,0.00020691709,0.0020435178,0.010623344,0,3.5762916,0.15858181,nan,nan,nan,0.034308802,0.0,0.0056116446,0.0,0.0,6029322,6029322,3997730,0,0,0,228,1,1,1,4,0,0,0,0,0,0,0,0
60274502,60143452,6979323521,0.00023298607,0.0022512358,0.011193767,0,3.570774,0.1576908,nan,nan,nan,0.03440245,0.0,0.0040685995,0.0,0.0,6029322,6029322,3997730,0,0,0,228,1,1,1,4,0,0,0,0,0,0,0,0
60475355,60352452,6979322497,0.00021576935,0.0054258322,0.026851764,0,3.5730684,0.16431504,nan,nan,nan,0.00020721117,0.0,0.0040685995,0.0,0.0,6029322,6029322,3997730,0,0,0,228,1,1,1,4,0,0,0,0,0,0,0,0
60665522,60542451,6979322497,0.00022700256,0.0063465643,0.031468216,0,3.5682187,0.17071156,nan,nan,nan,0.00027917116,0.0,0.0040685995,0.0,0.0,6029322,6029322,3997730,0,0,0,228,1,1,1,4,0,0,0,0,0,0,0,0
60876354,60756451,6979322497,0.00021237225,0.0067804204,0.034077894,0,3.577851,0.17817944,nan,nan,nan,0.00035364542,0.0,0.0040685995,0.0,0.0,6029322,6029322,3997730,0,0,0,228,1,1,1,4,0,0,0,0,0,0,0,0
61076388,60941451,6979322497,0.0002394176,0.0063941223,0.032756053,0,3.573033,0.18493545,nan,nan,nan,0.00258682,0.0,0.0040685995,0.0,0.0,6029322,6029322,3997730,0,0,0,228,1,1,1,4,0,0,0,0,0,0,0,0
61269429,61138451,6979322497,0.00024911485,0.0063454746,0.033577986,0,3.5679839,0.19185862,nan,nan,nan,0.00045553016,0.0,0.0040685995,0.0,0.0,6029322,6029322,3997730,0,0,0,228,1,1,1,4,0,0,0,0,0,0,0,0
61478508,61346451,6979322497,0.00026600328,0.0061528184,0.032244306,0,3.570687,0.19944379,nan,nan,nan,0.0018770695,0.0,0.0040685995,0.0,0.0,6029322,6029322,3997730,0,0,0,228,1,1,1,4,0,0,0,0,0,0,0,0
61679315,61565451,6979322497,0.0002629903,0.00547593,0.028484255,0,3.5809715,0.20770718,nan,nan,nan,0.0019663223,0.0,0.0040685995,0.0,0.0,6029322,6029322,3997730,0,0,0,228,1,1,1,4,0,0,0,0,0,0,0,0
61875464,61742451,6979322497,0.00027455593,0.0072295195,0.04166482,0,3.5752366,0.2150803,nan,nan,nan,0.0028818059,0.0,0.0040685995,0.0,0.0,6029322,6029322,3997730,0,0,0,228,1,1,1,4,0,0,0,0,0,0,0,0
62077491,61946451,6979322497,0.00028294552,0.006684588,0.03885979,0,3.576602,0.22307995,nan,nan,nan,0.002219026,0.0,0.0040685995,0.0,0.0,6029322,6029322,3997730,0,0,0,228,1,1,1,4,0,0,0,0,0,0,0,0
62275480,62144451,6979322497,0.00030376983,0.00730442,0.043285098,0,3.5711246,0.23072648,nan,nan,nan,0.003083288,0.0,0.0040685995,0.0,0.0,6029322,6029322,3997730,0,0,0,228,1,1,1,4,0,0,0,0,0,0,0,0
62479485,62348451,6979322497,0.00031012527,0.0068569616,0.041923523,0,3.573359,0.23905078,nan,nan,nan,0.0029497298,0.0,0.0040685995,0.0,0.0,6029322,6029322,3997730,0,0,0,228,1,1,1,4,0,0,0,0,0,0,0,0
62669524,62543452,6979322497,0.00032295854,0.008063266,0.049639266,0,3.5683134,0.2469712,nan,nan,nan,0.0051281233,0.0,0.0040685995,0.0,0.0,6029322,6029322,3997730,0,0,0,228,1,1,1,4,0,0,0,0,0,0,0,0
62880577,62747452,6979322497,0.00032079298,0.008262384,0.049809553,0,3.57051,0.25554812,nan,nan,nan,0.003431515,0.0,0.0040685995,0.0,0.0,6029322,6029322,3997730,0,0,0,228,1,1,1,4,0,0,0,0,0,0,0,0
63074386,62954450,6979322497,0.000324471,0.007903081,0.04657773,0,3.5728729,0.26426104,nan,nan,nan,0.0061288616,0.0,0.0040685995,0.0,0.0,6029322,6029322,3997730,0,0,0,228,1,1,1,4,0,0,0,0,0,0,0,0
63278303,63151452,6979322497,0.0003319873,0.009794983,0.05778181,0,3.5744913,0.27307516,nan,nan,nan,0.00629649,0.0,0.0040685995,0.0,0.0,6029322,6029322,3997730,0,0,0,228,1,1,1,4,0,0,0,0,0,0,0,0
63472496,63345452,6979322497,0.00034880044,0.011415199,0.067657955,0,3.5683837,0.28144917,nan,nan,nan,0.004777547,0.0,0.0040685995,0.0,0.0,6029322,6029322,3997730,0,0,0,228,1,1,1,4,0,0,0,0,0,0,0,0
63674343,63543452,6979323521,0.00035818503,0.011108481,0.06531669,0,3.5696964,0.5319722,nan,nan,nan,0.003962444,0.0,0.013805171,0.0,0.0,6029322,6029322,3997730,0,0,0,228,1,1,1,5,0,0,0,0,0,0,0,0
63879353,63747452,6979323521,0.00034926808,0.011996225,0.07483631,0,3.5700018,0.37613192,nan,nan,nan,0.011142606,0.0,0.0009839985,0.0,0.0,6029322,6029322,3997730,0,0,0,228,1,1,1,5,0,0,0,0,0,0,0,0
64073302,63941451,6979323521,0.0003757706,0.013117029,0.08037512,0,3.5633829,0.30735928,nan,nan,nan,0.0060127815,0.0,0.002173625,0.0,0.0,6029322,6029322,3997730,0,0,0,228,1,1,1,5,0,0,0,0,0,0,0,0
64271516,64140451,6979323521,0.00039601806,0.014604419,0.08823367,0,3.5571294,0.26662937,nan,nan,nan,0.0012696132,0.0,0.007145991,0.0,0.0,6029322,6029322,3997730,0,0,0,228,1,1,1,5,0,0,0,0,0,0,0,0
64476565,64344451,6979323521,0.00038523247,0.014031968,0.09938867,0,3.558441,0.23914473,nan,nan,nan,0.041126538,0.0,0.053328983,0.0,0.0,6029322,6029322,3997730,0,0,0,228,1,1,1,5,0,0,0,0,0,0,0,0
64670353,64541452,6979323521,0.0001656157,0.009473547,0.08181675,0,3.6706917,0.21922238,nan,nan,nan,0.035421982,0.0,0.021328207,0.0,0.0,6029322,6029322,3997730,0,0,0,228,1,1,1,5,0,0,0,0,0,0,0,0
