timestamp,baro_alt_meter,baro_temp_celcius,baro_pressure_pa,rho
86527035,-98.769905,26.72,102516.99,1.2180715
86539223,-98.85446,26.72,102517.99,1.2180834
86549001,-98.85446,26.72,102517.99,1.2180834
86571088,-98.60608,26.72,102515.0,1.2180477
86582503,-98.85446,26.72,102517.99,1.2180834
86593000,-98.60608,26.72,102515.0,1.2180477
86615003,-98.93373,26.72,102518.99,1.2180952
86626973,-98.52681,26.72,102514.0,1.2180359
86637021,-98.93373,26.72,102518.99,1.2180952
86659226,-98.93373,26.72,102518.99,1.2180952
86670566,-98.44225,26.72,102513.0,1.218024
86681113,-98.769905,26.72,102516.99,1.2180715
86702996,-98.690636,26.72,102516.0,1.2180597
86714924,-98.85446,26.72,102517.99,1.2180834
86725018,-98.85446,26.72,102517.99,1.2180834
86747249,-98.93373,26.72,102518.99,1.2180952
86758566,-98.93373,26.72,102518.99,1.2180952
86769024,-99.01828,26.72,102519.99,1.2181071
86790888,-98.357704,26.72,102512.0,1.2180121
86802038,-98.52681,26.72,102514.0,1.2180359
86812870,-98.769905,26.72,102516.99,1.2180715
86835230,-99.26666,26.72,102523.0,1.2181429
86847234,-98.60608,26.72,102515.0,1.2180477
86857850,-99.10284,26.72,102521.0,1.218119
86879850,-98.769905,26.72,102516.99,1.2180715
86891718,-98.690636,26.72,102516.0,1.2180597
86902796,-98.93373,26.72,102518.99,1.2180952
86925012,-98.85446,26.72,102517.99,1.2180834
86936500,-98.769905,26.72,102516.99,1.2180715
86947235,-98.85446,26.72,102517.99,1.2180834
86969020,-98.52681,26.72,102514.0,1.2180359
86979961,-98.85446,26.72,102517.99,1.2180834
86990996,-99.10284,26.72,102521.0,1.218119
87013022,-98.52681,26.72,102514.0,1.2180359
87024498,-99.10284,26.72,102521.0,1.218119
87035217,-98.357704,26.72,102512.0,1.2180121
87057001,-98.93373,26.72,102518.99,1.2180952
87067714,-99.182106,26.72,102522.0,1.218131
87078801,-98.93373,26.72,102518.99,1.2180952
87100855,-98.769905,26.72,102516.99,1.2180715
87111861,-98.93373,26.72,102518.99,1.2180952
87123268,-98.690636,26.72,102516.0,1.2180597
87146916,-99.182106,26.73,102522.0,1.218131
87158501,-98.19388,26.73,102510.0,1.2179884
87169124,-98.357704,26.73,102512.0,1.2180121
87190892,-98.93373,26.73,102518.99,1.2180952
87202047,-99.26666,26.73,102523.0,1.2181429
87211956,-98.85446,26.73,102517.99,1.2180834
87235246,-98.769905,26.73,102516.99,1.2180715
87247228,-98.85446,26.73,102517.99,1.2180834
87258924,-98.769905,26.73,102516.99,1.2180715
87281028,-98.769905,26.73,102516.99,1.2180715
87292501,-99.182106,26.73,102522.0,1.218131
87302997,-97.9455,26.73,102506.99,1.2179526
87325023,-98.93373,26.73,102518.99,1.2180952
87336501,-98.690636,26.73,102516.0,1.2180597
87347216,-98.690636,26.73,102516.0,1.2180597
87369125,-98.60608,26.72,102515.0,1.2180477
87380501,-98.10932,26.72,102509.0,1.2179765
87391035,-97.61785,26.72,102503.0,1.2179052
87413021,-98.357704,26.73,102512.0,1.2180121
87424500,-98.357704,26.73,102512.0,1.2180121
87435223,-99.01828,26.73,102519.99,1.2181071
87457018,-98.60608,26.73,102515.0,1.2180477
87468502,-98.52681,26.73,102514.0,1.2180359
87479007,-98.690636,26.73,102516.0,1.2180597
87501018,-98.690636,26.73,102516.0,1.2180597
87512505,-98.769905,26.73,102516.99,1.2180715
87523232,-98.93373,26.73,102518.99,1.2180952
87545025,-98.85446,26.73,102517.99,1.2180834
87555923,-99.01828,26.73,102519.99,1.2181071
87566994,-98.44225,26.73,102513.0,1.218024
87589003,-98.769905,26.74,102516.99,1.2180715
87600499,-98.60608,26.74,102515.0,1.2180477
87611027,-98.769905,26.74,102516.99,1.2180715
87633957,-98.44225,26.73,102513.0,1.218024
87646100,-98.690636,26.73,102516.0,1.2180597
87655955,-98.60608,26.73,102515.0,1.2180477
87678424,-98.52681,26.74,102514.0,1.2180359
87689576,-98.85446,26.74,102517.99,1.2180834
87699073,-98.769905,26.74,102516.99,1.2180715
87721959,-98.60608,26.74,102515.0,1.2180477
87734169,-98.85446,26.74,102517.99,1.2180834
87743955,-98.44225,26.74,102513.0,1.218024
87766351,-98.690636,26.74,102516.0,1.2180597
87777633,-98.690636,26.74,102516.0,1.2180597
87788018,-98.52681,26.74,102514.0,1.2180359
87809959,-98.357704,26.73,102512.0,1.2180121
87822143,-99.182106,26.73,102522.0,1.218131
87833011,-98.44225,26.73,102513.0,1.218024
87854423,-98.690636,26.74,102516.0,1.2180597
87865901,-98.357704,26.74,102512.0,1.2180121
87876829,-98.19388,26.74,102510.0,1.2179884
87898796,-98.52681,26.74,102514.0,1.2180359
87909945,-97.78168,26.74,102504.99,1.2179289
87921557,-97.78168,26.74,102504.99,1.2179289
87943931,-98.10932,26.74,102509.0,1.2179765
87954803,-98.19388,26.74,102510.0,1.2179884
87965931,-97.86095,26.74,102505.99,1.2179408
87987959,-98.03005,26.74,102507.99,1.2179645
87999549,-98.10932,26.74,102509.0,1.2179765
88009963,-97.69712,26.74,102503.99,1.217917
88031962,-98.03005,26.74,102507.99,1.2179645
88043538,-97.78168,26.74,102504.99,1.2179289
88053955,-97.61785,26.74,102503.0,1.2179052
88075954,-98.03005,26.74,102507.99,1.2179645
88087537,-97.45403,26.74,102501.0,1.2178814
88097957,-97.36948,26.74,102500.0,1.2178695
88119965,-97.28492,26.74,102499.0,1.2178577
88130551,-97.9455,26.74,102506.99,1.2179526
88141013,-97.86095,26.74,102505.99,1.2179408
88163956,-97.86095,26.75,102505.99,1.2179408
88175540,-97.9455,26.75,102506.99,1.2179526
88185545,-97.78168,26.75,102504.99,1.2179289
88207829,-97.78168,26.75,102504.99,1.2179289
88218804,-97.61785,26.75,102503.0,1.2179052
88229998,-97.5333,26.75,102502.0,1.2178934
88251920,-98.10932,26.74,102509.0,1.2179765
88262794,-97.86095,26.74,102505.99,1.2179408
88273717,-97.36948,26.74,102500.0,1.2178695
88295829,-97.5333,26.74,102502.0,1.2178934
88306796,-98.03005,26.74,102507.99,1.2179645
88317946,-97.36948,26.74,102500.0,1.2178695
88339831,-97.041824,26.74,102496.0,1.2178221
88350802,-97.61785,26.74,102503.0,1.2179052
88361646,-97.041824,26.74,102496.0,1.2178221
88383834,-97.78168,26.75,102504.99,1.2179289
88394830,-97.69712,26.75,102503.99,1.217917
88405970,-97.61785,26.75,102503.0,1.2179052
88429039,-97.28492,26.75,102499.0,1.2178577
88441362,-97.28492,26.75,102499.0,1.2178577
88451004,-97.12109,26.75,102497.0,1.2178339
88473547,-97.45403,26.75,102501.0,1.2178814
88484752,-97.5333,26.75,102502.0,1.2178934
88495960,-97.20565,26.75,102498.0,1.2178458
88517964,-97.12109,26.75,102497.0,1.2178339
88530251,-97.45403,26.75,102501.0,1.2178814
88540023,-97.45403,26.75,102501.0,1.2178814
88561617,-96.70889,26.75,102491.99,1.2177744
88572848,-96.79345,26.75,102492.99,1.2177863
88583839,-96.62962,26.75,102491.0,1.2177626
88605913,-97.041824,26.75,102496.0,1.2178221
88617346,-97.041824,26.75,102496.0,1.2178221
88627844,-96.79345,26.75,102492.99,1.2177863
88649611,-96.38125,26.75,102488.0,1.217727
88660850,-96.87272,26.75,102493.99,1.2177982
88671841,-96.46052,26.75,102489.0,1.2177389
88693851,-96.70889,26.75,102491.99,1.2177744
88705402,-96.46052,26.75,102489.0,1.2177389
88715842,-96.70889,26.75,102491.99,1.2177744
88737531,-96.38125,26.75,102488.0,1.217727
88748855,-95.96376,26.75,102482.99,1.2176675
88759841,-96.62962,26.75,102491.0,1.2177626
88781915,-96.70889,26.76,102491.99,1.2177744
88793375,-96.29669,26.76,102487.0,1.2177151
88803841,-96.545074,26.76,102490.0,1.2177508
88825555,-96.70889,26.76,102491.99,1.2177744
88836847,-96.29669,26.76,102487.0,1.2177151
88847947,-96.29669,26.76,102487.0,1.2177151
88869028,-96.62962,26.76,102491.0,1.2177626
88881359,-96.545074,26.76,102490.0,1.2177508
88891839,-96.38125,26.76,102488.0,1.217727
88914360,-96.38125,26.76,102488.0,1.217727
88925934,-96.545074,26.76,102490.0,1.2177508
88937545,-96.29669,26.76,102487.0,1.2177151
88959830,-96.29669,26.76,102487.0,1.2177151
88970839,-96.46052,26.76,102489.0,1.2177389
88981916,-95.88449,26.76,102481.99,1.2176555
89003837,-96.04832,26.75,102484.0,1.2176795
89015535,-95.88449,26.75,102481.99,1.2176555
89025545,-96.212135,26.75,102486.0,1.2177032
89047829,-96.212135,26.76,102486.0,1.2177032
89058793,-96.04832,26.76,102484.0,1.2176795
89069916,-96.132866,26.76,102485.0,1.2176913
89091831,-95.96376,26.76,102482.99,1.2176675
89103535,-95.720665,26.76,102479.99,1.2176318
89113553,-96.04832,26.76,102484.0,1.2176795
89135951,-95.88449,26.76,102481.99,1.2176555
89146793,-95.636116,26.76,102478.99,1.2176199
89157027,-95.308464,26.76,102475.0,1.2175726
89179836,-96.04832,26.76,102484.0,1.2176795
89190801,-95.720665,26.76,102479.99,1.2176318
89202346,-95.55685,26.76,102478.0,1.2176082
89225545,-95.799934,26.76,102480.99,1.2176437
89236831,-95.38773,26.76,102476.0,1.2175844
89247829,-95.308464,26.76,102475.0,1.2175726
89269927,-95.636116,26.76,102478.99,1.2176199
89281367,-95.96376,26.76,102482.99,1.2176675
89291829,-95.38773,26.76,102476.0,1.2175844
89313546,-95.96376,26.76,102482.99,1.2176675
89324858,-95.47229,26.76,102477.0,1.2175963
89335835,-95.47229,26.76,102477.0,1.2175963
89357913,-95.38773,26.76,102476.0,1.2175844
89370126,-95.636116,26.76,102478.99,1.2176199
89381036,-95.55685,26.76,102478.0,1.2176082
89403929,-95.720665,26.76,102479.99,1.2176318
89414790,-95.223915,26.76,102474.0,1.2175606
89426615,-95.144646,26.76,102473.0,1.2175487
89449634,-95.144646,26.76,102473.0,1.2175487
89460882,-95.144646,26.76,102473.0,1.2175487
89471829,-95.38773,26.76,102476.0,1.2175844
89493913,-95.55685,26.76,102478.0,1.2176082
89505353,-95.06009,26.76,102472.0,1.2175369
89515829,-95.636116,26.76,102478.99,1.2176199
89538348,-94.81171,26.76,102468.99,1.2175012
89548867,-94.89626,26.76,102469.99,1.217513
89559830,-95.06009,26.76,102472.0,1.2175369
89581914,-94.97553,26.769999,102471.0,1.217525
89593366,-94.72716,26.769999,102467.99,1.2174892
89603834,-94.56333,26.769999,102466.0,1.2174656
89626738,-95.144646,26.769999,102473.0,1.2175487
89637951,-94.64789,26.769999,102466.99,1.2174773
89649611,-94.89626,26.769999,102469.99,1.217513
89671942,-94.64789,26.769999,102466.99,1.2174773
89682793,-94.64789,26.769999,102466.99,1.2174773
89693919,-94.72716,26.769999,102467.99,1.2174892
89715961,-95.06009,26.769999,102472.0,1.2175369
89727547,-94.48406,26.769999,102465.0,1.2174537
89737959,-94.97553,26.769999,102471.0,1.217525
89759967,-94.72716,26.769999,102467.99,1.2174892
89771551,-94.31496,26.769999,102463.0,1.21743
89781972,-94.56333,26.769999,102466.0,1.2174656
89804004,-94.31496,26.769999,102463.0,1.21743
89815550,-94.56333,26.769999,102466.0,1.2174656
89825961,-94.48406,26.769999,102465.0,1.2174537
89848007,-94.23569,26.769999,102462.0,1.2174181
89858545,-94.72716,26.769999,102467.99,1.2174892
89869027,-94.23569,26.769999,102462.0,1.2174181
89889552,-94.31496,26.769999,102463.0,1.21743
89900870,-93.82348,26.769999,102456.99,1.2173586
89911831,-94.07186,26.769999,102460.0,1.2173944
89933898,-94.48406,26.769999,102465.0,1.2174537
89945370,-93.65437,26.769999,102454.99,1.2173347
89955835,-93.987305,26.769999,102459.0,1.2173824
89978330,-93.90275,26.769999,102457.99,1.2173704
89989941,-94.399506,26.769999,102464.0,1.2174418
90001642,-94.15113,26.769999,102461.0,1.2174062
90023932,-94.23569,26.769999,102462.0,1.2174181
90034792,-94.15113,26.769999,102461.0,1.2174062
90045953,-94.31496,26.769999,102463.0,1.21743
90067962,-94.15113,26.769999,102461.0,1.2174062
90079552,-93.49055,26.769999,102453.0,1.2173111
90089971,-94.07186,26.769999,102460.0,1.2173944
90111967,-94.23569,26.769999,102462.0,1.2174181
90123545,-93.987305,26.769999,102459.0,1.2173824
90133964,-93.65437,26.769999,102454.99,1.2173347
90155964,-93.49055,26.769999,102453.0,1.2173111
90167555,-93.65437,26.769999,102454.99,1.2173347
90177967,-93.65437,26.769999,102454.99,1.2173347
90199963,-93.65437,26.779999,102454.99,1.2173347
90210553,-93.73893,26.779999,102455.99,1.2173467
90221010,-93.5751,26.779999,102453.99,1.217323
90244811,-93.5751,26.779999,102453.99,1.217323
90255934,-93.32673,26.779999,102451.0,1.2172873
90267002,-93.24217,26.779999,102450.0,1.2172755
90289118,-93.32673,26.779999,102451.0,1.2172873
90301640,-93.07835,26.779999,102448.0,1.2172517
90313154,-93.07835,26.779999,102448.0,1.2172517
90337149,-93.65437,26.779999,102454.99,1.2173347
90349638,-93.82348,26.779999,102456.99,1.2173586
90361241,-93.5751,26.779999,102453.99,1.217323
90384229,-93.49055,26.769999,102453.0,1.2173111
90396484,-93.5751,26.769999,102453.99,1.217323
90406793,-93.24217,26.769999,102450.0,1.2172755
90428819,-93.07835,26.769999,102448.0,1.2172517
90439946,-93.41128,26.769999,102452.0,1.2172992
90450796,-93.1629,26.769999,102449.0,1.2172636
90473038,-93.32673,26.779999,102451.0,1.2172873
90484832,-93.32673,26.779999,102451.0,1.2172873
90496808,-92.91453,26.779999,102446.0,1.2172279
90519732,-92.99908,26.769999,102447.0,1.2172399
90531938,-92.91453,26.769999,102446.0,1.2172279
90541966,-93.49055,26.769999,102453.0,1.2173111
90564245,-93.24217,26.769999,102450.0,1.2172755
90576857,-92.82997,26.769999,102444.99,1.217216
90588243,-92.82997,26.769999,102444.99,1.217216
90612243,-93.24217,26.769999,102450.0,1.2172755
90624386,-93.07835,26.769999,102448.0,1.2172517
90635515,-92.58159,26.769999,102441.99,1.2171804
90657016,-92.58159,26.769999,102441.99,1.2171804
90668525,-92.41777,26.769999,102440.0,1.2171566
90677967,-92.3385,26.769999,102439.0,1.2171447
90699820,-92.666145,26.769999,102442.99,1.2171922
90711736,-92.58159,26.769999,102441.99,1.2171804
90723394,-92.666145,26.769999,102442.99,1.2171922
90745046,-92.666145,26.779999,102442.99,1.2171922
90756509,-92.58159,26.779999,102441.99,1.2171804
90765993,-92.91453,26.779999,102446.0,1.2172279
90788244,-92.91453,26.779999,102446.0,1.2172279
90799848,-93.1629,26.779999,102449.0,1.2172636
90811406,-92.50232,26.779999,102441.0,1.2171686
90834037,-92.82997,26.779999,102444.99,1.217216
90844857,-92.91453,26.779999,102446.0,1.2172279
90856007,-92.666145,26.779999,102442.99,1.2171922
90878998,-92.58159,26.779999,102441.99,1.2171804
90889642,-92.253944,26.779999,102438.0,1.2171329
90900725,-92.50232,26.779999,102441.0,1.2171686
90922812,-92.58159,26.779999,102441.99,1.2171804
90934500,-92.82997,26.779999,102444.99,1.217216
90945015,-92.58159,26.779999,102441.99,1.2171804
90966997,-92.16939,26.779999,102437.0,1.217121
90979022,-92.58159,26.779999,102441.99,1.2171804
90989017,-92.09012,26.779999,102436.0,1.2171091
91011528,-92.50232,26.779999,102441.0,1.2171686
91022500,-92.253944,26.779999,102438.0,1.2171329
91033030,-92.00557,26.779999,102435.0,1.2170973
91055030,-92.16939,26.779999,102437.0,1.217121
91066953,-92.00557,26.779999,102435.0,1.2170973
91077014,-92.00557,26.779999,102435.0,1.2170973
91099083,-91.9263,26.779999,102434.0,1.2170854
91110502,-91.75719,26.779999,102431.99,1.2170615
91121016,-91.9263,26.779999,102434.0,1.2170854
91143001,-91.42954,26.779999,102428.0,1.2170141
91154979,-91.75719,26.779999,102431.99,1.2170615
91165014,-91.75719,26.779999,102431.99,1.2170615
91187215,-92.00557,26.779999,102435.0,1.2170973
91198606,-91.59336,26.779999,102429.99,1.2170378
91209014,-91.84174,26.779999,102432.99,1.2170734
91230997,-91.75719,26.789999,102431.99,1.2170615
91242956,-91.344986,26.789999,102427.0,1.2170022
91253007,-91.59336,26.789999,102429.99,1.2170378
91275230,-91.67792,26.789999,102430.99,1.2170496
91286501,-91.75719,26.789999,102431.99,1.2170615
91297008,-91.42954,26.789999,102428.0,1.2170141
91318891,-91.75719,26.789999,102431.99,1.2170615
91329841,-91.84174,26.789999,102432.99,1.2170734
91340857,-91.84174,26.789999,102432.99,1.2170734
91363232,-92.09012,26.789999,102436.0,1.2171091
91375241,-91.42954,26.789999,102428.0,1.2170141
91386848,-91.42954,26.789999,102428.0,1.2170141
91409107,-91.18116,26.789999,102425.0,1.2169784
91419843,-91.26572,26.789999,102426.0,1.2169904
91430885,-91.26572,26.789999,102426.0,1.2169904
91452015,-91.59336,26.789999,102429.99,1.2170378
91464001,-91.344986,26.789999,102427.0,1.2170022
91475213,-91.67792,26.789999,102430.99,1.2170496
91498921,-91.75719,26.789999,102431.99,1.2170615
91510499,-91.09661,26.789999,102424.0,1.2169665
91521021,-91.59336,26.789999,102429.99,1.2170378
91543001,-91.26572,26.789999,102426.0,1.2169904
91554905,-91.42954,26.789999,102428.0,1.2170141
91565024,-91.42954,26.789999,102428.0,1.2170141
91587098,-91.18116,26.789999,102425.0,1.2169784
91598500,-91.75719,26.789999,102431.99,1.2170615
91609018,-91.50881,26.789999,102428.99,1.2170259
91631033,-91.18116,26.789999,102425.0,1.2169784
91642893,-91.01734,26.789999,102423.0,1.2169547
91653029,-90.932785,26.789999,102422.0,1.2169428
91675230,-91.59336,26.789999,102429.99,1.2170378
91686500,-91.26572,26.789999,102426.0,1.2169904
91697018,-91.42954,26.789999,102428.0,1.2170141
91719002,-91.42954,26.789999,102428.0,1.2170141
91730899,-91.26572,26.789999,102426.0,1.2169904
91741019,-91.344986,26.789999,102427.0,1.2170022
91763231,-91.18116,26.789999,102425.0,1.2169784
91774566,-91.01734,26.789999,102423.0,1.2169547
91784999,-91.18116,26.789999,102425.0,1.2169784
91806998,-91.09661,26.789999,102424.0,1.2169665
91818949,-90.76896,26.789999,102419.99,1.216919
91829000,-90.76896,26.789999,102419.99,1.216919
91851229,-90.520584,26.789999,102416.99,1.2168833
91862567,-91.01734,26.789999,102423.0,1.2169547
91873020,-91.09661,26.789999,102424.0,1.2169665
91894795,-91.344986,26.789999,102427.0,1.2170022
91906956,-90.932785,26.789999,102422.0,1.2169428
91918377,-90.68441,26.789999,102418.99,1.216907
91939244,-91.09661,26.789999,102424.0,1.2169665
91951244,-90.520584,26.789999,102416.99,1.2168833
91961851,-90.853516,26.789999,102421.0,1.2169309
91983836,-91.18116,26.789999,102425.0,1.2169784
91995934,-90.853516,26.789999,102421.0,1.2169309
92006794,-90.76896,26.789999,102419.99,1.216919
92028017,-90.68441,26.789999,102418.99,1.216907
92039843,-91.09661,26.789999,102424.0,1.2169665
92051211,-91.42954,26.789999,102428.0,1.2170141
92074038,-91.01734,26.789999,102423.0,1.2169547
92085561,-91.01734,26.789999,102423.0,1.2169547
92095955,-90.68441,26.789999,102418.99,1.216907
92118328,-90.76896,26.789999,102419.99,1.216919
92129559,-90.76896,26.789999,102419.99,1.216919
92139958,-90.76896,26.789999,102419.99,1.216919
92162868,-90.441315,26.789999,102416.0,1.2168715
92173565,-90.932785,26.789999,102422.0,1.2169428
92183954,-90.441315,26.789999,102416.0,1.2168715
92207030,-90.76896,26.789999,102419.99,1.216919
92219543,-90.441315,26.789999,102416.0,1.2168715
92230374,-90.520584,26.789999,102416.99,1.2168833
92251230,-91.01734,26.789999,102423.0,1.2169547
92262501,-90.2722,26.789999,102414.0,1.2168478
92273101,-90.520584,26.789999,102416.99,1.2168833
92294345,-90.60514,26.789999,102417.99,1.2168952
92305625,-90.35676,26.789999,102415.0,1.2168596
92315957,-90.60514,26.789999,102417.99,1.2168952
92338980,-90.35676,26.789999,102415.0,1.2168596
92349554,-90.68441,26.789999,102418.99,1.216907
92359964,-90.35676,26.789999,102415.0,1.2168596
92383005,-90.520584,26.789999,102416.99,1.2168833
92394843,-90.520584,26.789999,102416.99,1.2168833
92405022,-90.35676,26.789999,102415.0,1.2168596
92427107,-90.60514,26.789999,102417.99,1.2168952
92438499,-90.35676,26.789999,102415.0,1.2168596
92449015,-90.2722,26.789999,102414.0,1.2168478
92470993,-90.2722,26.8,102414.0,1.2168478
92481565,-90.441315,26.8,102416.0,1.2168715
92491229,-90.2722,26.8,102414.0,1.2168478
92514898,-90.19293,26.8,102413.0,1.2168359
92526567,-90.520584,26.8,102416.99,1.2168833
92537137,-90.35676,26.8,102415.0,1.2168596
92558348,-90.520584,26.789999,102416.99,1.2168833
92569556,-90.441315,26.789999,102416.0,1.2168715
92579225,-89.4478,26.789999,102403.99,1.2167288
92602895,-90.02383,26.8,102411.0,1.2168121
92614499,-90.35676,26.8,102415.0,1.2168596
92625011,-89.86,26.8,102409.0,1.2167883
92646797,-90.2722,26.789999,102414.0,1.2168478
92658034,-90.35676,26.789999,102415.0,1.2168596
92669012,-90.10838,26.789999,102412.0,1.2168239
92691098,-89.86,26.8,102409.0,1.2167883
92702566,-90.02383,26.8,102411.0,1.2168121
92713018,-89.77545,26.8,102407.99,1.2167764
92734996,-89.94456,26.789999,102410.0,1.2168002
92746913,-89.94456,26.789999,102410.0,1.2168002
92757013,-89.86,26.789999,102409.0,1.2167883
92779249,-89.77545,26.8,102407.99,1.2167764
92790568,-90.10838,26.8,102412.0,1.2168239
92801101,-89.86,26.8,102409.0,1.2167883
92822796,-89.86,26.8,102409.0,1.2167883
92833845,-89.86,26.8,102409.0,1.2167883
92844852,-89.86,26.8,102409.0,1.2167883
92867258,-90.60514,26.8,102417.99,1.2168952
92879256,-90.02383,26.8,102411.0,1.2168121
92890952,-90.35676,26.8,102415.0,1.2168596
92913008,-90.10838,26.789999,102412.0,1.2168239
92923720,-89.53236,26.789999,102404.99,1.2167407
92934795,-90.35676,26.789999,102415.0,1.2168596
92958333,-90.10838,26.789999,102412.0,1.2168239
92969559,-90.35676,26.789999,102415.0,1.2168596
92979955,-90.10838,26.789999,102412.0,1.2168239
93002844,-89.4478,26.789999,102403.99,1.2167288
93013566,-89.77545,26.789999,102407.99,1.2167764
93023955,-89.86,26.789999,102409.0,1.2167883
93046369,-89.53236,26.8,102404.99,1.2167407
93057557,-89.77545,26.8,102407.99,1.2167764
93067957,-90.10838,26.8,102412.0,1.2168239
93090847,-89.69618,26.789999,102406.99,1.2167645
93101558,-89.69618,26.789999,102406.99,1.2167645
93111963,-89.77545,26.789999,102407.99,1.2167764
93134324,-89.86,26.8,102409.0,1.2167883
93145646,-89.4478,26.8,102403.99,1.2167288
93156723,-89.77545,26.8,102407.99,1.2167764
93177849,-89.86,26.789999,102409.0,1.2167883
93188821,-89.611626,26.789999,102405.99,1.2167526
93199834,-89.77545,26.789999,102407.99,1.2167764
93222800,-89.86,26.8,102409.0,1.2167883
93234038,-90.19293,26.8,102413.0,1.2168359
93243968,-90.10838,26.8,102412.0,1.2168239
93267228,-89.69618,26.789999,102406.99,1.2167645
93279247,-89.36853,26.789999,102403.0,1.216717
93290836,-89.53236,26.789999,102404.99,1.2167407
93313022,-89.77545,26.789999,102407.99,1.2167764
93324501,-89.69618,26.789999,102406.99,1.2167645
93334993,-89.611626,26.789999,102405.99,1.2167526
93357008,-89.611626,26.789999,102405.99,1.2167526
93368578,-89.36853,26.789999,102403.0,1.216717
93379217,-89.53236,26.789999,102404.99,1.2167407
93400958,-89.28397,26.789999,102402.0,1.2167052
93412501,-89.36853,26.789999,102403.0,1.216717
93423039,-89.86,26.789999,102409.0,1.2167883
93445021,-89.611626,26.8,102405.99,1.2167526
93456503,-89.53236,26.8,102404.99,1.2167407
93467219,-89.36853,26.8,102403.0,1.216717
93489029,-89.611626,26.8,102405.99,1.2167526
93500501,-89.69618,26.8,102406.99,1.2167645
93510998,-89.53236,26.8,102404.99,1.2167407
93533027,-89.53236,26.8,102404.99,1.2167407
93544498,-89.4478,26.8,102403.99,1.2167288
93555139,-89.120155,26.8,102400.0,1.2166814
93577022,-89.199425,26.789999,102401.0,1.2166933
93587752,-89.36853,26.789999,102403.0,1.216717
93598997,-89.611626,26.789999,102405.99,1.2167526
93621020,-89.69618,26.8,102406.99,1.2167645
93632500,-89.199425,26.8,102401.0,1.2166933
93643215,-89.36853,26.8,102403.0,1.216717
93665033,-89.611626,26.8,102405.99,1.2167526
93675710,-89.36853,26.8,102403.0,1.216717
93686891,-89.36853,26.8,102403.0,1.216717
93710331,-89.199425,26.8,102401.0,1.2166933
93721569,-89.28397,26.8,102402.0,1.2167052
93731240,-89.120155,26.8,102400.0,1.2166814
93754884,-89.4478,26.8,102403.99,1.2167288
93766505,-89.69618,26.8,102406.99,1.2167645
93777023,-89.4478,26.8,102403.99,1.2167288
93798796,-89.199425,26.789999,102401.0,1.2166933
93810033,-89.28397,26.789999,102402.0,1.2167052
93820841,-89.199425,26.789999,102401.0,1.2166933
93843242,-89.53236,26.8,102404.99,1.2167407
93854337,-89.53236,26.8,102404.99,1.2167407
93864815,-89.36853,26.8,102403.0,1.216717
93886793,-89.120155,26.8,102400.0,1.2166814
93897835,-89.69618,26.8,102406.99,1.2167645
93908817,-89.120155,26.8,102400.0,1.2166814
93931252,-89.4478,26.8,102403.99,1.2167288
93943223,-89.120155,26.8,102400.0,1.2166814
93953846,-89.0356,26.8,102399.0,1.2166696
93975917,-88.87177,26.8,102397.0,1.2166457
93987731,-89.120155,26.8,102400.0,1.2166814
93998996,-89.28397,26.8,102402.0,1.2167052
94021013,-89.0356,26.789999,102399.0,1.2166696
94032499,-89.0356,26.789999,102399.0,1.2166696
94043232,-88.70267,26.789999,102394.99,1.2166219
94065012,-88.95104,26.8,102398.0,1.2166576
94075755,-88.787224,26.8,102396.0,1.2166339
94086885,-88.87177,26.8,102397.0,1.2166457
94108834,-88.87177,26.8,102397.0,1.2166457
94120032,-89.199425,26.8,102401.0,1.2166933
94130838,-88.95104,26.8,102398.0,1.2166576
94152834,-89.199425,26.789999,102401.0,1.2166933
94164497,-89.28397,26.789999,102402.0,1.2167052
94174345,-88.53884,26.789999,102393.0,1.2165983
94197014,-89.28397,26.8,102402.0,1.2167052
94208498,-88.87177,26.8,102397.0,1.2166457
94218992,-88.87177,26.8,102397.0,1.2166457
94241956,-88.95104,26.789999,102398.0,1.2166576
94254176,-88.87177,26.789999,102397.0,1.2166457
94263957,-88.70267,26.789999,102394.99,1.2166219
94286353,-88.87177,26.789999,102397.0,1.2166457
94296512,-88.95104,26.789999,102398.0,1.2166576
94307030,-88.53884,26.789999,102393.0,1.2165983
94329957,-88.95104,26.789999,102398.0,1.2166576
94342103,-88.87177,26.789999,102397.0,1.2166457
94351956,-88.6234,26.789999,102394.0,1.2166101
94374347,-89.199425,26.789999,102401.0,1.2166933
94385553,-88.787224,26.789999,102396.0,1.2166339
94395964,-88.787224,26.789999,102396.0,1.2166339
94417959,-88.787224,26.8,102396.0,1.2166339
94430146,-88.95104,26.8,102398.0,1.2166576
94440996,-88.53884,26.8,102393.0,1.2165983
94462416,-88.6234,26.8,102394.0,1.2166101
94473900,-89.0356,26.8,102399.0,1.2166696
94484814,-88.787224,26.8,102396.0,1.2166339
94506791,-88.787224,26.789999,102396.0,1.2166339
94518112,-88.45957,26.789999,102392.0,1.2165864
94528830,-88.53884,26.789999,102393.0,1.2165983
94550431,-88.787224,26.789999,102396.0,1.2166339
94561849,-88.2112,26.789999,102388.99,1.2165506
94572913,-88.2112,26.789999,102388.99,1.2165506
94595027,-88.87177,26.789999,102397.0,1.2166457
94606983,-88.70267,26.789999,102394.99,1.2166219
94617013,-88.29047,26.789999,102390.0,1.2165626
94638439,-88.6234,26.789999,102394.0,1.2166101
94649852,-88.29047,26.789999,102390.0,1.2165626
94661022,-88.29047,26.789999,102390.0,1.2165626
94683844,-88.45957,26.789999,102392.0,1.2165864
94694836,-88.2112,26.789999,102388.99,1.2165506
94706343,-88.45957,26.789999,102392.0,1.2165864
94727829,-88.45957,26.789999,102392.0,1.2165864
94739535,-88.29047,26.789999,102390.0,1.2165626
94749131,-88.53884,26.789999,102393.0,1.2165983
94772825,-88.53884,26.789999,102393.0,1.2165983
94784848,-88.12664,26.789999,102388.0,1.2165388
94796348,-88.2112,26.789999,102388.99,1.2165506
94819620,-88.04737,26.789999,102387.0,1.216527
94830498,-87.878265,26.789999,102385.0,1.2165031
94841102,-87.962814,26.789999,102386.0,1.2165151
94861995,-87.962814,26.789999,102386.0,1.2165151
94873602,-88.04737,26.789999,102387.0,1.216527
94883552,-87.62988,26.789999,102382.0,1.2164675
94904913,-88.12664,26.789999,102388.0,1.2165388
94916379,-87.62988,26.789999,102382.0,1.2164675
94927946,-87.798996,26.789999,102384.0,1.2164913
94950002,-87.71444,26.789999,102382.99,1.2164793
94960845,-87.798996,26.789999,102384.0,1.2164913
94972046,-87.962814,26.789999,102386.0,1.2165151
94995079,-87.962814,26.789999,102386.0,1.2165151
95006070,-88.04737,26.789999,102387.0,1.216527
95016828,-88.2112,26.789999,102388.99,1.2165506
95038883,-88.2112,26.789999,102388.99,1.2165506
95051623,-87.798996,26.789999,102384.0,1.2164913
95062341,-87.62988,26.789999,102382.0,1.2164675
95083085,-87.62988,26.789999,102382.0,1.2164675
95095239,-87.21768,26.789999,102376.99,1.216408
95105853,-87.386795,26.789999,102379.0,1.2164319
95127915,-88.37502,26.789999,102391.0,1.2165744
95139915,-88.12664,26.789999,102388.0,1.2165388
95150995,-88.29047,26.789999,102390.0,1.2165626
95173012,-87.878265,26.789999,102385.0,1.2165031
95184504,-88.04737,26.789999,102387.0,1.216527
95195210,-88.37502,26.789999,102391.0,1.2165744
95217020,-88.29047,26.789999,102390.0,1.2165626
95227857,-88.6234,26.789999,102394.0,1.2166101
95238891,-88.29047,26.789999,102390.0,1.2165626
95262349,-88.29047,26.789999,102390.0,1.2165626
95273638,-88.2112,26.789999,102388.99,1.2165506
95283957,-88.37502,26.789999,102391.0,1.2165744
95305052,-88.37502,26.789999,102391.0,1.2165744
95315857,-88.04737,26.789999,102387.0,1.216527
95326893,-87.962814,26.789999,102386.0,1.2165151
95350342,-87.878265,26.789999,102385.0,1.2165031
95361555,-88.37502,26.789999,102391.0,1.2165744
95371229,-87.466064,26.789999,102380.0,1.2164438
95394952,-88.12664,26.789999,102388.0,1.2165388
95406567,-88.2112,26.789999,102388.99,1.2165506
95417108,-88.04737,26.789999,102387.0,1.216527
95438894,-88.37502,26.789999,102391.0,1.2165744
95449835,-87.962814,26.789999,102386.0,1.2165151
95460041,-88.2112,26.789999,102388.99,1.2165506
95483236,-88.37502,26.789999,102391.0,1.2165744
95495233,-87.962814,26.789999,102386.0,1.2165151
95505845,-87.962814,26.789999,102386.0,1.2165151
95527979,-88.45957,26.789999,102392.0,1.2165864
95539941,-87.878265,26.789999,102385.0,1.2165031
95550995,-87.798996,26.789999,102384.0,1.2164913
95573021,-87.962814,26.789999,102386.0,1.2165151
95584499,-88.12664,26.789999,102388.0,1.2165388
95595234,-87.466064,26.789999,102380.0,1.2164438
95617122,-87.71444,26.789999,102382.99,1.2164793
95628503,-88.04737,26.789999,102387.0,1.216527
95639000,-87.798996,26.789999,102384.0,1.2164913
95661019,-87.55061,26.789999,102381.0,1.2164557
95672499,-87.30224,26.789999,102378.0,1.21642
95683251,-87.30224,26.789999,102378.0,1.21642
95705017,-87.386795,26.789999,102379.0,1.2164319
95716506,-87.386795,26.789999,102379.0,1.2164319
95727044,-87.466064,26.789999,102380.0,1.2164438
95749020,-87.386795,26.789999,102379.0,1.2164319
95760499,-87.13841,26.789999,102375.99,1.2163961
95771230,-87.466064,26.789999,102380.0,1.2164438
95793112,-87.30224,26.789999,102378.0,1.21642
95804510,-87.30224,26.789999,102378.0,1.21642
95814994,-87.21768,26.789999,102376.99,1.216408
95836984,-87.466064,26.789999,102380.0,1.2164438
95848498,-87.13841,26.789999,102375.99,1.2163961
95859247,-87.386795,26.789999,102379.0,1.2164319
95881022,-87.30224,26.789999,102378.0,1.21642
95891774,-87.13841,26.789999,102375.99,1.2163961
95902994,-87.30224,26.789999,102378.0,1.21642
95925018,-87.21768,26.789999,102376.99,1.216408
95936506,-87.466064,26.789999,102380.0,1.2164438
95947245,-87.053856,26.789999,102375.0,1.2163844
95969118,-86.89004,26.789999,102373.0,1.2163606
95979858,-87.053856,26.789999,102375.0,1.2163844
95990833,-87.21768,26.789999,102376.99,1.216408
96012241,-87.053856,26.789999,102375.0,1.2163844
96023855,-87.30224,26.789999,102378.0,1.21642
96035246,-87.21768,26.789999,102376.99,1.216408
96057848,-86.641655,26.789999,102369.99,1.2163248
96068832,-86.557106,26.789999,102369.0,1.216313
96079842,-86.96931,26.789999,102374.0,1.2163725
96102408,-87.30224,26.789999,102378.0,1.21642
96113851,-87.21768,26.789999,102376.99,1.216408
96124828,-86.557106,26.789999,102369.0,1.216313
96146793,-87.13841,26.779999,102375.99,1.2163961
96158155,-86.31401,26.779999,102366.0,1.2162774
96168831,-86.80548,26.779999,102372.0,1.2163488
96190411,-86.641655,26.779999,102369.99,1.2163248
96201852,-86.557106,26.779999,102369.0,1.216313
96213013,-86.641655,26.779999,102369.99,1.2163248
96234794,-86.557106,26.779999,102369.0,1.216313
96246130,-86.229454,26.779999,102365.0,1.2162656
96256830,-86.47784,26.779999,102368.0,1.2163012
96279265,-86.557106,26.789999,102369.0,1.216313
96290791,-86.31401,26.789999,102366.0,1.2162774
96302435,-86.229454,26.789999,102365.0,1.2162656
96324031,-86.557106,26.779999,102369.0,1.216313
96335540,-86.47784,26.779999,102368.0,1.2163012
96345973,-86.720924,26.779999,102371.0,1.2163368
96367967,-86.47784,26.779999,102368.0,1.2163012
96379542,-86.144905,26.779999,102363.99,1.2162535
96390433,-86.39328,26.779999,102367.0,1.2162893
96412033,-86.557106,26.779999,102369.0,1.216313
96423592,-86.229454,26.779999,102365.0,1.2162656
96433958,-86.229454,26.779999,102365.0,1.2162656
96457012,-85.98108,26.779999,102362.0,1.2162299
96468573,-86.557106,26.779999,102369.0,1.216313
96479069,-86.39328,26.779999,102367.0,1.2162893
96501121,-86.229454,26.779999,102365.0,1.2162656
96513290,-86.065636,26.779999,102363.0,1.2162417
96523957,-85.23595,26.779999,102353.0,1.216123
96545995,-85.89652,26.779999,102361.0,1.216218
96557548,-85.48432,26.779999,102356.0,1.2161586
96567135,-85.64815,26.779999,102357.99,1.2161822
96589019,-85.23595,26.779999,102353.0,1.216123
96601286,-85.40505,26.779999,102355.0,1.2161467
96610991,-85.56888,26.779999,102357.0,1.2161704
96633549,-85.48432,26.779999,102356.0,1.2161586
96644741,-85.7327,26.779999,102359.0,1.2161943
96655954,-85.7327,26.779999,102359.0,1.2161943
96677963,-84.74447,26.779999,102347.0,1.2160517
96690330,-85.56888,26.779999,102357.0,1.2161704
96699955,-85.320496,26.779999,102354.0,1.2161348
96721629,-85.40505,26.779999,102355.0,1.2161467
96732832,-84.82374,26.779999,102348.0,1.2160635
96743828,-84.987564,26.779999,102350.0,1.2160873
96765950,-84.908295,26.779999,102349.0,1.2160754
96777277,-84.57536,26.779999,102344.99,1.2160279
96787836,-84.82374,26.779999,102348.0,1.2160635
96809635,-85.23595,26.779999,102353.0,1.216123
96820868,-85.23595,26.779999,102353.0,1.216123
96832007,-84.987564,26.779999,102350.0,1.2160873
96853976,-84.987564,26.779999,102350.0,1.2160873
96866423,-84.57536,26.779999,102344.99,1.2160279
96877145,-84.908295,26.779999,102349.0,1.2160754
96899833,-84.49609,26.779999,102344.0,1.216016
96910800,-84.41154,26.779999,102343.0,1.2160041
96921620,-84.41154,26.779999,102343.0,1.2160041
96943941,-84.57536,26.779999,102344.99,1.2160279
96954847,-84.987564,26.779999,102350.0,1.2160873
96966091,-84.65992,26.779999,102346.0,1.2160398
96987829,-84.49609,26.779999,102344.0,1.216016
96999536,-84.908295,26.779999,102349.0,1.2160754
97009545,-83.83552,26.779999,102336.0,1.2159209
97031830,-84.32699,26.779999,102342.0,1.2159922
97042793,-84.078606,26.779999,102338.99,1.2159566
97053846,-84.24772,26.779999,102341.0,1.2159804
97075829,-84.16316,26.779999,102340.0,1.2159685
97087538,-83.587135,26.779999,102332.99,1.2158853
97097554,-83.75096,26.779999,102335.0,1.2159091
97119926,-83.99934,26.779999,102338.0,1.2159448
97130791,-83.75096,26.779999,102335.0,1.2159091
97141130,-83.83552,26.779999,102336.0,1.2159209
97163829,-83.2542,26.779999,102329.0,1.2158378
97174788,-83.174934,26.779999,102328.0,1.2158259
97186513,-83.587135,26.779999,102332.99,1.2158853
97209641,-83.33876,26.769999,102330.0,1.2158496
97220847,-83.75096,26.769999,102335.0,1.2159091
97231831,-83.2542,26.769999,102329.0,1.2158378
97253972,-83.91479,26.779999,102337.0,1.2159328
97265358,-83.33876,26.779999,102330.0,1.2158496
97275832,-83.42331,26.779999,102331.0,1.2158616
97297574,-83.42331,26.779999,102331.0,1.2158616
97308829,-83.42331,26.779999,102331.0,1.2158616
97319970,-82.842,26.779999,102324.0,1.2157784
97341019,-83.2542,26.779999,102329.0,1.2158378
97353365,-83.00583,26.779999,102325.99,1.2158021
97363831,-83.09038,26.779999,102326.99,1.215814
97386418,-83.174934,26.769999,102328.0,1.2158259
97397953,-82.842,26.769999,102324.0,1.2157784
97409659,-82.67818,26.769999,102322.0,1.2157546
97431003,-82.76273,26.769999,102323.0,1.2157665
97442549,-82.76273,26.769999,102323.0,1.2157665
97453035,-82.51435,26.769999,102319.99,1.2157308
97475955,-82.345245,26.769999,102318.0,1.2157071
97487545,-82.67818,26.769999,102322.0,1.2157546
97497967,-82.76273,26.769999,102323.0,1.2157665
97519956,-82.51435,26.769999,102319.99,1.2157308
97530564,-82.59362,26.769999,102321.0,1.2157427
97541014,-82.345245,26.769999,102318.0,1.2157071
97563958,-82.18142,26.769999,102316.0,1.2156833
97575537,-82.09687,26.769999,102315.0,1.2156714
97585547,-82.0176,26.769999,102313.99,1.2156595
97607842,-82.265976,26.769999,102317.0,1.2156953
97618801,-82.09687,26.769999,102315.0,1.2156714
97629928,-81.933044,26.769999,102313.0,1.2156477
97651927,-82.345245,26.769999,102318.0,1.2157071
97662797,-82.0176,26.769999,102313.99,1.2156595
97673621,-81.933044,26.769999,102313.0,1.2156477
97695840,-81.52084,26.769999,102307.99,1.2155882
97706799,-81.43629,26.769999,102307.0,1.2155764
97717924,-81.68467,26.769999,102310.0,1.215612
97739838,-81.853775,26.769999,102312.0,1.2156358
97750804,-81.6054,26.769999,102309.0,1.2156001
97761547,-81.68467,26.769999,102310.0,1.215612
97784252,-81.76922,26.769999,102311.0,1.215624
97796554,-81.6054,26.769999,102309.0,1.2156001
97806792,-81.35702,26.769999,102306.0,1.2155645
97829542,-81.853775,26.769999,102312.0,1.2156358
97841110,-81.6054,26.769999,102309.0,1.2156001
97852752,-81.43629,26.769999,102307.0,1.2155764
97875715,-81.52084,26.769999,102307.99,1.2155882
97888031,-81.27246,26.769999,102305.0,1.2155527
97898002,-80.86026,26.769999,102300.0,1.2154932
97920377,-81.024086,26.769999,102301.99,1.2155169
97932883,-81.43629,26.769999,102307.0,1.2155764
97944228,-81.35702,26.769999,102306.0,1.2155645
97967963,-81.19319,26.769999,102304.0,1.2155408
97980529,-81.19319,26.769999,102304.0,1.2155408
97991400,-81.19319,26.769999,102304.0,1.2155408
98012348,-80.77571,26.769999,102299.0,1.2154814
98024067,-81.10864,26.769999,102303.0,1.2155288
98035591,-81.52084,26.769999,102307.99,1.2155882
98056234,-81.19319,26.76,102304.0,1.2155408
98068953,-80.77571,26.76,102299.0,1.2154814
98080437,-80.44806,26.76,102294.99,1.2154337
98103945,-81.43629,26.76,102307.0,1.2155764
98115786,-81.19319,26.76,102304.0,1.2155408
98126886,-81.10864,26.76,102303.0,1.2155288
98148917,-80.611885,26.76,102297.0,1.2154576
98159911,-80.52733,26.76,102296.0,1.2154458
98171230,-80.36351,26.76,102294.0,1.2154219
98194819,-80.77571,26.76,102299.0,1.2154814
98206566,-80.52733,26.76,102296.0,1.2154458
98217011,-80.36351,26.76,102294.0,1.2154219
98239003,-80.611885,26.76,102297.0,1.2154576
98250902,-80.11513,26.76,102291.0,1.2153863
98261012,-80.36351,26.76,102294.0,1.2154219
98283220,-80.28423,26.769999,102293.0,1.2154101
98294499,-80.36351,26.769999,102294.0,1.2154219
98305013,-80.11513,26.769999,102291.0,1.2153863
98326794,-79.86675,26.76,102288.0,1.2153506
98337849,-79.9513,26.76,102288.99,1.2153624
98348972,-79.70293,26.76,102286.0,1.2153269
98371237,-80.28423,26.76,102293.0,1.2154101
98383237,-80.03586,26.76,102290.0,1.2153745
98393848,-79.61837,26.76,102285.0,1.215315
98415833,-80.199684,26.76,102292.0,1.2153982
98427709,-79.86675,26.76,102288.0,1.2153506
98438801,-79.5391,26.76,102284.0,1.2153031
98462344,-79.78748,26.76,102287.0,1.2153388
98473555,-79.20617,26.76,102280.0,1.2152556
98483956,-79.37528,26.76,102282.0,1.2152793
98506896,-79.37528,26.769999,102282.0,1.2152793
98517598,-79.5391,26.769999,102284.0,1.2153031
98527954,-79.20617,26.769999,102280.0,1.2152556
98550463,-78.878525,26.76,102275.99,1.2152079
98561612,-79.290726,26.76,102281.0,1.2152674
98571241,-79.1269,26.76,102279.0,1.2152437
98594977,-79.20617,26.76,102280.0,1.2152556
98606566,-78.70941,26.76,102274.0,1.2151843
98617036,-79.20617,26.76,102280.0,1.2152556
98638343,-79.1269,26.76,102279.0,1.2152437
98649553,-79.04234,26.76,102278.0,1.2152318
98659255,-79.04234,26.76,102278.0,1.2152318
98681836,-79.1269,26.769999,102279.0,1.2152437
98692834,-78.957794,26.769999,102276.99,1.2152199
98703828,-78.54559,26.769999,102272.0,1.2151605
98725951,-78.79397,26.76,102275.0,1.2151961
98736861,-78.46104,26.76,102271.0,1.2151487
98747321,-78.957794,26.76,102276.99,1.2152199
98770351,-79.1269,26.76,102279.0,1.2152437
98782079,-78.63014,26.76,102273.0,1.2151724
98792832,-78.54559,26.76,102272.0,1.2151605
98814992,-78.13339,26.76,102267.0,1.2151011
98826897,-78.048836,26.76,102266.0,1.2150892
98837011,-77.88501,26.76,102263.99,1.2150654
98858443,-78.29721,26.76,102269.0,1.2151248
98870102,-78.54559,26.76,102272.0,1.2151605
98880832,-78.63014,26.76,102273.0,1.2151724
98902830,-78.13339,26.76,102267.0,1.2151011
98913851,-78.048836,26.76,102266.0,1.2150892
98925546,-77.96957,26.76,102265.0,1.2150774
98947942,-78.13339,26.76,102267.0,1.2151011
98958797,-78.048836,26.76,102266.0,1.2150892
98969952,-77.88501,26.76,102263.99,1.2150654
98991829,-77.557365,26.76,102260.0,1.2150179
99002790,-77.636635,26.76,102261.0,1.2150298
99013538,-77.30898,26.76,102257.0,1.2149823
99035828,-77.224434,26.76,102256.0,1.2149705
99046828,-77.80045,26.76,102263.0,1.2150536
99057913,-77.47281,26.76,102259.0,1.2150061
99079830,-77.80045,26.76,102263.0,1.2150536
99091536,-77.13988,26.76,102255.0,1.2149585
99101543,-77.13988,26.76,102255.0,1.2149585
99123837,-77.224434,26.76,102256.0,1.2149705
99134789,-77.38825,26.76,102257.99,1.2149941
99145841,-76.97605,26.76,102253.0,1.2149348
99167835,-77.13988,26.76,102255.0,1.2149585
99179537,-77.224434,26.76,102256.0,1.2149705
99189564,-76.97605,26.76,102253.0,1.2149348
99211919,-77.06061,26.76,102254.0,1.2149466
99222792,-76.97605,26.76,102253.0,1.2149348
99233913,-76.97605,26.76,102253.0,1.2149348
99255829,-77.224434,26.76,102256.0,1.2149705
99266789,-76.400024,26.76,102246.0,1.2148516
99278512,-76.315475,26.76,102244.99,1.2148397
99301563,-76.64312,26.75,102249.0,1.2148873
99312884,-76.315475,26.75,102244.99,1.2148397
99323830,-76.479294,26.75,102247.0,1.2148635
99345853,-76.400024,26.75,102246.0,1.2148516
99357288,-76.315475,26.75,102244.99,1.2148397
99367838,-76.400024,26.75,102246.0,1.2148516
99390513,-76.23092,26.75,102244.0,1.2148279
99401912,-76.15165,26.75,102243.0,1.214816
99413613,-76.15165,26.75,102243.0,1.214816
99435842,-76.23092,26.75,102244.0,1.2148279
99446800,-76.06709,26.75,102242.0,1.214804
99457915,-76.400024,26.75,102246.0,1.2148516
99479841,-76.23092,26.75,102244.0,1.2148279
99490801,-76.315475,26.75,102244.99,1.2148397
99501552,-75.81872,26.75,102238.99,1.2147684
99523838,-75.73945,26.75,102238.0,1.2147566
99535577,-75.903275,26.75,102240.0,1.2147803
99545037,-75.491066,26.75,102235.0,1.214721
99569127,-75.73945,26.75,102238.0,1.2147566
99581675,-75.158134,26.75,102231.0,1.2146734
99593031,-75.40652,26.75,102234.0,1.214709
99614799,-75.570335,26.75,102236.0,1.2147328
99625848,-75.65489,26.75,102237.0,1.2147447
99636840,-75.65489,26.75,102237.0,1.2147447
99659520,-75.073586,26.74,102230.0,1.2146615
99670511,-74.8252,26.74,102226.99,1.2146257
99681000,-75.158134,26.74,102231.0,1.2146734
99703953,-75.073586,26.75,102230.0,1.2146615
99716023,-75.158134,26.75,102231.0,1.2146734
99725953,-75.158134,26.75,102231.0,1.2146734
99748239,-74.994316,26.75,102229.0,1.2146497
99760945,-74.994316,26.75,102229.0,1.2146497
99772238,-74.994316,26.75,102229.0,1.2146497
99796313,-74.90976,26.75,102228.0,1.2146378
99808854,-74.74593,26.75,102225.99,1.2146139
99820340,-74.58211,26.75,102224.0,1.2145902
99841953,-74.58211,26.74,102224.0,1.2145902
99852853,-74.249176,26.74,102219.99,1.2145426
99864821,-74.661385,26.74,102225.0,1.2146021
99887944,-74.413,26.74,102222.0,1.2145665
99900041,-74.58211,26.74,102224.0,1.2145902
99912027,-74.661385,26.74,102225.0,1.2146021
99935950,-74.33373,26.74,102221.0,1.2145545
99948022,-74.33373,26.74,102221.0,1.2145545
99959946,-74.49756,26.74,102223.0,1.2145784
99983853,-74.08536,26.74,102218.0,1.2145189
99995949,-74.249176,26.74,102219.99,1.2145426
100008411,-74.0008,26.74,102217.0,1.2145071
100032041,-73.836975,26.73,102215.0,1.2144833
100043947,-74.08536,26.73,102218.0,1.2145189
100056024,-73.836975,26.73,102215.0,1.2144833
100080023,-73.916245,26.74,102216.0,1.2144952
100092027,-73.5886,26.74,102212.0,1.2144476
100103958,-73.836975,26.74,102215.0,1.2144833
100128026,-73.34022,26.73,102209.0,1.214412
100138545,-74.08536,26.73,102218.0,1.2145189
100149121,-74.0008,26.73,102217.0,1.2145071
100171374,-73.752426,26.73,102213.99,1.2144713
100182561,-73.752426,26.73,102213.99,1.2144713
100193012,-73.25567,26.73,102207.99,1.2144
100216142,-73.5886,26.73,102212.0,1.2144476
100227953,-73.09184,26.73,102206.0,1.2143763
100240140,-73.25567,26.73,102207.99,1.2144
100264101,-73.09184,26.73,102206.0,1.2143763
100275947,-72.75891,26.73,102201.99,1.2143288
100288114,-73.007286,26.73,102205.0,1.2143645
100311826,-73.25567,26.73,102207.99,1.2144
100323947,-72.92802,26.73,102204.0,1.2143526
100333966,-73.007286,26.73,102205.0,1.2143645
100356007,-73.25567,26.73,102207.99,1.2144
100368421,-73.007286,26.73,102205.0,1.2143645
100379516,-73.007286,26.73,102205.0,1.2143645
100400129,-72.92802,26.73,102204.0,1.2143526
100411970,-72.51054,26.73,102199.0,1.2142932
100424045,-72.51054,26.73,102199.0,1.2142932
100447767,-72.75891,26.73,102201.99,1.2143288
100460043,-72.595085,26.73,102200.0,1.214305
100472023,-72.67964,26.73,102200.99,1.2143168
100493964,-72.43127,26.73,102198.0,1.2142813
100505567,-72.43127,26.73,102198.0,1.2142813
100515965,-72.182884,26.73,102194.99,1.2142456
100539515,-72.84347,26.73,102203.0,1.2143407
100549647,-72.09833,26.73,102194.0,1.2142338
100560131,-72.34671,26.73,102197.0,1.2142694
100584041,-72.26744,26.73,102196.0,1.2142575
100596030,-72.01906,26.73,102193.0,1.2142218
100608501,-72.182884,26.73,102194.99,1.2142456
100632118,-71.77068,26.72,102190.0,1.2141862
100643953,-72.09833,26.72,102194.0,1.2142338
100655974,-71.84995,26.72,102191.0,1.2141981
100680120,-72.51054,26.72,102199.0,1.2142932
100692062,-71.60158,26.72,102188.0,1.2141625
100701998,-71.93451,26.72,102192.0,1.21421
100723958,-71.68613,26.72,102188.99,1.2141743
100736488,-71.77068,26.72,102190.0,1.2141862
100747336,-71.10482,26.72,102182.0,1.2140912
100768039,-71.353195,26.72,102185.0,1.2141268
100780822,-70.940994,26.72,102180.0,1.2140675
100792104,-71.10482,26.72,102182.0,1.2140912
100816728,-70.940994,26.72,102180.0,1.2140675
100828499,-71.02555,26.72,102181.0,1.2140793
100840237,-70.77717,26.72,102178.0,1.2140436
100864102,-71.10482,26.72,102182.0,1.2140912
100875991,-70.861725,26.72,102179.0,1.2140555
100888047,-70.77717,26.72,102178.0,1.2140436
100909958,-70.52879,26.72,102175.0,1.214008
100921563,-70.69262,26.72,102176.99,1.2140317
100931964,-70.77717,26.72,102178.0,1.2140436
100955395,-70.60806,26.72,102175.99,1.2140198
100965650,-70.52879,26.72,102175.0,1.214008
100976037,-70.69262,26.72,102176.99,1.2140317
101000117,-70.52879,26.72,102175.0,1.214008
101012032,-70.36497,26.72,102173.0,1.2139843
101024022,-70.44424,26.72,102174.0,1.2139962
101045956,-70.77717,26.72,102178.0,1.2140436
101057599,-70.60806,26.72,102175.99,1.2140198
101068031,-70.36497,26.72,102173.0,1.2139843
101088117,-70.36497,26.72,102173.0,1.2139843
101100080,-70.52879,26.72,102175.0,1.214008
101112119,-70.69262,26.72,102176.99,1.2140317
101136119,-70.19586,26.72,102171.0,1.2139605
101148178,-70.44424,26.72,102174.0,1.2139962
101160117,-70.36497,26.72,102173.0,1.2139843
101184116,-70.19586,26.72,102171.0,1.2139605
101196082,-70.11659,26.72,102169.99,1.2139485
101208408,-70.28042,26.72,102172.0,1.2139723
101229001,-70.28042,26.72,102172.0,1.2139723
101240502,-70.11659,26.72,102169.99,1.2139485
101251407,-69.78366,26.72,102166.0,1.213901
101273038,-70.36497,26.72,102173.0,1.2139843
101284500,-69.619835,26.72,102163.99,1.2138772
101294034,-70.032036,26.72,102169.0,1.2139367
101316005,-69.86821,26.72,102167.0,1.213913
101326501,-69.78366,26.72,102166.0,1.213901
101337019,-69.86821,26.72,102167.0,1.213913
101359930,-69.86821,26.72,102167.0,1.213913
101370500,-69.53528,26.72,102163.0,1.2138654
101379956,-69.78366,26.72,102166.0,1.213901
101401965,-69.86821,26.72,102167.0,1.213913
101413559,-69.37146,26.72,102161.0,1.2138417
101423917,-69.619835,26.72,102163.99,1.2138772
101445954,-69.53528,26.72,102163.0,1.2138654
101456960,-69.20235,26.72,102159.0,1.213818
101468245,-69.53528,26.72,102163.0,1.2138654
101492349,-69.37146,26.72,102161.0,1.2138417
101504822,-69.20235,26.72,102159.0,1.213818
101516346,-69.20235,26.72,102159.0,1.213818
101540347,-68.8747,26.72,102155.0,1.2137704
101552730,-69.12308,26.72,102157.99,1.2138059
101564025,-68.95926,26.72,102156.0,1.2137823
101588241,-69.03853,26.72,102157.0,1.2137941
101600872,-69.20235,26.72,102159.0,1.213818
101611970,-69.20235,26.72,102159.0,1.213818
101635340,-68.790146,26.71,102154.0,1.2137585
101645655,-68.377945,26.71,102149.0,1.2136991
101655959,-68.8747,26.71,102155.0,1.2137704
101679953,-68.62632,26.71,102151.99,1.2137346
101692032,-68.62632,26.71,102151.99,1.2137346
101701971,-68.71088,26.71,102153.0,1.2137467
101724314,-68.4625,26.71,102150.0,1.213711
101736733,-68.4625,26.71,102150.0,1.213711
101747956,-68.377945,26.71,102149.0,1.2136991
101771967,-68.04501,26.71,102144.99,1.2136515
101784452,-68.4625,26.71,102150.0,1.213711
101795499,-68.377945,26.71,102149.0,1.2136991
101815965,-68.54177,26.71,102150.99,1.2137228
101828037,-68.29339,26.71,102148.0,1.2136872
101837965,-68.29339,26.71,102148.0,1.2136872
101859519,-68.12957,26.71,102146.0,1.2136635
101869635,-68.4625,26.71,102150.0,1.213711
101879248,-67.965744,26.71,102144.0,1.2136397
101901020,-68.12957,26.71,102146.0,1.2136635
101911750,-68.4625,26.71,102150.0,1.213711
101922994,-67.548256,26.71,102138.99,1.2135801
101945019,-67.71736,26.71,102141.0,1.2136041
101956497,-67.965744,26.71,102144.0,1.2136397
101966434,-67.71736,26.71,102141.0,1.2136041
101988886,-67.71736,26.71,102141.0,1.2136041
101999840,-67.63281,26.71,102140.0,1.2135922
102010836,-67.136055,26.71,102134.0,1.2135209
102033219,-67.46899,26.71,102138.0,1.2135684
102045433,-67.88119,26.71,102143.0,1.2136278
102055960,-67.46899,26.71,102138.0,1.2135684
102077957,-67.965744,26.71,102144.0,1.2136397
102089569,-68.12957,26.71,102146.0,1.2136635
102099956,-67.80192,26.71,102142.0,1.2136159
102121967,-67.965744,26.71,102144.0,1.2136397
102134098,-67.38443,26.71,102137.0,1.2135565
102143963,-67.136055,26.71,102134.0,1.2135209
102165958,-67.0515,26.71,102132.99,1.2135088
102177669,-67.22061,26.71,102135.0,1.2135328
102189726,-66.97223,26.71,102132.0,1.2134972
102211965,-66.88768,26.71,102131.0,1.2134852
102223550,-67.136055,26.71,102134.0,1.2135209
102233136,-66.88768,26.71,102131.0,1.2134852
102256017,-66.97223,26.699999,102132.0,1.2134972
102266500,-66.55474,26.699999,102126.99,1.2134376
102277552,-66.80841,26.699999,102130.0,1.2134733
102297163,-67.22061,26.71,102135.0,1.2135328
102309336,-67.136055,26.71,102134.0,1.2135209
102319956,-66.31165,26.71,102124.0,1.213402
102341553,-66.80841,26.71,102130.0,1.2134733
102352790,-67.30516,26.71,102136.0,1.2135446
102364030,-67.46899,26.71,102138.0,1.2135684
102385966,-67.0515,26.71,102132.99,1.2135088
102398182,-67.0515,26.71,102132.99,1.2135088
102409019,-66.55474,26.71,102126.99,1.2134376
102432009,-66.723854,26.71,102129.0,1.2134615
102442546,-67.22061,26.71,102135.0,1.2135328
102452014,-66.88768,26.71,102131.0,1.2134852
102473018,-66.80841,26.71,102130.0,1.2134733
102485324,-66.31165,26.71,102124.0,1.213402
102494995,-66.80841,26.71,102130.0,1.2134733
102517553,-66.723854,26.71,102129.0,1.2134615
102528735,-66.47547,26.71,102125.99,1.2134258
102539955,-66.88768,26.71,102131.0,1.2134852
102561097,-67.136055,26.71,102134.0,1.2135209
102573326,-66.80841,26.71,102130.0,1.2134733
102583962,-66.723854,26.71,102129.0,1.2134615
102605454,-66.88768,26.71,102131.0,1.2134852
102616732,-66.6393,26.71,102128.0,1.2134496
102627955,-66.80841,26.71,102130.0,1.2134733
102649020,-66.97223,26.699999,102132.0,1.2134972
102659545,-66.6393,26.699999,102128.0,1.2134496
102669957,-65.97872,26.699999,102119.99,1.2133545
102691965,-66.47547,26.699999,102125.99,1.2134258
102703537,-66.2271,26.699999,102123.0,1.2133902
102713029,-65.97872,26.699999,102119.99,1.2133545
102734991,-66.55474,26.699999,102126.99,1.2134376
102746500,-66.31165,26.699999,102124.0,1.213402
102757513,-66.6393,26.699999,102128.0,1.2134496
102779954,-66.723854,26.699999,102129.0,1.2134615
102791538,-66.55474,26.699999,102126.99,1.2134376
102801963,-66.723854,26.699999,102129.0,1.2134615
102823955,-66.47547,26.699999,102125.99,1.2134258
102835548,-66.55474,26.699999,102126.99,1.2134376
102845546,-66.31165,26.699999,102124.0,1.213402
102866991,-66.31165,26.699999,102124.0,1.213402
102878500,-65.97872,26.699999,102119.99,1.2133545
102889118,-66.47547,26.699999,102125.99,1.2134258
102910992,-66.80841,26.699999,102130.0,1.2134733
102922546,-66.39092,26.699999,102125.0,1.213414
102933547,-65.23358,26.699999,102111.0,1.2132475
102956021,-66.88768,26.699999,102131.0,1.2134852
102967546,-66.6393,26.699999,102128.0,1.2134496
102977971,-66.31165,26.699999,102124.0,1.213402
103000004,-66.80841,26.699999,102130.0,1.2134733
103011546,-66.31165,26.699999,102124.0,1.213402
103021461,-66.55474,26.699999,102126.99,1.2134376
103043874,-66.6393,26.699999,102128.0,1.2134496
103054791,-66.2271,26.699999,102123.0,1.2133902
103065935,-66.723854,26.699999,102129.0,1.2134615
103088036,-65.894165,26.699999,102119.0,1.2133427
103099546,-66.39092,26.699999,102125.0,1.213414
103109966,-66.31165,26.699999,102124.0,1.213402
103131968,-66.6393,26.699999,102128.0,1.2134496
103143547,-66.47547,26.699999,102125.99,1.2134258
103153964,-65.814896,26.699999,102118.0,1.2133307
103175964,-66.6393,26.699999,102128.0,1.2134496
103187545,-66.31165,26.699999,102124.0,1.213402
103197965,-65.894165,26.699999,102119.0,1.2133427
103219962,-66.39092,26.699999,102125.0,1.213414
103230545,-66.2271,26.699999,102123.0,1.2133902
103241019,-66.31165,26.699999,102124.0,1.213402
103263962,-65.64579,26.699999,102116.0,1.213307
103275543,-66.47547,26.699999,102125.99,1.2134258
103285541,-66.14254,26.699999,102122.0,1.2133783
103307830,-66.06327,26.689999,102121.0,1.2133664
103318795,-66.14254,26.689999,102122.0,1.2133783
103329923,-66.2271,26.689999,102123.0,1.2133902
103351935,-65.73034,26.689999,102117.0,1.213319
103362797,-66.06327,26.689999,102121.0,1.2133664
103373544,-66.2271,26.689999,102123.0,1.2133902
103395836,-65.814896,26.689999,102118.0,1.2133307
103406789,-66.06327,26.689999,102121.0,1.2133664
103417914,-65.894165,26.689999,102119.0,1.2133427
103439830,-65.894165,26.689999,102119.0,1.2133427
103450799,-65.894165,26.689999,102119.0,1.2133427
103461546,-66.14254,26.689999,102122.0,1.2133783
103483832,-65.97872,26.689999,102119.99,1.2133545
103494828,-65.814896,26.689999,102118.0,1.2133307
103505913,-65.73034,26.689999,102117.0,1.213319
103527841,-65.97872,26.689999,102119.99,1.2133545
103539537,-66.2271,26.689999,102123.0,1.2133902
103549712,-65.97872,26.689999,102119.99,1.2133545
103572302,-66.31165,26.689999,102124.0,1.213402
103584898,-65.894165,26.689999,102119.0,1.2133427
103596245,-65.894165,26.689999,102119.0,1.2133427
103619549,-66.31165,26.68,102124.0,1.213402
103630544,-65.97872,26.68,102119.99,1.2133545
103641106,-66.6393,26.68,102128.0,1.2134496
103662002,-66.14254,26.68,102122.0,1.2133783
103672852,-65.64579,26.68,102116.0,1.213307
103684240,-65.894165,26.68,102119.0,1.2133427
103708350,-66.14254,26.68,102122.0,1.2133783
103720877,-65.894165,26.68,102119.0,1.2133427
103732031,-66.06327,26.68,102121.0,1.2133664
103755410,-66.06327,26.68,102121.0,1.2133664
103765634,-66.31165,26.68,102124.0,1.213402
103776028,-65.894165,26.68,102119.0,1.2133427
103800046,-66.2271,26.68,102123.0,1.2133902
103811950,-65.97872,26.68,102119.99,1.2133545
103821960,-66.2271,26.68,102123.0,1.2133902
103843956,-66.14254,26.68,102122.0,1.2133783
103854548,-65.64579,26.68,102116.0,1.213307
103865012,-66.31165,26.68,102124.0,1.213402
103885957,-66.06327,26.68,102121.0,1.2133664
103896824,-65.814896,26.68,102118.0,1.2133307
103908244,-65.814896,26.68,102118.0,1.2133307
103932239,-66.06327,26.68,102121.0,1.2133664
103944854,-65.894165,26.68,102119.0,1.2133427
103956349,-65.73034,26.68,102117.0,1.213319
103980348,-66.47547,26.68,102125.99,1.2134258
103992882,-66.14254,26.68,102122.0,1.2133783
104004356,-66.723854,26.68,102129.0,1.2134615
104025912,-65.894165,26.67,102119.0,1.2133427
104037564,-65.73034,26.67,102117.0,1.213319
104048043,-65.73034,26.67,102117.0,1.213319
104069963,-66.06327,26.67,102121.0,1.2133664
104080855,-66.14254,26.67,102122.0,1.2133783
104092232,-65.97872,26.67,102119.99,1.2133545
104115388,-65.64579,26.67,102116.0,1.213307
104126547,-66.14254,26.67,102122.0,1.2133783
104137110,-65.814896,26.67,102118.0,1.2133307
104157995,-66.06327,26.67,102121.0,1.2133664
104168822,-66.2271,26.67,102123.0,1.2133902
104180395,-65.97872,26.67,102119.99,1.2133545
104204241,-65.894165,26.67,102119.0,1.2133427
104216879,-65.73034,26.67,102117.0,1.213319
104227958,-65.73034,26.67,102117.0,1.213319
104251967,-65.814896,26.67,102118.0,1.2133307
104263933,-66.06327,26.67,102121.0,1.2133664
104274996,-66.06327,26.67,102121.0,1.2133664
104298356,-65.64579,26.66,102116.0,1.213307
104309645,-65.97872,26.66,102119.99,1.2133545
104319965,-66.14254,26.66,102122.0,1.2133783
104342816,-65.97872,26.66,102119.99,1.2133545
104354503,-65.97872,26.66,102119.99,1.2133545
104364039,-66.14254,26.66,102122.0,1.2133783
104386993,-65.64579,26.66,102116.0,1.213307
104398906,-66.2271,26.66,102123.0,1.2133902
104410335,-65.97872,26.66,102119.99,1.2133545
104431956,-66.06327,26.66,102121.0,1.2133664
104443553,-65.97872,26.66,102119.99,1.2133545
104453122,-65.97872,26.66,102119.99,1.2133545
104474992,-66.14254,26.66,102122.0,1.2133783
104486849,-66.14254,26.66,102122.0,1.2133783
104498336,-65.97872,26.66,102119.99,1.2133545
104519217,-66.6393,26.66,102128.0,1.2134496
104530500,-66.14254,26.66,102122.0,1.2133783
104541013,-66.14254,26.66,102122.0,1.2133783
104563007,-65.894165,26.66,102119.0,1.2133427
104574866,-66.55474,26.66,102126.99,1.2134376
104586358,-65.73034,26.66,102117.0,1.213319
104607061,-66.2271,26.66,102123.0,1.2133902
104618501,-66.06327,26.66,102121.0,1.2133664
104629014,-66.39092,26.66,102125.0,1.213414
104651031,-66.31165,26.66,102124.0,1.213402
104662923,-66.31165,26.66,102124.0,1.213402
104674310,-65.894165,26.66,102119.0,1.2133427
104695956,-66.47547,26.66,102125.99,1.2134258
104707545,-66.55474,26.66,102126.99,1.2134376
104718935,-66.06327,26.66,102121.0,1.2133664
104739956,-66.88768,26.66,102131.0,1.2134852
104751696,-66.06327,26.66,102121.0,1.2133664
104763001,-65.814896,26.66,102118.0,1.2133307
104783958,-66.97223,26.66,102132.0,1.2134972
104795598,-66.31165,26.66,102124.0,1.213402
104807007,-66.14254,26.66,102122.0,1.2133783
104829016,-66.6393,26.66,102128.0,1.2134496
104840501,-66.47547,26.66,102125.99,1.2134258
104851000,-66.47547,26.66,102125.99,1.2134258
104874360,-66.55474,26.66,102126.99,1.2134376
104885555,-66.47547,26.66,102125.99,1.2134258
104895967,-66.723854,26.66,102129.0,1.2134615
104919014,-66.47547,26.65,102125.99,1.2134258
104930567,-66.31165,26.65,102124.0,1.213402
104941010,-66.31165,26.65,102124.0,1.213402
104963002,-66.14254,26.65,102122.0,1.2133783
104974787,-66.55474,26.65,102126.99,1.2134376
104986333,-66.55474,26.65,102126.99,1.2134376
105009014,-66.39092,26.65,102125.0,1.213414
105020500,-66.06327,26.65,102121.0,1.2133664
105030517,-66.80841,26.65,102130.0,1.2134733
105052005,-66.47547,26.65,102125.99,1.2134258
105063593,-66.6393,26.65,102128.0,1.2134496
105073966,-66.39092,26.65,102125.0,1.213414
105095001,-66.6393,26.65,102128.0,1.2134496
105106499,-66.14254,26.65,102122.0,1.2133783
105117020,-66.55474,26.65,102126.99,1.2134376
105137963,-66.2271,26.65,102123.0,1.2133902
105150091,-66.14254,26.65,102122.0,1.2133783
105161244,-66.39092,26.65,102125.0,1.213414
105181022,-66.31165,26.65,102124.0,1.213402
105192499,-65.73034,26.65,102117.0,1.213319
105201955,-66.06327,26.65,102121.0,1.2133664
105225250,-66.47547,26.65,102125.99,1.2134258
105235580,-66.2271,26.65,102123.0,1.2133902
105246333,-66.55474,26.65,102126.99,1.2134376
105265955,-66.14254,26.65,102122.0,1.2133783
105278218,-65.894165,26.65,102119.0,1.2133427
105289257,-65.894165,26.65,102119.0,1.2133427
105310236,-66.31165,26.65,102124.0,1.213402
105321609,-66.2271,26.65,102123.0,1.2133902
105331956,-66.6393,26.65,102128.0,1.2134496
105353025,-66.55474,26.65,102126.99,1.2134376
105364501,-66.55474,26.65,102126.99,1.2134376
105375030,-66.31165,26.65,102124.0,1.213402
105396032,-66.06327,26.64,102121.0,1.2133664
105407540,-66.55474,26.64,102126.99,1.2134376
105417042,-67.136055,26.64,102134.0,1.2135209
105439840,-66.55474,26.64,102126.99,1.2134376
105450800,-66.80841,26.64,102130.0,1.2134733
105461895,-66.97223,26.64,102132.0,1.2134972
105483839,-67.22061,26.64,102135.0,1.2135328
105494801,-66.97223,26.64,102132.0,1.2134972
105505554,-66.723854,26.64,102129.0,1.2134615
105527838,-66.80841,26.64,102130.0,1.2134733
105538885,-66.2271,26.64,102123.0,1.2133902
105549939,-66.14254,26.64,102122.0,1.2133783
105571847,-66.47547,26.64,102125.99,1.2134258
105582800,-66.6393,26.64,102128.0,1.2134496
105594403,-66.6393,26.64,102128.0,1.2134496
105617962,-66.31165,26.63,102124.0,1.213402
105628928,-66.2271,26.63,102123.0,1.2133902
105639830,-66.31165,26.63,102124.0,1.213402
105661934,-66.39092,26.63,102125.0,1.213414
105673362,-66.2271,26.63,102123.0,1.2133902
105683941,-66.47547,26.63,102125.99,1.2134258
105705553,-65.894165,26.63,102119.0,1.2133427
105716849,-66.39092,26.63,102125.0,1.213414
105727830,-65.814896,26.63,102118.0,1.2133307
