timestamp,states[0],states[1],states[2],states[3],states[4],states[5],states[6],states[7],states[8],states[9],states[10],states[11],states[12],states[13],states[14],states[15],states[16],states[17],states[18],states[19],states[20],states[21],states[22],states[23],vibe[0],vibe[1],vibe[2],covariances[0],covariances[1],covariances[2],covariances[3],covariances[4],covariances[5],covariances[6],covariances[7],covariances[8],covariances[9],covariances[10],covariances[11],covariances[12],covariances[13],covariances[14],covariances[15],covariances[16],covariances[17],covariances[18],covariances[19],covariances[20],covariances[21],covariances[22],covariances[23],control_mode_flags,pos_horiz_accuracy,pos_vert_accuracy,mag_test_ratio,vel_test_ratio,pos_test_ratio,hgt_test_ratio,tas_test_ratio,hagl_test_ratio,beta_test_ratio,time_slip,gps_check_fail_flags,filter_fault_flags,innovation_check_flags,solution_status_flags,n_states,pre_flt_fail,health_flags,timeout_flags
95807984,0.98309046,-0.036978453,0.018691625,0.1783714,-0.0064000417,0.026008483,0.0060796905,0.20122685,0.19683518,0.07026485,3.1802076e-05,3.6694605e-06,3.3661247e-05,1.4707771e-05,1.1125261e-05,-0.00036977103,0.24975215,0.041693304,0.3779116,0.0,0.0,0.0,0.0,0.0,2.4468216e-09,2.7212562e-05,0.0006763645,1.3130124e-06,4.3747128e-05,4.370878e-05,3.782956e-05,0.014611133,0.01461452,0.010322009,0.072350144,0.07235214,0.056055337,1.067418e-11,1.0691579e-11,1.9156452e-11,9.888245e-07,9.86608e-07,5.000007e-08,0.0,0.0,0.0,0.0,0.0,0.0,0.0,0.0,535,0.38039753,0.23676008,0.004789201,0.010678714,0.0072397534,0.007264145,0.0,0.0,0.0,0.020001,0,0,0,831,24,0,0,0
96008786,0.98307884,-0.03710699,0.018760018,0.17840184,-0.006727095,0.015629917,0.0027536508,0.19656831,0.1846098,0.061340578,3.1873205e-05,3.6445556e-06,3.3595017e-05,1.4679456e-05,1.1025153e-05,-0.00036567656,0.24975215,0.041693304,0.3779116,0.0,0.0,0.0,0.0,0.0,1.6740842e-08,8.768843e-05,0.0021302248,1.3072389e-06,4.3562624e-05,4.3523476e-05,3.7699083e-05,0.012967309,0.01297019,0.010097264,0.062684014,0.06268527,0.05519639,1.0559171e-11,1.05768675e-11,1.911426e-11,9.888245e-07,9.866066e-07,5e-08,0.0,0.0,0.0,0.0,0.0,0.0,0.0,0.0,535,0.35407525,0.23493911,0.057543214,0.038812798,0.008858854,0.025372507,0.0,0.0,0.0,0.020001,0,0,0,831,24,0,0,0
96208784,0.98327476,-0.032382566,0.015386022,0.17856526,0.0027378714,0.03322854,-0.00837692,0.19492425,0.18604882,0.057066843,3.1882588e-05,3.6443744e-06,3.3535736e-05,1.4666306e-05,1.08980175e-05,-0.000363518,0.24975215,0.041693304,0.3779116,0.0,0.0,0.0,0.0,0.0,2.8575453e-08,0.0001531518,0.0035091606,1.2873601e-06,4.356525e-05,4.3529126e-05,3.7652382e-05,0.012992815,0.012995683,0.010141549,0.06267117,0.06267245,0.05569457,1.05619e-11,1.0579581e-11,1.9089596e-11,9.888244e-07,9.866051e-07,5.0000025e-08,0.0,0.0,0.0,0.0,0.0,0.0,0.0,0.0,535,0.354039,0.23599696,0.039150655,0.008884257,0.00920301,0.008576845,0.0,0.0,0.0,0.020001,0,0,0,831,24,0,0,0
96418383,0.98318183,-0.0326882,0.015786158,0.17898552,-0.008842732,0.019198906,6.07722e-05,0.18817794,0.18977769,0.047484506,3.186753e-05,3.6281208e-06,3.3491153e-05,1.4681769e-05,1.0689458e-05,-0.000358743,0.24975215,0.041693304,0.3779116,0.0,0.0,0.0,0.0,0.0,3.231348e-08,0.00023772674,0.00544638,1.294109e-06,4.3573575e-05,4.353632e-05,3.7667214e-05,0.01303484,0.013037649,0.010141712,0.06289324,0.06289455,0.055702712,1.0564702e-11,1.05824195e-11,1.908181e-11,9.888244e-07,9.866031e-07,5.000007e-08,0.0,0.0,0.0,0.0,0.0,0.0,0.0,0.0,535,0.35466576,0.23601422,0.011126021,0.024016224,0.0072121583,0.017801328,0.0,0.0,0.0,0.020001,0,0,0,831,24,0,0,0
96618384,0.9830897,-0.035268694,0.017473727,0.17884474,-0.008322098,0.018077657,0.01050877,0.18390246,0.18804051,0.05788898,3.189208e-05,3.6214228e-06,3.3419794e-05,1.4697824e-05,1.0630821e-05,-0.00036261886,0.24975215,0.041693304,0.3779116,0.0,0.0,0.0,0.0,0.0,3.2523015e-08,0.00025538364,0.0074303118,1.2998928e-06,4.3579617e-05,4.3540946e-05,3.7663827e-05,0.013054986,0.013057746,0.010110967,0.0629236,0.062924944,0.055478416,1.0568911e-11,1.058666e-11,1.9073982e-11,9.888241e-07,9.866023e-07,5.0000036e-08,0.0,0.0,0.0,0.0,0.0,0.0,0.0,0.0,535,0.35475138,0.23553857,0.016027857,0.013477992,0.007502821,0.03365216,0.0,0.0,0.0,0.020001,0,0,0,831,24,0,0,0
96819184,0.98310125,-0.034379672,0.016762,0.17902294,-0.0008001508,0.037909735,0.009707348,0.18403046,0.19745736,0.080441445,3.1871736e-05,3.6494669e-06,3.3346034e-05,1.4719288e-05,1.0712652e-05,-0.00037055905,0.24975215,0.041693304,0.3779116,0.0,0.0,0.0,0.0,0.0,3.9842753e-08,0.00029449718,0.00845758,1.2948915e-06,4.358128e-05,4.3543263e-05,3.7602724e-05,0.013067159,0.013069932,0.010155798,0.062878184,0.06287951,0.05594704,1.0568795e-11,1.0586529e-11,1.9048398e-11,9.88824e-07,9.866023e-07,5.0000036e-08,0.0,0.0,0.0,0.0,0.0,0.0,0.0,0.0,535,0.35462332,0.23653126,0.0023397557,0.025839455,0.0038478882,0.002272141,0.0,0.0,0.0,0.020001,0,0,0,831,24,0,0,0
97027183,0.9831716,-0.032547574,0.015623617,0.17908211,-0.00090918166,0.031628147,0.03267461,0.18374667,0.19906422,0.10979351,3.19021e-05,3.6499218e-06,3.328184e-05,1.4711872e-05,1.0719227e-05,-0.00037985956,0.24975215,0.041693304,0.3779116,0.0,0.0,0.0,0.0,0.0,4.757401e-08,0.0003265882,0.008978833,1.28587e-06,4.359084e-05,4.35531e-05,3.756763e-05,0.013126689,0.013129451,0.010153676,0.063190565,0.06319194,0.055939477,1.0574309e-11,1.0592051e-11,1.9029178e-11,9.888237e-07,9.866014e-07,5.0000065e-08,0.0,0.0,0.0,0.0,0.0,0.0,0.0,0.0,535,0.35550317,0.23651528,0.037049394,0.015941767,0.0040953746,0.024199598,0.0,0.0,0.0,0.020001,0,0,0,831,24,0,0,0
97227984,0.98314446,-0.032772515,0.015664292,0.17918612,-0.0070054047,0.03595656,0.019949045,0.17637792,0.2017774,0.13351537,3.1910222e-05,3.6178299e-06,3.320342e-05,1.485954e-05,1.06829275e-05,-0.00038502915,0.24975215,0.041693304,0.3779116,0.0,0.0,0.0,0.0,0.0,4.4332662e-08,0.00033829254,0.009209732,1.2838588e-06,4.3594177e-05,4.355696e-05,3.750487e-05,0.0131424405,0.013145194,0.010041562,0.06314889,0.06315029,0.054894064,1.0573741e-11,1.0591497e-11,1.900445e-11,9.888229e-07,9.866001e-07,5e-08,0.0,0.0,0.0,0.0,0.0,0.0,0.0,0.0,535,0.35538596,0.23429482,0.0302257,0.026123552,0.003985967,0.017647034,0.0,0.0,0.0,0.020001,0,0,0,831,24,0,0,0
97427984,0.9830856,-0.033553626,0.01594985,0.1793389,0.00061137363,0.029150922,0.026780285,0.18571581,0.20196825,0.15582956,3.1963238e-05,3.6673932e-06,3.3132077e-05,1.476512e-05,1.054157e-05,-0.00039123805,0.24975215,0.041693304,0.3779116,0.0,0.0,0.0,0.0,0.0,3.8518323e-08,0.0003167679,0.00943682,1.2845409e-06,4.3595875e-05,4.3558826e-05,3.744125e-05,0.013148675,0.013151429,0.010092301,0.063128985,0.0631304,0.055391513,1.0574624e-11,1.0592385e-11,1.8982116e-11,9.88822e-07,9.865986e-07,5e-08,0.0,0.0,0.0,0.0,0.0,0.0,0.0,0.0,535,0.35532996,0.23535402,0.007775505,0.043643218,0.004478531,0.032164194,0.0,0.0,0.0,0.020001,0,0,0,831,24,0,0,0
97628785,0.9830083,-0.035272334,0.017389279,0.17929897,-0.0040983954,0.01667933,0.04148394,0.18966854,0.20177503,0.16049846,3.1993597e-05,3.685096e-06,3.3084805e-05,1.47800065e-05,1.04669125e-05,-0.0003905498,0.24975215,0.041693304,0.3779116,0.0,0.0,0.0,0.0,0.0,4.0548485e-08,0.00030143282,0.009221295,1.2896883e-06,4.3598753e-05,4.3559096e-05,3.7438305e-05,0.013139316,0.013142144,0.010132425,0.06308632,0.06308774,0.05580711,1.0573518e-11,1.05913195e-11,1.8972218e-11,9.888205e-07,9.865973e-07,5e-08,0.0,0.0,0.0,0.0,0.0,0.0,0.0,0.0,535,0.3552099,0.23623529,0.020342046,0.016716056,0.0066743023,0.00196527,0.0,0.0,0.0,0.020001,0,0,0,831,24,0,0,0
97828784,0.9829204,-0.036033683,0.017933894,0.17957567,-0.0021288742,0.02975526,0.018111713,0.18096568,0.21033464,0.1825101,3.19522e-05,3.6528595e-06,3.3053246e-05,1.4810081e-05,1.04567935e-05,-0.00039508438,0.24975215,0.041693304,0.3779116,0.0,0.0,0.0,0.0,0.0,1.394194e-07,0.00047861977,0.012979568,1.2942004e-06,4.3603406e-05,4.3563465e-05,3.7372425e-05,0.0131736025,0.013176557,0.010094092,0.06312082,0.063122235,0.05549291,1.0575125e-11,1.059292e-11,1.8950619e-11,9.888191e-07,9.865967e-07,5e-08,0.0,0.0,0.0,0.0,0.0,0.0,0.0,0.0,663,0.35530698,0.23556933,0.025641931,0.03278477,0.004037745,0.020963162,0.0,0.0,0.0,0.020001,0,0,0,831,24,0,0,0
98037583,0.9837297,-0.02388385,0.008369244,0.17786385,0.03828353,0.023349306,-0.5589414,0.18951072,0.2063775,0.16853574,3.200007e-05,3.6589793e-06,3.3046566e-05,1.4881621e-05,8.987515e-06,-0.00040381475,0.24975215,0.041693304,0.3779116,0.0,0.0,0.0,0.0,0.0,3.4676245e-07,0.00063634146,0.016343126,1.2272998e-06,4.355997e-05,4.3534495e-05,3.7343358e-05,0.013648735,0.0136514725,0.01017495,0.06341808,0.06341952,0.05622371,1.0575501e-11,1.0593156e-11,1.8917964e-11,9.887535e-07,9.865282e-07,5.000005e-08,0.0,0.0,0.0,0.0,0.0,0.0,0.0,0.0,663,0.35614267,0.2371154,0.0122929355,0.025188748,0.0063398606,0.04254403,0.0,0.0,0.0,0.020001,0,0,0,831,24,0,0,0
98237584,0.98449266,-0.00684338,0.016617358,0.17450316,0.06650919,0.111912675,-1.0150399,0.1898792,0.21165824,-0.0041247406,3.200567e-05,3.5929381e-06,3.2973076e-05,9.626683e-06,8.376517e-06,-0.00039829258,0.24975215,0.041693304,0.3779116,0.0,0.0,0.0,0.0,0.0,8.681399e-07,0.000792907,0.017987479,1.1602144e-06,4.347561e-05,4.338938e-05,3.7322872e-05,0.014008153,0.014010598,0.0102149965,0.06346745,0.063468836,0.05665319,1.05700145e-11,1.0587735e-11,1.8897257e-11,9.88253e-07,9.859986e-07,5.000002e-08,0.0,0.0,0.0,0.0,0.0,0.0,0.0,0.0,663,0.3562812,0.2380193,0.029875709,0.058162946,0.008141869,0.02891479,0.0,0.0,0.0,0.020001,0,0,0,831,24,0,0,0
98438384,0.98165363,-0.07002794,0.008006622,0.17716734,0.07542481,0.15022391,-1.1847287,0.18706994,0.23415175,-0.26180205,3.2001957e-05,3.507171e-06,3.2941614e-05,1.8682372e-06,9.411288e-06,-0.00038735702,0.24975215,0.041693304,0.3779116,0.0,0.0,0.0,0.0,0.0,1.4364409e-06,0.0009177125,0.020464899,1.4037862e-06,4.3102413e-05,4.3264088e-05,3.7258083e-05,0.01408099,0.014083182,0.010164984,0.063525,0.06352629,0.056238063,1.0561703e-11,1.0579565e-11,1.8888209e-11,9.874647e-07,9.852064e-07,5.000003e-08,0.0,0.0,0.0,0.0,0.0,0.0,0.0,0.0,663,0.35644254,0.23714566,0.028235402,0.05482817,0.010608356,0.010326764,0.0,0.0,0.0,0.020001,0,0,0,831,24,0,0,0
98646384,0.97546464,-0.12577859,0.005616843,0.18060148,0.15073521,-0.018815672,-0.8271121,0.20216395,0.24617475,-0.4907071,3.199311e-05,3.4805676e-06,3.297586e-05,6.539228e-07,1.0449844e-05,-0.00038171594,0.24975215,0.041693304,0.3779116,0.0,0.0,0.0,0.0,0.0,1.4953027e-06,0.0009764454,0.021339986,1.927159e-06,4.2545937e-05,4.3146105e-05,3.715926e-05,0.013741871,0.01375202,0.01014624,0.06394669,0.06394807,0.056171644,1.0561936e-11,1.0579518e-11,1.8872024e-11,9.87058e-07,9.847894e-07,5.000007e-08,0.0,0.0,0.0,0.0,0.0,0.0,0.0,0.0,663,0.35762376,0.23700558,0.038767237,0.015164592,0.012441156,0.046717077,0.0,0.0,0.0,0.020001,0,0,0,831,24,0,0,0
98847183,0.9768698,-0.09049145,-0.06389203,0.1829056,0.36608267,-0.18755032,-0.7021073,0.247146,0.21613362,-0.70321476,3.200053e-05,3.4711734e-06,3.295981e-05,6.751202e-07,9.449155e-06,-0.00035915655,0.24975215,0.041693304,0.3779116,0.0,0.0,0.0,0.0,0.0,1.6751843e-06,0.0010311697,0.02311568,1.8287227e-06,4.249002e-05,4.2888587e-05,3.7437687e-05,0.013594103,0.0136116,0.01010225,0.064009026,0.06401088,0.055816825,1.0559494e-11,1.0576169e-11,1.8864228e-11,9.868912e-07,9.84533e-07,5.0000036e-08,0.0,0.0,0.0,0.0,0.0,0.0,0.0,0.0,663,0.3577987,0.23625585,0.014705258,0.005825542,0.011474288,0.049665038,0.0,0.0,0.0,0.020001,0,0,0,831,24,0,0,0
99047196,0.9731476,-0.053742833,-0.13357028,0.17959526,0.8288753,-0.1513742,-0.69371015,0.35755387,0.18619621,-0.9361284,3.1933985e-05,3.4744487e-06,3.2818072e-05,-3.2828677e-06,6.748147e-06,-0.00032805858,0.24975215,0.041693304,0.3779116,0.0,0.0,0.0,0.0,0.0,1.638303e-06,0.0011031118,0.025329044,2.1612968e-06,4.2290103e-05,4.2210235e-05,3.7691756e-05,0.013548759,0.013626277,0.01006536,0.064106114,0.06410884,0.055526722,1.0559927e-11,1.0574996e-11,1.8829861e-11,9.865191e-07,9.840551e-07,5e-08,0.0,0.0,0.0,0.0,0.0,0.0,0.0,0.0,663,0.35807115,0.23564109,0.051666997,0.04776186,0.0054841004,0.03458771,0.0,0.0,0.0,0.020001,0,0,0,831,24,0,0,0
99247983,0.9665726,-0.026722379,-0.18413588,0.17640126,1.4590796,0.024688568,-0.5808037,0.61294246,0.18272512,-1.1233128,3.1923253e-05,3.6612807e-06,3.2678603e-05,-2.7982085e-06,4.952848e-06,-0.00030910486,0.24975215,0.041693304,0.3779116,0.0,0.0,0.0,0.0,0.0,1.5951057e-06,0.0011121688,0.02675463,2.7264898e-06,4.2022573e-05,4.1434116e-05,3.8001534e-05,0.013447405,0.013677865,0.010023724,0.06420139,0.064207,0.055220485,1.0561263e-11,1.0573498e-11,1.8817125e-11,9.861265e-07,9.839223e-07,5.0000036e-08,0.0,0.0,0.0,0.0,0.0,0.0,0.0,0.0,663,0.3583412,0.23499039,0.048450526,0.11243389,0.010497942,0.10371218,0.0,0.0,0.0,0.020001,0,0,0,831,24,0,0,0
99447984,0.96378595,0.010671512,-0.19963558,0.17648901,2.1635911,0.35497072,-0.5250204,0.9726813,0.20523542,-1.3090353,3.197462e-05,3.6143e-06,3.256366e-05,-7.688991e-06,5.633849e-07,-0.00028335425,0.24975215,0.041693304,0.3779116,0.0,0.0,0.0,0.0,0.0,1.3181357e-06,0.0010703214,0.02403559,2.9547787e-06,4.185452e-05,4.1077095e-05,3.803836e-05,0.013427029,0.0138942655,0.009995399,0.06434894,0.06436338,0.05498592,1.0566177e-11,1.0574009e-11,1.8784875e-11,9.858848e-07,9.838157e-07,5.0000036e-08,0.0,0.0,0.0,0.0,0.0,0.0,0.0,0.0,663,0.358765,0.23449077,0.039181292,0.04839702,0.00488682,0.08921293,0.0,0.0,0.0,0.020001,0,0,0,831,24,0,0,0
99648784,0.9573394,0.036761213,-0.20864092,0.19651715,2.8504221,0.8112762,-0.5065086,1.4807397,0.33995634,-1.4425408,3.1884752e-05,3.673675e-06,3.2483098e-05,-1.0372996e-05,-6.101e-06,-0.00027396294,0.24125133,0.040274646,0.35773814,0.0003469371,-0.00015578418,0.00012350199,0.0,0.0,1.2818099e-06,0.001092901,0.022652734,9.8639954e-05,0.00015019867,4.428531e-05,0.0023230368,0.014114531,0.016153317,0.010085472,0.06446285,0.06449767,0.054753393,1.0575181e-11,1.0577602e-11,1.8838542e-11,9.857614e-07,9.834382e-07,5e-08,0.0013014416,5.887347e-05,0.0013346622,0.0012999328,0.00065793114,0.0013333381,0.0,0.0,8389351,0.35911074,0.23399442,0.018569848,0.07865684,0.0075936182,0.024975903,0.0,0.0,0.0,0.020001,0,0,0,831,24,0,0,0
99856784,0.9662099,-0.0025075134,-0.17330429,0.19078237,3.4512136,1.2256535,-0.4923396,2.1357808,0.5643221,-1.5526431,3.1837026e-05,3.6369415e-06,3.2455184e-05,-1.2390321e-06,-2.0824531e-05,-0.00027399222,0.24153104,0.040338468,0.3578511,0.00060693186,0.0011909193,0.00037580583,0.0,0.0,1.5261559e-06,0.0011150998,0.024783624,8.668439e-05,0.00011258375,4.155944e-05,0.0022762567,0.019412693,0.026307171,0.010688249,0.06487526,0.06500196,0.05554724,1.06041e-11,1.0598308e-11,1.8928706e-11,9.831842e-07,9.796946e-07,5.0000036e-08,0.0012498456,5.7057212e-05,0.0012770832,0.0012435552,0.00055359124,0.0012756418,0.0,0.0,8389351,0.36038482,0.23568462,0.023002934,0.053011276,0.011306227,0.0058598877,0.0,0.0,0.0,0.020001,0,0,0,831,24,0,0,0
100056784,0.97899866,-0.05460343,-0.13053395,0.14676826,3.8578076,1.3692039,-0.3091153,2.8785303,0.83194077,-1.5942265,3.183467e-05,3.6817287e-06,3.245093e-05,-2.3824736e-05,-2.2175396e-05,-0.0002895499,0.24412498,0.040800527,0.3583637,-0.0006146343,0.0010663316,0.0029619262,0.0,0.0,2.841666e-06,0.0011468709,0.026410095,4.7173435e-05,7.610283e-05,4.9080278e-05,0.0021560173,0.02320468,0.035284072,0.011258431,0.06490593,0.0652939,0.056003075,1.0643479e-11,1.062266e-11,1.9017909e-11,9.741703e-07,9.697269e-07,5.0000036e-08,0.0011891647,5.4920318e-05,0.0012027441,0.0011886408,0.0005132406,0.0011889889,0.0,0.0,8389351,0.36083212,0.23664969,0.04022312,0.02735841,0.0048551853,0.053022686,0.0,0.0,0.0,0.020001,0,0,0,831,24,0,0,0
100257601,0.9823356,-0.08944917,-0.15934919,0.04029132,4.260112,1.2504414,-0.16755462,3.6862066,1.0915427,-1.6121385,3.1849155e-05,3.640524e-06,3.245769e-05,3.5684153e-07,-1.43068955e-05,-0.00029833187,0.244383,0.04088846,0.36001807,-0.0015056488,-0.00025615862,0.0029147742,0.0,0.0,4.1850035e-06,0.0011136187,0.026081102,4.4696576e-06,8.4696585e-05,5.8962545e-05,0.0019771678,0.024845103,0.044027194,0.011745071,0.06514674,0.06606055,0.05577538,1.0701492e-11,1.0659669e-11,1.9113872e-11,9.564685e-07,9.539547e-07,5.0000036e-08,0.0010445378,5.042404e-05,0.0011401332,0.0010842485,0.00045519305,0.0010770463,0.0,0.0,8389351,0.36222547,0.23616812,0.029891955,0.037861627,0.0038974814,0.025669087,0.0,0.0,0.0,0.020001,0,0,0,831,24,0,0,0
100457584,0.97461724,-0.13154678,-0.13151397,-0.12458237,4.6527987,0.8389891,-0.25978127,4.5613747,1.2816262,-1.6893487,3.186645e-05,3.5413789e-06,3.2467386e-05,8.426253e-05,1.3889128e-05,-0.0002811071,0.23980932,0.040007547,0.3598078,0.0031979547,-0.00057904987,-2.6147194e-05,0.0,0.0,5.7689413e-06,0.0012670362,0.02972881,2.8533694e-05,6.315281e-05,7.611222e-05,0.0017667004,0.027118385,0.051202483,0.01229865,0.06553783,0.06727913,0.055584468,1.0771058e-11,1.0705763e-11,1.9211624e-11,9.298921e-07,9.345734e-07,5e-08,0.00074136094,4.1566676e-05,0.0011200615,0.00084482064,0.00035030764,0.0009794213,0.0,0.0,8389351,0.36444062,0.23576358,0.03434671,0.08570185,0.011633249,0.050370574,0.0,0.0,0.0,0.020001,0,0,0,831,24,0,0,0
100666385,0.9495593,-0.12872025,-0.13838595,-0.25023553,4.941861,0.261073,-0.6627095,5.5564075,1.3970002,-1.8677747,3.184898e-05,3.518263e-06,3.245918e-05,0.0001316779,-1.3942369e-05,-0.00025329186,0.2358512,0.039180875,0.3573559,0.008375723,0.0021329636,-0.0010657122,0.0,0.0,5.4541297e-06,0.0013958475,0.035444472,0.00010436299,5.8927944e-05,7.158325e-05,0.0015350662,0.03376318,0.053936835,0.01294872,0.06652181,0.06939624,0.05657992,1.0854143e-11,1.0769212e-11,1.9317149e-11,8.975433e-07,9.142491e-07,5.0000086e-08,0.00047144067,3.3618435e-05,0.0011033851,0.00057406654,0.00024907052,0.0009502361,0.0,0.0,8389351,0.36867064,0.23786534,0.105722606,0.031447325,0.009932077,0.016850818,0.0,0.0,0.0,0.020001,0,0,0,831,24,0,0,0
100866384,0.92414844,-0.1750903,-0.20462021,-0.27096772,5.24014,-0.39498478,-0.5717989,6.592291,1.3542464,-2.0029678,3.188427e-05,3.5258142e-06,3.2472217e-05,8.411981e-05,4.231283e-05,-0.0002506548,0.2341879,0.038768865,0.35762888,0.009674469,0.0032260583,-0.0032617694,0.0,0.0,4.009013e-06,0.0012592926,0.034629934,0.00010913156,7.862775e-05,8.819779e-05,0.001348744,0.040877532,0.05337899,0.0136339115,0.06730553,0.07094453,0.056430083,1.09348025e-11,1.0837589e-11,1.9417093e-11,8.6319596e-07,8.9496217e-07,5e-08,0.00035436425,3.0120722e-05,0.0010678058,0.000454681,0.00018034474,0.00092092395,0.0,0.0,8389351,0.3718199,0.23755017,0.08117421,0.069944404,0.017173091,0.014740107,0.0,0.0,0.0,0.020001,0,0,0,831,24,0,0,0
101067184,0.93133384,-0.17144805,-0.1710445,-0.2719683,5.5628915,-1.1728697,-0.5209726,7.6777287,1.2072953,-2.074828,3.189489e-05,3.5339383e-06,3.247554e-05,7.03426e-05,2.970099e-05,-0.00026328515,0.23395245,0.038620334,0.35916474,0.009140182,0.0052106464,-0.0062319674,0.0,0.0,3.870166e-06,0.0012984468,0.03578036,0.00010031458,5.458884e-05,7.784935e-05,0.0012471164,0.050396096,0.05256098,0.014663122,0.06831714,0.07227822,0.05716796,1.1016528e-11,1.0915064e-11,1.9516689e-11,8.2967034e-07,8.774303e-07,5.000006e-08,0.00030531615,2.85479e-05,0.001018554,0.0004122055,0.00014480985,0.0008685264,0.0,0.0,8389351,0.37496045,0.23909822,0.09558953,0.02901527,0.010421759,0.016647324,0.0,0.0,0.0,0.020001,0,0,0,831,24,0,0,0
101267184,0.95328754,-0.0922068,-0.13094717,-0.2561127,5.745609,-1.7790965,-0.799225,8.821609,0.889463,-2.3238385,3.190787e-05,3.5370074e-06,3.2485095e-05,9.421389e-05,3.8722108e-05,-0.00022094206,0.23309842,0.038435802,0.35722578,0.01052829,0.0057262233,-0.005533011,0.0,0.0,4.030265e-06,0.0012989242,0.03431349,8.211729e-05,3.8490136e-05,4.1813393e-05,0.0011732716,0.055354528,0.049661934,0.015037872,0.06953672,0.07328761,0.057215028,1.1100574e-11,1.10011575e-11,1.9617597e-11,7.988582e-07,8.6110305e-07,5.0000057e-08,0.000285797,2.7671227e-05,0.0009918582,0.00038760682,0.00013361535,0.0008437325,0.0,0.0,8389351,0.37792107,0.23919663,0.071810946,0.037885915,0.008579419,0.16407606,0.0,0.0,0.0,0.020001,0,0,0,831,24,0,0,0
101475984,0.9584141,0.0077778497,-0.2004933,-0.20293987,6.058611,-1.867659,-0.7142358,10.075486,0.4983595,-2.5513318,3.194004e-05,3.5461792e-06,3.250333e-05,6.682615e-05,5.2563853e-05,-0.00019346892,0.2340596,0.038667556,0.3578722,0.0090882685,0.006062273,-0.006340622,0.0,0.0,3.472607e-06,0.0011384146,0.031113781,5.375037e-05,5.075116e-05,2.9040817e-05,0.0011055189,0.05064294,0.048086584,0.0151149435,0.071407095,0.07477585,0.057519447,1.1190947e-11,1.1093665e-11,1.9720859e-11,7.700915e-07,8.459779e-07,5e-08,0.00027493382,2.7090697e-05,0.000897128,0.00035529252,0.0001262456,0.0007750043,0.0,0.0,8389351,0.3823388,0.23983212,0.0630392,0.08863977,0.0062445346,0.047529235,0.0,0.0,0.0,0.020001,0,0,0,831,24,0,0,0
101675993,0.97166854,0.082999185,-0.1559146,-0.15704179,6.5287313,-1.530922,-0.6977258,11.359752,0.1775757,-2.761051,3.196848e-05,3.5606229e-06,3.252838e-05,0.000107156,1.0300624e-05,-0.00016808037,0.23556682,0.039090015,0.36320508,0.0057277894,0.0053068674,-0.012322296,0.0,0.0,3.2169712e-06,0.0011581656,0.0295495,3.457459e-05,3.6080397e-05,3.8787344e-05,0.0010726157,0.04415959,0.047985446,0.015111711,0.07292033,0.07596876,0.058364566,1.1283206e-11,1.1186638e-11,1.9822114e-11,7.4257247e-07,8.338322e-07,5.000005e-08,0.0002672729,2.6601629e-05,0.0007206758,0.00032810902,0.000117558084,0.0006296154,0.0,0.0,8389351,0.3858615,0.2415876,0.121509135,0.061345838,0.028025333,0.11135167,0.0,0.0,0.0,0.020001,0,0,0,831,24,0,0,0
101876783,0.97796077,0.11059681,-0.07689988,-0.15952277,6.7869115,-0.8864761,-1.0972085,12.709056,-0.05925145,-3.1230118,3.1983294e-05,3.5770006e-06,3.2552533e-05,0.00019842564,-2.5090252e-05,-0.0001025959,0.2350163,0.039150145,0.3670942,0.005092309,0.004672247,-0.017239852,0.0,0.0,2.3998166e-06,0.0011754538,0.032096688,3.4873803e-05,2.7013017e-05,4.490408e-05,0.0010456718,0.041749533,0.04605017,0.014672249,0.074158266,0.077008165,0.058301847,1.13763235e-11,1.1279551e-11,1.992131e-11,7.1394106e-07,8.229074e-07,5.000005e-08,0.00026228203,2.6280151e-05,0.00060077687,0.00031091776,0.00011129974,0.00052924687,0.0,0.0,8389351,0.38880128,0.24145776,0.087704755,0.04474652,0.017433273,0.1427331,0.0,0.0,0.0,0.020001,0,0,0,831,24,0,0,0
102084784,0.97280556,0.12985457,-0.07945125,-0.17457029,6.8946176,-0.04308354,-1.6521932,14.147461,-0.14427444,-3.6184595,3.1992506e-05,3.5958333e-06,3.257809e-05,0.00030041998,-6.973915e-05,-3.4468663e-05,0.23455498,0.039155375,0.37035012,0.004534925,0.004416954,-0.02090762,0.0,0.0,1.935008e-06,0.0012304805,0.032285217,4.1324678e-05,2.5618105e-05,4.7742826e-05,0.0010174091,0.046169933,0.043889325,0.01428038,0.07581627,0.07858352,0.057709686,1.1476533e-11,1.137987e-11,2.0026177e-11,6.8576304e-07,8.0749567e-07,5e-08,0.00025680626,2.5975338e-05,0.0005311377,0.0002957353,0.00010675028,0.00047324976,0.0,0.0,8389351,0.3929374,0.2402284,0.1360481,0.041530192,0.018482763,0.16654062,0.0,0.0,0.0,0.020001,0,0,0,831,24,0,0,0
102285586,0.96357775,0.16679357,-0.107307814,-0.17939585,7.0243654,0.7570869,-1.8407716,15.559154,-0.061699383,-4.087769,3.1999058e-05,3.61524e-06,3.2596447e-05,0.00035192975,-0.00010438731,2.135973e-06,0.23439194,0.039211184,0.37323454,0.003984233,0.0037070198,-0.024375161,0.0,0.0,1.7834178e-06,0.0011249102,0.030434558,4.3749e-05,2.477441e-05,5.5771536e-05,0.000969053,0.052776143,0.041556414,0.014238608,0.07678589,0.07933872,0.05756312,1.1569661e-11,1.1475384e-11,2.0124732e-11,6.600127e-07,7.853197e-07,5e-08,0.0002525191,2.563367e-05,0.00048407805,0.00028429183,0.000101553735,0.00043635635,0.0,0.0,8389351,0.39512607,0.23992315,0.098956026,0.029308792,0.0362194,0.026909744,0.0,0.0,0.0,0.020001,0,0,0,831,24,0,0,0
102485584,0.97401464,0.069326065,-0.09574323,-0.19319041,7.1228614,1.2632138,-1.6505947,16.995995,0.12019007,-4.4600325,3.1980344e-05,3.6237068e-06,3.258217e-05,0.00032695025,-0.000100893114,8.389519e-06,0.23471482,0.039337486,0.37522402,0.0034117082,0.0028565126,-0.02704483,0.0,0.0,2.5330835e-06,0.0010973174,0.028957637,4.1957184e-05,2.4033487e-05,2.7956838e-05,0.00093349785,0.0548408,0.038997028,0.014211611,0.077567585,0.07978439,0.057439767,1.1662997e-11,1.1573837e-11,2.0224863e-11,6.3621457e-07,7.5653645e-07,5.0000036e-08,0.0002483219,2.5207002e-05,0.00045604064,0.00027534142,9.6630916e-05,0.00041544664,0.0,0.0,8389351,0.39667615,0.23966596,0.075455286,0.056181595,0.008413279,0.011773994,0.0,0.0,0.0,0.020001,0,0,0,831,24,0,0,0
102686384,0.9793414,0.04845561,-0.021213891,-0.19517298,7.0248413,1.5416534,-1.594348,18.439062,0.39247817,-4.795905,3.1964304e-05,3.6280812e-06,3.257981e-05,0.0002980276,-0.00012552274,9.654046e-06,0.23496857,0.03936087,0.37389192,0.0037512486,0.0027729645,-0.02570991,0.0,0.0,2.1336646e-06,0.0010016534,0.026261557,3.7768274e-05,2.7346337e-05,2.4231178e-05,0.0008709412,0.052977193,0.037717186,0.01405502,0.07829728,0.08008327,0.05813283,1.1755042e-11,1.1671264e-11,2.0322985e-11,6.1629584e-07,7.272813e-07,5.000006e-08,0.00024171584,2.4750347e-05,0.00044483473,0.00026689697,9.507367e-05,0.000406781,0.0,0.0,8389351,0.39797056,0.24110751,0.04439639,0.078330606,0.02336724,0.06314746,0.0,0.0,0.0,0.020001,0,0,0,831,24,0,0,0
102894396,0.97636855,0.08652347,0.040286347,-0.19389531,6.729357,1.9530642,-1.6842821,19.906776,0.7523628,-5.235603,3.1935924e-05,3.6443232e-06,3.2581767e-05,0.00032549363,-0.0001784662,4.122649e-05,0.23531088,0.039372012,0.3719569,0.0042275256,0.002671042,-0.023572389,0.0,0.0,2.6587606e-06,0.001102752,0.027687402,3.472501e-05,3.6025467e-05,2.6639e-05,0.0007956641,0.052792527,0.038662456,0.013766589,0.07952471,0.08079096,0.058335885,1.1854184e-11,1.1775514e-11,2.0426782e-11,5.988896e-07,6.97737e-07,5.00001e-08,0.00022782933,2.4136603e-05,0.000407646,0.0002441519,9.363875e-05,0.00037666745,0.0,0.0,8389351,0.40039438,0.24152823,0.06831875,0.0786126,0.013967634,0.11682223,0.0,0.0,0.0,0.020001,0,0,0,831,24,0,0,0
103095984,0.9809659,-0.032687966,0.04167122,-0.18681802,6.2445126,2.1953173,-1.7834289,21.20762,1.171383,-5.661118,3.1950458e-05,3.6680847e-06,3.2583503e-05,0.00037032814,-0.0001600112,6.708044e-05,0.23792376,0.039849363,0.37027627,0.002449808,0.0026935593,-0.02087546,0.0,0.0,2.3823493e-06,0.0010781031,0.02565719,2.6937201e-05,3.4614804e-05,2.30064e-05,0.0007371178,0.049618628,0.0416286,0.013356859,0.08014734,0.080866426,0.058071673,1.1947975e-11,1.1874523e-11,2.0524474e-11,5.83946e-07,6.694926e-07,5e-08,0.00021230927,2.3472885e-05,0.00036395516,0.00022153505,9.199528e-05,0.0003387384,0.0,0.0,8389351,0.4012652,0.24098065,0.13543567,0.05664358,0.04043245,0.06139602,0.0,0.0,0.0,0.020001,0,0,0,831,24,0,0,0
103295984,0.9744,-0.12432081,0.035828087,-0.18386243,5.7133713,1.991823,-1.8708376,22.447561,1.5970694,-6.057834,3.1938693e-05,3.679933e-06,3.2583168e-05,0.00036634938,-0.00018340303,7.4728676e-05,0.24051283,0.040296316,0.36837992,0.0009845915,0.0014422144,-0.017793471,0.0,0.0,1.8865413e-06,0.0010225731,0.024304075,2.1945489e-05,3.1299704e-05,3.524255e-05,0.0006643133,0.041387774,0.045959428,0.013061293,0.0807144,0.08101394,0.058711242,1.20468375e-11,1.1978029e-11,2.0625867e-11,5.7092456e-07,6.442296e-07,5.0000068e-08,0.0001978521,2.271956e-05,0.00030682122,0.00020458258,8.843229e-05,0.0002855543,0.0,0.0,8389351,0.40215462,0.24230403,0.13193722,0.03962019,0.044488814,0.06650682,0.0,0.0,0.0,0.020001,0,0,0,831,24,0,0,0
103496784,0.96859115,-0.15171759,0.057841964,-0.18832791,5.1445055,1.5818142,-1.9407276,23.587664,1.9833308,-6.427943,3.1917145e-05,3.6759131e-06,3.260192e-05,0.0003406221,-0.00025273266,6.3415275e-05,0.24356003,0.040762354,0.3677776,-0.00095605326,-0.00084585603,-0.01578376,0.0,0.0,1.6357202e-06,0.00097244466,0.022879042,2.0264939e-05,3.2696615e-05,4.010758e-05,0.0005998917,0.03414599,0.050901115,0.012738993,0.081129916,0.08125122,0.05847587,1.21454366e-11,1.2080022e-11,2.0725534e-11,5.584879e-07,6.237835e-07,5.000007e-08,0.00018586086,2.2044378e-05,0.00026176687,0.00019202867,8.429079e-05,0.0002430142,0.0,0.0,8389351,0.40296543,0.24181785,0.17740585,0.07723783,0.05031745,0.004187329,0.0,0.0,0.0,0.020001,0,0,0,831,24,0,0,0
103704783,0.96545196,-0.1475778,0.106187664,-0.18667482,4.4292073,1.0813979,-1.946711,24.591105,2.211838,-6.806934,3.194471e-05,3.672392e-06,3.2574048e-05,0.00028076812,-0.00019545299,5.2961776e-05,0.24899186,0.041826315,0.36826777,-0.0056516044,-0.002617675,-0.0143904565,0.0,0.0,3.0378274e-06,0.0010713596,0.025753645,1.946268e-05,3.9085207e-05,3.739896e-05,0.0005382485,0.030080592,0.05649378,0.0124199195,0.08185853,0.08207497,0.057737283,1.2247206e-11,1.2184431e-11,2.082777e-11,5.463741e-07,6.0699335e-07,5e-08,0.00016988111,2.1248508e-05,0.00022174534,0.00017591433,7.978084e-05,0.00020537458,0.0,0.0,8389351,0.40488702,0.24028584,0.15130232,0.1182216,0.03300008,0.007845463,0.0,0.0,0.0,0.020001,0,0,0,831,24,0,0,0
103905585,0.9796836,-0.09115842,0.014699185,-0.17802899,3.7576287,0.72823256,-2.120592,25.404993,2.3664668,-7.19672,3.1970016e-05,3.668744e-06,3.2568663e-05,0.00025791567,-0.00017073187,4.752927e-05,0.2533536,0.042626493,0.36868823,-0.009420278,-0.0041480237,-0.0133745,0.0,0.0,4.553691e-06,0.0011237678,0.028221158,1.6312511e-05,2.469007e-05,2.7256006e-05,0.0005033819,0.027839126,0.059487496,0.0121483235,0.08197704,0.08252017,0.057546746,1.2346847e-11,1.2286879e-11,2.0928521e-11,0.0,0.0,0.0,0.00015630474,2.0554497e-05,0.00019554493,0.00016159989,7.609397e-05,0.00018097364,0.0,0.0,8389351,0.40558255,0.23988903,0.024646867,0.1190733,0.026795454,0.034465063,0.0,0.0,0.0,0.020001,0,0,0,831,24,0,0,0
104105584,0.9828482,-0.039123137,0.040254224,-0.1756652,3.5095942,0.67728233,-2.2270381,26.18526,2.4951656,-7.5043235,3.1962667e-05,3.6306024e-06,3.256189e-05,0.00025790266,-0.00017072904,4.7509642e-05,0.2532873,0.042617448,0.36815315,-0.009028125,-0.0040679337,-0.013135145,0.0,0.0,4.692038e-06,0.0011387464,0.02679301,1.4708982e-05,2.5709616e-05,2.1751035e-05,0.000451078,0.025906917,0.054031964,0.011530998,0.081964724,0.08289115,0.0581045,1.24437795e-11,1.2387824e-11,2.1028032e-11,5.363955e-07,5.9308746e-07,5.0000605e-08,0.00015379739,2.0224117e-05,0.0001921715,0.00015757774,7.425726e-05,0.00017809003,0.0,0.0,8389351,0.40602446,0.24104875,0.015993798,0.09578319,0.032025937,0.085353285,0.0,0.0,0.0,0.020001,0,0,0,831,24,0,0,0
104314384,0.9694464,-0.07585411,0.14608438,-0.1818771,2.8894253,0.67014384,-2.1299932,26.845476,2.655224,-7.8821206,3.19841e-05,3.612723e-06,3.258322e-05,0.0002692572,-0.00017201937,4.6735866e-05,0.25431183,0.042732608,0.36649385,-0.009057898,-0.00455804,-0.01145064,0.0,0.0,3.1380102e-06,0.0010833336,0.025976785,1.4532052e-05,3.60985e-05,2.3451988e-05,0.00039231702,0.025279175,0.05478291,0.011194615,0.08248214,0.08398538,0.05797466,1.2543774e-11,1.2493132e-11,2.113217e-11,5.358079e-07,5.924232e-07,5.0000615e-08,0.00014290871,1.970531e-05,0.00017543336,0.0001445752,7.179993e-05,0.00016286678,0.0,0.0,8389351,0.4080043,0.24077928,0.0389581,0.081869565,0.026325129,0.04468602,0.0,0.0,0.0,0.020001,0,0,0,831,24,0,0,0
104514384,0.96586365,-0.060517605,0.16615397,-0.18930903,2.0402954,0.68810296,-2.182765,27.350758,2.8089278,-8.267086,3.1974858e-05,3.5998546e-06,3.2594802e-05,0.00027401285,-0.00017899791,4.5234632e-05,0.25561917,0.042896606,0.365387,-0.00971195,-0.005096979,-0.010076567,0.0,0.0,5.966016e-06,0.0013599118,0.030100109,1.4017945e-05,3.477473e-05,2.1195827e-05,0.0003444517,0.025625067,0.057947293,0.011232154,0.082374215,0.08441932,0.05750867,1.2637128e-11,1.2595723e-11,2.1234205e-11,5.3357184e-07,5.900791e-07,5.000017e-08,0.00013023922,1.9161778e-05,0.00015666433,0.00012942993,6.912218e-05,0.00014576745,0.0,0.0,8389351,0.40840364,0.23980965,0.040940613,0.072376564,0.018767197,0.028898552,0.0,0.0,0.0,0.020001,0,0,0,831,24,0,0,0
104715183,0.9827602,-0.04154657,-0.025292154,-0.17837231,1.6274964,0.650113,-2.3924108,27.711296,2.9205506,-8.593318,3.2018404e-05,3.5719613e-06,3.259632e-05,0.00028066104,-0.00015931584,4.4453303e-05,0.25646186,0.04305923,0.3649499,-0.01014912,-0.0049939756,-0.009769949,0.0,0.0,5.092676e-06,0.0012332842,0.028191356,9.689164e-06,2.0222209e-05,1.9523875e-05,0.0002979215,0.025767917,0.05148945,0.010902229,0.08220702,0.084483676,0.057802934,1.2714963e-11,1.2690701e-11,2.1333203e-11,5.291949e-07,5.858143e-07,5.000025e-08,0.00012627213,1.8836987e-05,0.00015103164,0.00012405023,6.706322e-05,0.00014080622,0.0,0.0,8389351,0.40827772,0.24042241,0.025518436,0.046646405,0.020616328,0.20068087,0.0,0.0,0.0,0.020001,0,0,0,831,24,0,0,0
104923183,0.97164506,-0.11629878,0.10314504,-0.17816207,1.2941124,0.5434867,-2.2086303,27.991285,3.0608594,-8.822131,3.2087828e-05,3.495215e-06,3.2617518e-05,0.0002883506,-0.00015802869,4.4022934e-05,0.25723267,0.04310502,0.36371216,-0.0096457945,-0.0054183765,-0.009135729,0.0,0.0,3.7137318e-06,0.0011392501,0.025781624,9.05302e-06,2.138749e-05,2.2215927e-05,0.00025273085,0.025770469,0.04582349,0.010276356,0.08258687,0.08517332,0.056704465,1.2803177e-11,1.2791014e-11,2.1439066e-11,5.2902726e-07,5.8562097e-07,5.000066e-08,0.00012330056,1.8534207e-05,0.00014638492,0.0001203205,6.49988e-05,0.00013665919,0.0,0.0,8389351,0.4095854,0.238127,0.06896784,0.11914265,0.013874008,0.13097042,0.0,0.0,0.0,0.020001,0,0,0,831,24,0,0,0
105123984,0.97665083,-0.08944931,0.07435059,-0.18062118,0.8170168,0.36764982,-2.158082,28.215046,3.1548476,-9.11791,3.210892e-05,3.4542647e-06,3.2616354e-05,0.00028405478,-0.00016042055,4.295291e-05,0.2584135,0.043273237,0.36319,-0.010205539,-0.005982882,-0.008443366,0.0,0.0,2.7207425e-06,0.0009984665,0.024107197,8.216519e-06,1.8994542e-05,1.9321522e-05,0.0002297423,0.026500966,0.043856036,0.010105061,0.082348265,0.08511689,0.05685969,1.2887548e-11,1.2886096e-11,2.1539468e-11,5.2763374e-07,5.8406556e-07,5.000047e-08,0.000118836244,1.8206081e-05,0.0001396614,0.00011525397,6.282742e-05,0.00013056077,0.0,0.0,8389351,0.40922505,0.2384527,0.043859974,0.027237428,0.011047854,0.12373926,0.0,0.0,0.0,0.020001,0,0,0,831,24,0,0,0
105323983,0.98078877,-0.06327175,0.038954508,-0.18036798,0.5219119,0.25219288,-2.225348,28.351334,3.2054965,-9.361513,3.216282e-05,3.405554e-06,3.2612676e-05,0.0002812767,-0.00015086934,3.9862447e-05,0.25876576,0.0433072,0.36269566,-0.009995877,-0.006057912,-0.008281214,0.0,0.0,1.8828645e-06,0.0010090615,0.024725169,7.340159e-06,1.7852031e-05,1.717114e-05,0.00021125526,0.027900547,0.041572824,0.009777628,0.08229162,0.08519405,0.05617838,1.2971706e-11,1.29789955e-11,2.1641433e-11,5.244217e-07,5.805648e-07,5.0000036e-08,0.000116289826,1.7921266e-05,0.00013602912,0.000111968824,6.104174e-05,0.00012742038,0.0,0.0,8389351,0.40925014,0.23701979,0.015573857,0.03914541,0.012773234,0.16685365,0.0,0.0,0.0,0.020001,0,0,0,831,24,0,0,0
105525584,0.98105115,-0.060868714,0.023983786,-0.18236925,0.27596667,0.25445083,-2.3534608,28.427309,3.292653,-9.6487055,3.2171636e-05,3.3584915e-06,3.261547e-05,0.00029588374,-0.00017613806,3.5440695e-05,0.25866735,0.043172,0.36198455,-0.009115672,-0.0065818555,-0.008031142,0.0,0.0,1.2769574e-06,0.0009833326,0.023796491,6.9294497e-06,1.737568e-05,1.6121987e-05,0.00019793583,0.029501071,0.04011065,0.0095419325,0.082247995,0.08522797,0.056175575,1.3055258e-11,1.30695585e-11,2.1741808e-11,5.1891186e-07,5.7462273e-07,5.0000036e-08,0.00011500321,1.7715169e-05,0.00013424298,0.00010997756,5.967698e-05,0.00012604643,0.0,0.0,8389351,0.40923828,0.23701388,0.0073031406,0.09495592,0.010575334,0.16614,0.0,0.0,0.0,0.020001,0,0,0,831,24,0,0,0
105734384,0.9808869,-0.06549886,0.01004239,-0.18294847,0.119458675,0.18720552,-2.3977997,28.472664,3.3409326,-9.970597,3.220573e-05,3.3292386e-06,3.260832e-05,0.0002865601,-0.00017331594,2.721509e-05,0.258773,0.043139003,0.36149624,-0.008684416,-0.0067402176,-0.0079139285,0.0,0.0,1.3382336e-06,0.0009788853,0.02350929,6.680488e-06,1.7151926e-05,1.5280397e-05,0.00018738257,0.031237002,0.03897168,0.00927741,0.08291009,0.08593939,0.055620935,1.3144141e-11,1.316369e-11,2.1849411e-11,5.110313e-07,5.66141e-07,5.0000036e-08,0.000113917624,1.749716e-05,0.00013276734,0.00010834347,5.8420446e-05,0.00012492249,0.0,0.0,8389351,0.410913,0.23584092,0.045202382,0.05305198,0.010995625,0.14394957,0.0,0.0,0.0,0.020001,0,0,0,831,24,0,0,0
105934384,0.97815573,-0.07310759,-0.067734905,-0.18242458,0.185641,0.10850309,-2.0498922,28.51031,3.367491,-10.248275,3.2248223e-05,3.2961136e-06,3.2595544e-05,0.00026834014,-0.00016692463,1.7373526e-05,0.25892365,0.0431238,0.3612225,-0.008443525,-0.006891489,-0.007914669,0.0,0.0,1.7243673e-06,0.0009840133,0.023922194,6.5112017e-06,2.0099618e-05,1.4510575e-05,0.00017733817,0.03195437,0.03695657,0.008964582,0.08312418,0.086019486,0.054768458,1.32283e-11,1.3251256e-11,2.1951264e-11,5.0112027e-07,5.554328e-07,5.0000036e-08,0.000113369584,1.7334984e-05,0.00013205434,0.000107382155,5.749727e-05,0.00012446272,0.0,0.0,8389351,0.4112708,0.23402661,0.035739314,0.029216995,0.0149362385,0.1512825,0.0,0.0,0.0,0.020001,0,0,0,831,24,0,0,0
106134384,0.96329904,-0.09598685,-0.17246348,-0.18192866,0.5224749,-0.08646972,-1.5877545,28.596996,3.351747,-10.474058,3.22892e-05,3.2904893e-06,3.2580097e-05,0.00022829325,-0.00014792405,6.401864e-06,0.25928906,0.043159965,0.36112398,-0.008745327,-0.006955363,-0.008047696,0.0,0.0,2.2266388e-06,0.00097365933,0.02436587,6.8419718e-06,2.7680922e-05,1.39814265e-05,0.0001637268,0.03236981,0.03502214,0.008677715,0.08331849,0.08592567,0.05390206,1.3310076e-11,1.333248e-11,2.2050686e-11,4.891803e-07,5.422546e-07,5.0000036e-08,0.00011204971,1.7187414e-05,0.00013002566,0.00010558817,5.679535e-05,0.0001225908,0.0,0.0,8389351,0.41139296,0.23216817,0.067181095,0.053780694,0.018331941,0.09470735,0.0,0.0,0.0,0.020001,0,0,0,831,24,0,0,0
106343183,0.9231035,-0.13368608,-0.31095508,-0.18252379,1.1371061,-0.33973348,-0.7015391,28.797716,3.322321,-10.597193,3.229955e-05,3.267795e-06,3.2552376e-05,0.00019138776,-0.00018795372,-5.2118116e-06,0.2599645,0.04318146,0.36030132,-0.009405246,-0.007536561,-0.0074214325,0.0,0.0,2.1698104e-06,0.0010079008,0.024913894,7.930339e-06,4.2645195e-05,1.36345325e-05,0.00014131884,0.032180563,0.033626992,0.008585582,0.08411893,0.08628769,0.053319745,1.3395776e-11,1.3412778e-11,2.215422e-11,4.7550537e-07,5.263888e-07,5.000005e-08,0.00010561677,1.6987771e-05,0.000119333046,9.783061e-05,5.6032004e-05,0.000112318485,0.0,0.0,8389351,0.41280338,0.23091069,0.049357384,0.07343243,0.023446,0.098654926,0.0,0.0,0.0,0.020001,0,0,0,831,24,0,0,0
106543183,0.94201165,-0.10372272,-0.2590619,-0.18639386,1.9842895,-0.678194,-0.120464906,29.12737,3.2309568,-10.557875,3.2318523e-05,3.2519933e-06,3.252269e-05,0.00016808925,-0.00021773716,-2.0115891e-05,0.26117918,0.04326788,0.35942873,-0.010535109,-0.008186187,-0.0067837634,0.0,0.0,2.1437145e-06,0.0010644923,0.024985978,7.4998648e-06,3.567848e-05,1.235605e-05,0.00014462516,0.032172307,0.03407427,0.008708872,0.08433112,0.08598179,0.05250151,1.3477696e-11,1.3491186e-11,2.2250918e-11,4.6084767e-07,5.0807097e-07,5e-08,9.859967e-05,1.6802669e-05,0.00010834786,8.966158e-05,5.532339e-05,0.000101844904,0.0,0.0,8389351,0.41268983,0.22913209,0.06820017,0.04230323,0.02592101,0.07501799,0.0,0.0,0.0,0.020001,0,0,0,831,24,0,0,0
106743984,0.95595485,-0.079885826,-0.20782271,-0.19125481,2.865186,-0.9703356,-0.14343016,29.641367,3.0909522,-10.508372,3.2277647e-05,3.277637e-06,3.250558e-05,0.00015516822,-0.00028541396,-3.0441584e-05,0.26232266,0.043357816,0.35938898,-0.011747553,-0.008660258,-0.0069543147,0.0,0.0,2.0431041e-06,0.0011408221,0.027305475,7.312414e-06,2.9451396e-05,1.1654054e-05,0.00014763072,0.032939345,0.036870625,0.008993349,0.08466393,0.08584046,0.051771306,1.3561837e-11,1.3571241e-11,2.2348113e-11,4.456853e-07,4.879989e-07,5e-08,9.537787e-05,1.6652753e-05,0.000104046216,8.612727e-05,5.4814813e-05,9.777213e-05,0.0,0.0,8389351,0.4129218,0.22753309,0.058728725,0.0845442,0.026957793,0.06590607,0.0,0.0,0.0,0.020001,0,0,0,831,24,0,0,0
106951984,0.9429289,-0.09874262,-0.20447059,-0.24357122,3.6249323,-1.3316945,-0.3629623,30.342264,2.852381,-10.520445,3.2272404e-05,3.3379556e-06,3.2482072e-05,0.00014084659,-0.00029841554,-3.6121804e-05,0.263097,0.043403324,0.35961148,-0.012571492,-0.008934348,-0.0073817214,0.0,0.0,3.6257145e-06,0.0011891716,0.027207676,1.1322522e-05,2.7845794e-05,1.1558078e-05,0.00014025206,0.033954628,0.040310036,0.0094610285,0.085604675,0.08639537,0.051378038,1.3647438e-11,1.36511705e-11,2.244627e-11,4.3035152e-07,4.6787193e-07,5e-08,9.295577e-05,1.6507856e-05,0.000101067904,8.348777e-05,5.432492e-05,9.49867e-05,0.0,0.0,8389351,0.41472888,0.22666724,0.070798054,0.02680953,0.031825528,0.037598014,0.0,0.0,0.0,0.020001,0,0,0,831,24,0,0,0
107152787,0.905029,-0.15164305,-0.14942135,-0.3682391,3.9975216,-1.8045965,-0.35907766,31.138096,2.5230196,-10.576131,3.23239e-05,3.401582e-06,3.2418186e-05,0.000107023596,-0.00028723263,-4.0671155e-05,0.2622387,0.043172423,0.36023176,-0.011904795,-0.008661713,-0.008197702,0.0,0.0,4.8567094e-06,0.0011982846,0.028259603,2.4079876e-05,2.1413043e-05,1.2421594e-05,0.00012582532,0.034293927,0.040871058,0.009982289,0.08597297,0.08652557,0.050940096,1.3731311e-11,1.3729072e-11,2.254201e-11,4.148025e-07,4.4851922e-07,5e-08,8.9909605e-05,1.6292395e-05,9.9086334e-05,8.039006e-05,5.3278e-05,9.3059774e-05,0.0,0.0,8389351,0.41532943,0.22569913,0.078118,0.04170237,0.021821339,0.036313027,0.0,0.0,0.0,0.020001,0,0,0,831,24,0,0,0
107352784,0.83620286,-0.18799706,-0.18391071,-0.48124713,4.041254,-2.3924334,-0.2309406,31.925817,2.1220064,-10.621338,3.2371205e-05,3.3461176e-06,3.234749e-05,0.0001414667,-0.00029878577,-4.7277896e-05,0.2601352,0.042780686,0.36093178,-0.00992914,-0.007933205,-0.009174464,0.0,0.0,4.1900184e-06,0.0012468591,0.03143726,3.8869326e-05,2.1988162e-05,1.2726092e-05,0.000101566584,0.034372594,0.039230518,0.010644238,0.086279,0.08668364,0.051329408,1.3816133e-11,1.38100295e-11,2.2638561e-11,3.9959795e-07,4.3114483e-07,5.000007e-08,8.453036e-05,1.5977366e-05,9.741514e-05,7.5554184e-05,5.1019902e-05,9.129188e-05,0.0,0.0,8389351,0.41588777,0.22655994,0.09855681,0.06478252,0.014368224,0.009596708,0.0,0.0,0.0,0.020001,0,0,0,831,24,0,0,0
107553583,0.8102128,-0.19034189,-0.19654222,-0.5183593,4.100766,-3.1062963,0.0074440893,32.762836,1.5823411,-10.565574,3.242068e-05,3.3528734e-06,3.2261538e-05,0.000102173544,-0.00032293994,-6.92318e-05,0.25684604,0.042115692,0.3622264,-0.0072133997,-0.0062598228,-0.010885696,0.0,0.0,2.9547268e-06,0.0012130074,0.03120391,4.228798e-05,2.1440814e-05,1.2119304e-05,8.912716e-05,0.03430158,0.037178207,0.01130859,0.08654811,0.08684038,0.05124385,1.3901222e-11,1.3892033e-11,2.2734769e-11,3.8483944e-07,4.1619123e-07,5.0000036e-08,7.5780255e-05,1.5499556e-05,9.473671e-05,6.7701156e-05,4.7267164e-05,8.853512e-05,0.0,0.0,8389351,0.41639945,0.22637105,0.080598906,0.06735211,0.019459138,0.10516454,0.0,0.0,0.0,0.020001,0,0,0,831,24,0,0,0
107761588,0.804054,-0.20845821,-0.16604942,-0.5314791,4.03197,-3.92195,0.08066371,33.62134,0.82388365,-10.526558,3.2504617e-05,3.3828103e-06,3.2185595e-05,7.435994e-05,-0.0003001408,-7.5130316e-05,0.25425962,0.04158894,0.363114,-0.004928266,-0.0051143575,-0.012083808,0.0,0.0,1.948577e-06,0.0011486934,0.030581241,4.1958658e-05,1.8395303e-05,1.2245652e-05,8.344649e-05,0.03463553,0.03536996,0.0120410565,0.087443046,0.08763059,0.05161068,1.3993157e-11,1.3981831e-11,2.283756e-11,3.7099232e-07,4.0367433e-07,5.0000036e-08,6.876552e-05,1.5071776e-05,9.2939656e-05,6.147149e-05,4.401363e-05,8.66027e-05,0.0,0.0,8389351,0.41841802,0.22717984,0.087329246,0.052536767,0.017802862,0.050785016,0.0,0.0,0.0,0.020001,0,0,0,831,24,0,0,0
107962383,0.8033757,-0.22282991,-0.1602581,-0.5284426,3.8672304,-4.6855645,0.09110563,34.43359,-0.049097054,-10.484264,3.2557993e-05,3.4115185e-06,3.2118456e-05,3.7026413e-05,-0.00030484298,-8.3843974e-05,0.25210607,0.0411988,0.36393338,-0.0031185613,-0.0041425573,-0.013105041,0.0,0.0,1.7721165e-06,0.0012530973,0.031475987,3.9657658e-05,1.7275106e-05,1.220768e-05,7.9238576e-05,0.034622647,0.03339413,0.012691421,0.08771492,0.08776218,0.051852744,1.40789646e-11,1.4066895e-11,2.2934547e-11,3.580287e-07,3.932823e-07,5.0000036e-08,6.366042e-05,1.4702139e-05,9.174134e-05,5.7076497e-05,4.136697e-05,8.514429e-05,0.0,0.0,8389351,0.41889986,0.22771198,0.0824214,0.049597,0.020384135,0.029763382,0.0,0.0,0.0,0.020001,0,0,0,831,24,0,0,0
108162384,0.81820697,-0.18243076,-0.15751752,-0.5219624,3.715564,-5.304319,0.19153303,35.21824,-1.0601388,-10.41862,3.2593478e-05,3.4301343e-06,3.2060187e-05,-1.6243075e-06,-0.00031821366,-9.488851e-05,0.25050598,0.040970203,0.3643666,-0.0017254906,-0.0035558303,-0.013653026,0.0,0.0,1.5827736e-06,0.001430456,0.035003018,3.639453e-05,1.6836811e-05,1.079083e-05,7.814084e-05,0.034036994,0.03172214,0.013238227,0.0880512,0.08792679,0.05225095,1.4165639e-11,1.4154125e-11,2.3032711e-11,3.4583624e-07,3.8456136e-07,5e-08,5.9839636e-05,1.4388783e-05,9.096523e-05,5.369332e-05,3.936064e-05,8.419898e-05,0.0,0.0,8389351,0.4194973,0.22858468,0.062192414,0.042136163,0.022982275,0.02309693,0.0,0.0,0.0,0.020001,0,0,0,831,24,0,0,0
108371195,0.827649,-0.15252616,-0.158534,-0.51633316,3.6723602,-5.8524103,0.16725907,36.03908,-2.2534726,-10.40105,3.2624834e-05,3.502513e-06,3.201034e-05,-2.2332491e-05,-0.000341897,-8.3259554e-05,0.24931082,0.040784597,0.36461323,-0.0008863962,-0.002868567,-0.013916618,0.0,0.0,1.2603097e-06,0.0015558219,0.034348503,3.3314194e-05,1.60239e-05,9.835456e-06,7.5060554e-05,0.028135637,0.026117709,0.013192344,0.075814076,0.07569218,0.05229338,1.4236804e-11,1.4230311e-11,2.313052e-11,3.2544023e-07,3.7029574e-07,5e-08,5.6711808e-05,1.4093622e-05,9.043679e-05,5.0697137e-05,3.7773487e-05,8.3647596e-05,0.0,0.0,8389351,0.38923803,0.22867745,0.059323125,0.046869416,0.03232597,0.008413093,0.0,0.0,0.0,0.020001,0,0,0,831,24,0,0,0
108571184,0.8327769,-0.13631848,-0.1613113,-0.51174086,3.7079294,-6.2343946,0.1076393,36.79923,-3.46075,-10.409774,3.2601147e-05,3.522514e-06,3.197912e-05,1.3390999e-05,-0.00036241158,-7.247149e-05,0.24840955,0.040605795,0.3647558,-0.0002337451,-0.002332927,-0.014089356,0.0,0.0,1.2352374e-06,0.0014890269,0.035526026,3.1753392e-05,1.5871397e-05,9.563456e-06,7.3497446e-05,0.02724363,0.025534868,0.013523867,0.076139234,0.07590427,0.053425733,1.43199515e-11,1.4313379e-11,2.322582e-11,3.1511536e-07,3.641408e-07,5e-08,5.4143246e-05,1.3852012e-05,8.986914e-05,4.8150956e-05,3.658776e-05,8.316408e-05,0.0,0.0,8389351,0.38992757,0.23114008,0.04929335,0.0508268,0.032056037,0.037174944,0.0,0.0,0.0,0.020001,0,0,0,831,24,0,0,0
108771984,0.83812976,-0.11689559,-0.14522922,-0.51262313,3.7616873,-6.5093555,0.035097823,37.560677,-4.741477,-10.431304,3.2601587e-05,3.5499008e-06,3.1947355e-05,4.0953943e-05,-0.00036879707,-5.821515e-05,0.24778734,0.040464494,0.36480102,0.00024489936,-0.0019689146,-0.014164801,0.0,0.0,1.2331651e-06,0.0014635153,0.03616156,3.075919e-05,1.5016699e-05,9.468965e-06,7.26024e-05,0.026199903,0.025008569,0.013659696,0.07640992,0.07606982,0.053831264,1.4399825e-11,1.4391592e-11,2.3317948e-11,3.0507397e-07,3.583633e-07,5e-08,5.1969226e-05,1.363115e-05,8.933722e-05,4.594571e-05,3.5594592e-05,8.2750004e-05,0.0,0.0,8389351,0.39048654,0.23201565,0.04278825,0.03127126,0.03161605,0.06830878,0.0,0.0,0.0,0.020001,0,0,0,831,24,0,0,0
108979983,0.83922666,-0.11071132,-0.13601688,-0.5147244,3.8381596,-6.6836185,-0.1975815,38.39221,-6.116171,-10.557522,3.2565244e-05,3.5731437e-06,3.193548e-05,0.00010473909,-0.0004024625,-2.3291535e-05,0.24719313,0.040412858,0.36480653,0.00054600084,-0.0016089252,-0.014031597,0.0,0.0,1.1008552e-06,0.0012553877,0.035188466,3.031305e-05,1.446851e-05,9.45035e-06,7.134006e-05,0.025337536,0.024766438,0.013748593,0.07721351,0.07677695,0.05457488,1.4483894e-11,1.4472196e-11,2.34146e-11,2.9563992e-07,3.5290017e-07,5e-08,5.0056056e-05,1.3421315e-05,8.8889436e-05,4.3970325e-05,3.4716515e-05,8.244675e-05,0.0,0.0,8389351,0.39241618,0.23361267,0.0329436,0.061063834,0.040961437,0.080239914,0.0,0.0,0.0,0.020001,0,0,0,831,24,0,0,0
109180784,0.8343178,-0.12417966,-0.16189648,-0.5121355,3.8783407,-6.8038588,-0.040460523,39.20066,-7.4519176,-10.630052,3.2526706e-05,3.6080917e-06,3.1929012e-05,0.00013857817,-0.0004380865,-7.3206306e-06,0.24668448,0.040384904,0.3647678,0.00083912147,-0.0013439022,-0.013920216,0.0,0.0,8.8006004e-07,0.001126231,0.030861296,3.0099327e-05,1.5145241e-05,9.316177e-06,6.920594e-05,0.024230963,0.02396414,0.013867496,0.077355646,0.076868325,0.055690035,1.4561474e-11,1.4544566e-11,2.3504362e-11,2.8672633e-07,3.4727717e-07,5e-08,4.8410162e-05,1.3232334e-05,8.845274e-05,4.2293934e-05,3.3943e-05,8.2123166e-05,0.0,0.0,8389351,0.3927136,0.23598737,0.021524243,0.08090734,0.028662873,0.009462302,0.0,0.0,0.0,0.020001,0,0,0,831,24,0,0,0
109380784,0.8335697,-0.12490755,-0.16626436,-0.5117773,3.9199595,-6.970558,0.19988589,39.98646,-8.864036,-10.604301,3.25719e-05,3.6546057e-06,3.1877615e-05,0.00012607014,-0.00042305232,-4.8117536e-06,0.24635969,0.040264953,0.36478812,0.0011722955,-0.0011641923,-0.014065401,0.0,0.0,1.0829871e-06,0.0011510627,0.031982046,2.9765439e-05,1.5142093e-05,9.275863e-06,6.8167814e-05,0.023332544,0.023244655,0.01389744,0.07757335,0.07705503,0.056061715,1.4641762e-11,1.461804e-11,2.3595325e-11,2.7810276e-07,3.416915e-07,5e-08,4.6995054e-05,1.3064905e-05,8.792078e-05,4.0873725e-05,3.3268563e-05,8.1674196e-05,0.0,0.0,8389351,0.39322814,0.23677355,0.03773368,0.048266735,0.03738658,0.0254103,0.0,0.0,0.0,0.020001,0,0,0,831,24,0,0,0
109581598,0.84562016,-0.112899445,-0.14515188,-0.5011101,4.000262,-7.1190176,0.21662231,40.79131,-10.283234,-10.614862,3.257975e-05,3.7056889e-06,3.1841948e-05,0.00015167824,-0.000430872,1.4234682e-05,0.2459678,0.040174667,0.36480945,0.0014565635,-0.0009198863,-0.014110405,0.0,0.0,2.871897e-06,0.001250443,0.03685299,2.7964748e-05,1.4369486e-05,9.363114e-06,6.947787e-05,0.022599896,0.022702165,0.013855815,0.0776155,0.077085875,0.056374528,1.4718263e-11,1.4685801e-11,2.3682294e-11,2.6993857e-07,3.3603934e-07,5e-08,4.5786725e-05,1.2906093e-05,8.756862e-05,3.966042e-05,3.2675245e-05,8.1394115e-05,0.0,0.0,8389351,0.39332098,0.23743321,0.033583622,0.017017888,0.030388873,0.032155037,0.0,0.0,0.0,0.020001,0,0,0,831,24,0,0,0
109781585,0.9000862,-0.008062176,-0.1563504,-0.40661347,4.2876596,-7.0477233,-0.02809052,41.6425,-11.710204,-10.751181,3.253136e-05,3.7691125e-06,3.1866755e-05,0.00023297532,-0.00045620545,6.7802204e-05,0.24590567,0.040211335,0.3649625,0.0013063422,-0.000850855,-0.014201023,0.0,0.0,6.0610364e-06,0.0016209349,0.045460667,1.8080587e-05,1.5243566e-05,1.0715381e-05,7.6393204e-05,0.021929225,0.022492763,0.0136991935,0.07767744,0.077140905,0.056668185,1.4792216e-11,1.4746005e-11,2.3766263e-11,2.6248864e-07,3.3043818e-07,5e-08,4.509692e-05,1.2787887e-05,8.673644e-05,3.8840684e-05,3.2340442e-05,8.0695994e-05,0.0,0.0,8389351,0.39346963,0.2380508,0.051815476,0.04038955,0.03463102,0.16986741,0.0,0.0,0.0,0.020001,0,0,0,831,24,0,0,0
109990409,0.9430765,0.028271133,-0.19157965,-0.27037895,4.8359613,-6.6216326,-0.24697106,42.61455,-13.147284,-10.927469,3.2433196e-05,3.8586827e-06,3.1982472e-05,0.0002860307,-0.00048021405,0.00011378552,0.2462094,0.04035291,0.36556935,0.00083047297,-0.0010152139,-0.014866005,0.0,0.0,1.03498305e-05,0.0021356102,0.05053394,8.622819e-06,1.7100589e-05,1.1442395e-05,8.237986e-05,0.02137575,0.022520639,0.013651866,0.078174725,0.07767925,0.05795164,1.4856998e-11,1.47877e-11,2.3836518e-11,2.5599977e-07,3.250785e-07,5.000007e-08,4.4674434e-05,1.2678122e-05,8.474607e-05,3.8396538e-05,3.197088e-05,7.878694e-05,0.0,0.0,8389351,0.39478344,0.24073146,0.07136906,0.058999654,0.033729497,0.01726862,0.0,0.0,0.0,0.020001,0,0,0,831,24,0,0,0
110190389,0.9663118,0.032933637,-0.22385073,-0.12266985,5.386718,-6.098579,-0.103316434,43.661163,-14.449799,-10.977005,3.2362466e-05,3.885919e-06,3.2149477e-05,0.0002583225,-0.0004905402,0.00011719289,0.2461543,0.04039627,0.36601555,0.00070094294,-0.00089706865,-0.015488805,0.0,0.0,1.2694451e-05,0.002301484,0.05426451,2.6119574e-06,1.9039044e-05,1.136732e-05,8.496715e-05,0.020760436,0.022041652,0.013566913,0.07825649,0.07785881,0.058059137,1.4910665e-11,1.4812075e-11,2.3886856e-11,2.499733e-07,3.201685e-07,5.000007e-08,4.382036e-05,1.2559934e-05,8.256641e-05,3.8090933e-05,3.1169955e-05,7.644678e-05,0.0,0.0,8389351,0.39511427,0.24095464,0.083161965,0.09338879,0.031631887,0.08097358,0.0,0.0,0.0,0.020001,0,0,0,831,24,0,0,0
110391185,0.9739493,0.045143772,-0.217701,0.04462256,5.998953,-5.4361534,0.0048142145,44.818996,-15.613526,-10.997495,3.2270596e-05,3.873689e-06,3.2322132e-05,0.00024663052,-0.0004971967,0.00012093452,0.24569899,0.040353496,0.36596453,0.0008457481,-0.00048964116,-0.015704855,0.0,0.0,1.5010648e-05,0.00245974,0.053795535,6.5458255e-07,1.8986932e-05,1.1610258e-05,8.398911e-05,0.020368807,0.021606281,0.013696409,0.078255296,0.078006364,0.058937185,1.4950836e-11,1.4821939e-11,2.3915024e-11,2.448343e-07,3.1614272e-07,5.0000036e-08,4.1743428e-05,1.23870805e-05,8.045769e-05,3.7220492e-05,2.9520863e-05,7.4005424e-05,0.0,0.0,8389351,0.39529943,0.24276982,0.07925983,0.062381547,0.030026585,0.027693769,0.0,0.0,0.0,0.020001,0,0,0,831,24,0,0,0
110599183,0.95623904,0.044973467,-0.18170139,0.22487527,6.4661365,-4.5917206,0.01534976,46.131683,-16.668095,-11.165625,3.231152e-05,3.7752147e-06,3.240071e-05,0.00031944626,-0.000508625,0.0001762399,0.24442302,0.0401457,0.36563593,0.001428223,0.0006535777,-0.015390312,0.0,0.0,1.4693337e-05,0.002271307,0.05493853,4.2835e-06,1.7245005e-05,1.1623138e-05,7.796437e-05,0.02045389,0.021053892,0.0138230305,0.07871325,0.078675896,0.059231013,1.4982468e-11,1.4828356e-11,2.3932422e-11,2.4006349e-07,3.132014e-07,5.0000036e-08,3.8285598e-05,1.2141275e-05,7.930318e-05,3.538796e-05,2.6960457e-05,7.2489114e-05,0.0,0.0,8389351,0.396723,0.24337423,0.1329072,0.0568444,0.036932696,0.16183102,0.0,0.0,0.0,0.020001,0,0,0,831,24,0,0,0
110799984,0.90220916,0.06453321,-0.15075542,0.3989071,6.6524415,-3.6523738,-0.093335345,47.45507,-17.480295,-11.537867,3.2375607e-05,3.663545e-06,3.2425443e-05,0.00048138545,-0.0005379666,0.00028702896,0.24303216,0.039992172,0.3655107,0.0020838343,0.001803913,-0.014960475,0.0,0.0,1.4042776e-05,0.0021425704,0.0519106,1.2896986e-05,1.5567306e-05,1.1767743e-05,6.554604e-05,0.020826166,0.020178666,0.0139685245,0.07861033,0.07876247,0.059169855,1.4997172e-11,1.4825089e-11,2.3938188e-11,2.3573163e-07,3.113222e-07,5.0000036e-08,3.3720797e-05,1.1818874e-05,7.867354e-05,3.249712e-05,2.3753295e-05,7.161088e-05,0.0,0.0,8389351,0.3967024,0.24324855,0.17269363,0.12707685,0.03934825,0.29225123,0.0,0.0,0.0,0.020001,0,0,0,831,24,0,0,0
110999985,0.8181747,0.049572863,-0.14491266,0.5541958,6.6831555,-2.7220414,-0.08055866,48.81501,-18.109976,-11.841697,3.241754e-05,3.5886414e-06,3.2473596e-05,0.00059872796,-0.0005697157,0.0003764712,0.24181089,0.039898336,0.3656239,0.0029387402,0.0025058016,-0.014605725,0.0,0.0,1.6653208e-05,0.0023291619,0.056663368,2.3314158e-05,1.4776492e-05,1.1191594e-05,5.0258546e-05,0.021357335,0.019449921,0.014245979,0.07849649,0.07880672,0.05999755,1.5006598e-11,1.4823809e-11,2.3945668e-11,2.3158042e-07,3.1017268e-07,5e-08,2.841665e-05,1.14111535e-05,7.811804e-05,2.8638047e-05,2.0143527e-05,7.1000795e-05,0.0,0.0,8389351,0.3966147,0.24494398,0.17789216,0.10672323,0.039158545,0.19886886,0.0,0.0,0.0,0.020001,0,0,0,831,24,0,0,0
111200784,0.68393433,0.08495005,-0.12885298,0.71303177,6.5136156,-1.9066298,0.057217292,50.141502,-18.5815,-11.940606,3.2533015e-05,3.399096e-06,3.2418346e-05,0.0006216868,-0.0005797094,0.00040236508,0.24120916,0.03993419,0.36578238,0.0035553507,0.0027841511,-0.014212031,0.0,0.0,1.7428747e-05,0.0022537855,0.053414237,3.7014943e-05,1.3371162e-05,1.0938866e-05,3.2757805e-05,0.022011274,0.019027526,0.014373469,0.078329325,0.078732476,0.059917197,1.5026718e-11,1.4830111e-11,2.3975627e-11,2.2697073e-07,3.09284e-07,5.0000036e-08,2.4467034e-05,1.1053578e-05,7.756725e-05,2.543686e-05,1.7523162e-05,7.0566486e-05,0.0,0.0,8389351,0.39631024,0.2447799,0.27415967,0.15338877,0.04668465,0.06679357,0.0,0.0,0.0,0.020001,0,0,0,831,24,0,0,0
111408784,0.49661025,0.12763256,-0.09275247,0.85351336,6.14183,-1.1261657,0.3734786,51.479584,-18.903553,-11.809539,3.252179e-05,3.1571103e-06,3.2472115e-05,0.00054334133,-0.0005679266,0.00037826737,0.24053903,0.040064372,0.36622033,0.004763642,0.0024408402,-0.0140315415,0.0,0.0,1.5434023e-05,0.0019181243,0.045925915,5.051497e-05,1.1334279e-05,1.0350422e-05,1.6054844e-05,0.022895785,0.018933414,0.014533137,0.078422435,0.07885855,0.060256205,1.5051873e-11,1.4840582e-11,2.4015092e-11,2.213782e-07,3.0796735e-07,5e-08,2.0443093e-05,1.0624711e-05,7.717581e-05,2.2161486e-05,1.4770313e-05,7.020836e-05,0.0,0.0,8389351,0.39658666,0.24547139,0.25973475,0.09467941,0.024288176,0.012216614,0.0,0.0,0.0,0.020001,0,0,0,831,24,0,0,0
111609583,0.29073843,0.15187705,-0.051509924,0.94326633,5.530028,-0.5555248,0.5915417,52.66288,-19.088776,-11.7256775,3.260619e-05,2.9711018e-06,3.2473527e-05,0.0005265511,-0.00057714584,0.0003822924,0.24030836,0.040265772,0.3667354,0.005461544,0.0019265263,-0.013710196,0.0,0.0,1.4251323e-05,0.0017329834,0.042709418,5.8902286e-05,9.746898e-06,9.496707e-06,5.324876e-06,0.023820044,0.019055678,0.014514796,0.07809351,0.0784642,0.060200237,1.5081126e-11,1.484999e-11,2.4063052e-11,2.1500196e-07,3.057815e-07,5e-08,1.771419e-05,1.0264183e-05,7.700361e-05,1.9861325e-05,1.2873995e-05,7.009502e-05,0.0,0.0,8389351,0.39567375,0.24535736,0.4215211,0.0867935,0.036530405,0.020472193,0.0,0.0,0.0,0.020001,0,0,0,831,24,0,0,0
111809585,0.06223738,0.15757059,-0.032436874,0.9850107,4.6719065,-0.18215142,0.6362062,53.689766,-19.129295,-11.538569,3.2537468e-05,2.6074893e-06,3.2525502e-05,0.00043278112,-0.0005501738,0.00037184928,0.24023248,0.04038034,0.36719286,0.0060388315,0.0014254677,-0.013405856,0.0,0.0,1.2982037e-05,0.0015673995,0.039356012,6.143069e-05,9.0097665e-06,8.507824e-06,4.4776334e-07,0.024730219,0.019520635,0.014406689,0.07778364,0.077999264,0.060168914,1.5115138e-11,1.4861128e-11,2.4117056e-11,2.0759161e-07,3.021827e-07,5e-08,1.5704167e-05,9.940205e-06,7.686967e-05,1.815727e-05,1.1497267e-05,7.001707e-05,0.0,0.0,8389351,0.39469343,0.24529353,0.33150002,0.13397759,0.021274088,0.07406699,0.0,0.0,0.0,0.020001,0,0,0,831,24,0,0,0
112017589,-0.15531354,0.13081196,-0.01847992,0.9789916,3.7701452,-0.038364746,0.43306386,54.574673,-19.142876,-11.312151,3.256102e-05,2.348124e-06,3.252807e-05,0.0003495141,-0.00053405174,0.0003443608,0.24015307,0.04045114,0.36758238,0.006510329,0.0009784055,-0.013072001,0.0,0.0,1.1576582e-05,0.0014273815,0.036571275,5.807676e-05,8.672695e-06,7.642908e-06,1.6107554e-06,0.025671411,0.020529142,0.014216654,0.0779559,0.07791536,0.060440805,1.5153387e-11,1.4875988e-11,2.4174683e-11,1.9953023e-07,2.9713382e-07,5.0000036e-08,1.42104545e-05,9.656729e-06,7.6570715e-05,1.6774771e-05,1.0560516e-05,6.987131e-05,0.0,0.0,8389351,0.39480537,0.24584712,0.31127864,0.04784009,0.02154789,0.028829698,0.0,0.0,0.0,0.020001,0,0,0,831,24,0,0,0
112218383,-0.34729415,0.1481845,0.011334441,0.9259048,2.969295,-0.12936154,0.18020134,55.25041,-19.179585,-11.397965,3.2748136e-05,2.310514e-06,3.2464635e-05,0.0004136719,-0.00058359536,0.00038065706,0.2400536,0.040668037,0.36788973,0.0067371535,0.00065361115,-0.012804867,0.0,0.0,1.04941155e-05,0.0013137723,0.036911596,5.0776518e-05,8.472164e-06,7.0076976e-06,6.9372677e-06,0.025705628,0.021201152,0.01383705,0.077828474,0.077505015,0.060225617,1.5190384e-11,1.4891473e-11,2.4228772e-11,1.9107625e-07,2.9075807e-07,5e-08,1.3134324e-05,9.413163e-06,7.625878e-05,1.5757214e-05,9.9376e-06,6.971597e-05,0.0,0.0,8389351,0.3941237,0.24540909,0.18677203,0.055426754,0.016635867,0.113292895,0.0,0.0,0.0,0.020001,0,0,0,831,24,0,0,0
112418384,-0.5317562,0.15061651,0.06198956,0.8310881,2.3172684,-0.43254337,0.14430828,55.800327,-19.238503,-11.414531,3.276668e-05,2.313927e-06,3.2508036e-05,0.00044220427,-0.0005780872,0.00038761515,0.23992127,0.04064648,0.36819062,0.0068591014,0.00043430753,-0.012616629,0.0,0.0,9.746381e-06,0.0011953735,0.03479159,4.021156e-05,8.874092e-06,6.6046896e-06,1.5381314e-05,0.024655482,0.021234754,0.013523432,0.077720776,0.077122845,0.06080778,1.52288e-11,1.4912717e-11,2.4280418e-11,1.8313766e-07,2.8383513e-07,5e-08,1.2468682e-05,9.223851e-06,7.6133656e-05,1.5200539e-05,9.580051e-06,6.9668815e-05,0.0,0.0,8389351,0.39350176,0.24659233,0.11038763,0.10002145,0.018397031,0.056619786,0.0,0.0,0.0,0.020001,0,0,0,831,24,0,0,0
