timestamp,magnetometer_ga[0],magnetometer_ga[1],magnetometer_ga[2]
86523668,0.22658649,-0.16627388,0.36420372
86545667,0.22963154,-0.16327934,0.37309033
86567713,0.2144062,-0.1722629,0.36716592
86589709,0.2144062,-0.1722629,0.36716592
86611666,0.21745129,-0.1692684,0.36716592
86633666,0.22049636,-0.1692684,0.36716592
86655666,0.22963154,-0.16627388,0.34939277
86677666,0.21745129,-0.16028483,0.3701281
86699668,0.21745129,-0.1722629,0.36716592
86721666,0.22963154,-0.16327934,0.3819769
86744733,0.22963154,-0.16028483,0.3701281
86766707,0.20527102,-0.1722629,0.3701281
86789677,0.22049636,-0.1722629,0.3819769
86811672,0.21745129,-0.17525744,0.3819769
86833715,0.2144062,-0.16627388,0.37901467
86856723,0.22049636,-0.16028483,0.37901467
86878719,0.22354142,-0.16627388,0.36124152
86901666,0.22658649,-0.16627388,0.3701281
86922792,0.22963154,-0.16627388,0.3760525
86943673,0.22354142,-0.1692684,0.3701281
86965667,0.20831607,-0.1692684,0.3760525
86987673,0.22354142,-0.1722629,0.3760525
87009673,0.20831607,-0.1692684,0.3760525
87032724,0.20831607,-0.1692684,0.3760525
87054708,0.22658649,-0.17525744,0.3819769
87077668,0.22049636,-0.16327934,0.38790125
87099667,0.22354142,-0.16028483,0.38790125
87121706,0.22049636,-0.16627388,0.37309033
87144731,0.22049636,-0.16627388,0.36124152
87166707,0.22049636,-0.1692684,0.3760525
87189670,0.20527102,-0.16627388,0.3760525
87210823,0.20831607,-0.16627388,0.3701281
87233673,0.21745129,-0.1692684,0.37901467
87256730,0.21745129,-0.1692684,0.3819769
87277674,0.21745129,-0.1572903,0.37309033
87299708,0.22963154,-0.15130126,0.37901467
87321674,0.21745129,-0.14531222,0.3701281
87344733,0.22049636,-0.13932317,0.36716592
87366715,0.22658649,-0.13932317,0.37309033
87387673,0.22049636,-0.13033961,0.3701281
87409673,0.22963154,-0.12435056,0.3760525
87431713,0.22963154,-0.12435056,0.37901467
87453674,0.22354142,-0.13333413,0.36716592
87475675,0.22963154,-0.12435056,0.38790125
87497670,0.22658649,-0.13932317,0.3701281
87519675,0.22354142,-0.1423177,0.36420372
87541675,0.22658649,-0.13932317,0.37901467
87563675,0.22354142,-0.15130126,0.37309033
87585674,0.21745129,-0.14830673,0.3819769
87608718,0.22049636,-0.14531222,0.39086345
87630712,0.2144062,-0.15429579,0.3760525
87652710,0.22354142,-0.15130126,0.3760525
87674703,0.21745129,-0.14830673,0.36420372
87696724,0.22049636,-0.15130126,0.36716592
87718750,0.22354142,-0.1423177,0.38493907
87740723,0.22354142,-0.15130126,0.36716592
87763673,0.22049636,-0.14830673,0.3701281
87785666,0.22354142,-0.14830673,0.3760525
87807666,0.21745129,-0.14830673,0.36716592
87829986,0.21745129,-0.15130126,0.3760525
87852723,0.22658649,-0.15130126,0.37309033
87875668,0.22354142,-0.15130126,0.3760525
87897666,0.22658649,-0.1423177,0.38790125
87919669,0.22049636,-0.14830673,0.36716592
87942705,0.22658649,-0.15130126,0.36420372
87964767,0.23267663,-0.14830673,0.3701281
87985705,0.22049636,-0.14830673,0.36420372
88006741,0.23267663,-0.14531222,0.37901467
88028728,0.24181183,-0.14830673,0.36716592
88050708,0.22963154,-0.14531222,0.36716592
88073159,0.23267663,-0.14830673,0.36420372
88094703,0.23267663,-0.14830673,0.36420372
88116716,0.22963154,-0.14531222,0.36420372
88138704,0.24181183,-0.1423177,0.37309033
88161123,0.23267663,-0.13932317,0.36716592
88183670,0.22963154,-0.13632865,0.36124152
88206703,0.22658649,-0.13632865,0.36420372
88228729,0.23572169,-0.13932317,0.36716592
88250743,0.23876676,-0.13033961,0.3760525
88271706,0.23572169,-0.13632865,0.36420372
88294701,0.2448569,-0.13632865,0.36420372
88316732,0.23572169,-0.13333413,0.36420372
88338704,0.24181183,-0.13632865,0.36716592
88359674,0.24181183,-0.12435056,0.3760525
88382706,0.23876676,-0.13033961,0.36716592
88404843,0.24790196,-0.12734509,0.3701281
88426704,0.23876676,-0.12435056,0.36716592
88447665,0.2448569,-0.12435056,0.3760525
88470707,0.2448569,-0.12135605,0.3760525
88492731,0.24181183,-0.12734509,0.36420372
88514703,0.25094703,-0.12734509,0.37309033
88537252,0.23876676,-0.12435056,0.3701281
88559712,0.24181183,-0.12435056,0.36716592
88582711,0.23572169,-0.12435056,0.36716592
88604735,0.23876676,-0.13033961,0.36716592
88626710,0.23876676,-0.12135605,0.3819769
88647666,0.23572169,-0.12734509,0.3701281
88670714,0.24790196,-0.12435056,0.37309033
88692722,0.23876676,-0.12135605,0.36420372
88714710,0.2448569,-0.13033961,0.35531715
88735665,0.23572169,-0.12435056,0.36716592
88758713,0.24181183,-0.12435056,0.37309033
88780735,0.25399208,-0.12435056,0.36716592
88802711,0.24181183,-0.12135605,0.36124152
88823666,0.24790196,-0.118361525,0.3701281
88846749,0.2448569,-0.118361525,0.3701281
88867705,0.24181183,-0.12435056,0.36716592
88890712,0.25703716,-0.12135605,0.36716592
88913227,0.24790196,-0.12135605,0.36716592
88935666,0.25094703,-0.12135605,0.36124152
88958703,0.24790196,-0.12135605,0.35531715
88980735,0.25399208,-0.12734509,0.35531715
89002712,0.25399208,-0.118361525,0.36716592
89023667,0.26008224,-0.12435056,0.3701281
89046704,0.2631273,-0.12135605,0.36420372
89068728,0.25094703,-0.118361525,0.35827935
89090704,0.25703716,-0.12734509,0.35235497
89111666,0.24790196,-0.12135605,0.36420372
89134743,0.25094703,-0.12135605,0.35827935
89155706,0.2631273,-0.12135605,0.36420372
89178706,0.25094703,-0.118361525,0.35827935
89201213,0.26008224,-0.12435056,0.35531715
89223666,0.25703716,-0.12435056,0.34939277
89246703,0.25399208,-0.12135605,0.35531715
89268744,0.25703716,-0.11237249,0.36716592
89290703,0.25094703,-0.118361525,0.36420372
89311665,0.25399208,-0.115367,0.36124152
89334706,0.25094703,-0.115367,0.36124152
89356740,0.25399208,-0.12435056,0.35531715
89378703,0.25703716,-0.115367,0.36716592
89402703,0.25399208,-0.12135605,0.35531715
89425388,0.25399208,-0.115367,0.37309033
89447665,0.25703716,-0.115367,0.3760525
89470703,0.25399208,-0.11237249,0.3701281
89492739,0.26008224,-0.12135605,0.33458182
89514703,0.2631273,-0.118361525,0.34643057
89537215,0.2631273,-0.118361525,0.337544
89558702,0.2631273,-0.118361525,0.337544
89580740,0.2631273,-0.118361525,0.3405062
89602707,0.26617235,-0.12135605,0.337544
89625611,0.26617235,-0.118361525,0.337544
89647706,0.26617235,-0.118361525,0.3405062
89670712,0.2631273,-0.12135605,0.337544
89692751,0.2631273,-0.12135605,0.3405062
89713705,0.26617235,-0.12135605,0.3405062
89734742,0.26617235,-0.12135605,0.3434684
89756721,0.2631273,-0.12135605,0.337544
89778704,0.26008224,-0.12135605,0.34643057
89801154,0.26008224,-0.12135605,0.3434684
89822703,0.26008224,-0.12135605,0.34643057
89844671,0.26008224,-0.12734509,0.3434684
89865680,0.2631273,-0.12734509,0.337544
89887716,0.2631273,-0.13033961,0.3405062
89910704,0.2631273,-0.13033961,0.33458182
89932728,0.26008224,-0.12734509,0.3434684
89954709,0.26617235,-0.13033961,0.3405062
89977167,0.26617235,-0.12734509,0.337544
89999674,0.26617235,-0.13333413,0.337544
90022703,0.26617235,-0.13333413,0.337544
90044768,0.26921746,-0.13333413,0.3405062
90065714,0.26617235,-0.13033961,0.337544
90086743,0.26617235,-0.13333413,0.33161962
90108757,0.26921746,-0.13333413,0.33458182
90130704,0.26921746,-0.13333413,0.33458182
90153228,0.26617235,-0.13333413,0.32865742
90174703,0.26617235,-0.13333413,0.337544
90196717,0.2722625,-0.13333413,0.33458182
90218704,0.26921746,-0.13033961,0.33458182
90240719,0.26921746,-0.13333413,0.337544
90263938,0.26617235,-0.13333413,0.33458182
90287944,0.26921746,-0.13033961,0.337544
90312017,0.26617235,-0.13033961,0.337544
90335917,0.26921746,-0.13333413,0.33161962
90360071,0.26617235,-0.13333413,0.3405062
90382711,0.26617235,-0.13333413,0.337544
90405666,0.26921746,-0.13333413,0.33458182
90426712,0.26617235,-0.13333413,0.33458182
90449666,0.26617235,-0.13632865,0.337544
90471845,0.26921746,-0.13632865,0.3405062
90495609,0.26617235,-0.13632865,0.337544
90517675,0.26921746,-0.13632865,0.33458182
90539352,0.2631273,-0.13932317,0.33458182
90563085,0.26617235,-0.13932317,0.33161962
90587076,0.2631273,-0.13632865,0.3405062
90611079,0.2631273,-0.13632865,0.337544
90632731,0.26617235,-0.13932317,0.33458182
90653665,0.2631273,-0.13932317,0.337544
90675073,0.26921746,-0.13932317,0.33161962
90698666,0.26617235,-0.13632865,0.33161962
90720711,0.2631273,-0.13632865,0.33458182
90741673,0.26617235,-0.13632865,0.3405062
90763666,0.2631273,-0.13333413,0.337544
90787088,0.26617235,-0.13632865,0.337544
90809665,0.2631273,-0.13333413,0.337544
90832725,0.26008224,-0.13632865,0.33161962
90853666,0.2631273,-0.13632865,0.3434684
90875666,0.2631273,-0.13632865,0.33458182
90897665,0.26008224,-0.13932317,0.3405062
90920737,0.26008224,-0.13632865,0.337544
90941666,0.2631273,-0.13632865,0.3405062
90963673,0.2631273,-0.13632865,0.3405062
90985665,0.25703716,-0.13632865,0.3405062
91008727,0.26008224,-0.13632865,0.3434684
91030704,0.25399208,-0.13932317,0.3434684
91051666,0.25399208,-0.13632865,0.34643057
91073665,0.25703716,-0.13632865,0.3434684
91095709,0.25703716,-0.13333413,0.3434684
91117665,0.25399208,-0.13632865,0.3434684
91139667,0.25703716,-0.13333413,0.3434684
91161666,0.25703716,-0.13333413,0.337544
91183666,0.25703716,-0.13333413,0.3434684
91205665,0.25703716,-0.13632865,0.3434684
91227666,0.25703716,-0.13333413,0.3434684
91249667,0.26008224,-0.13632865,0.3405062
91272728,0.26008224,-0.13632865,0.337544
91294704,0.26008224,-0.13632865,0.3405062
91317673,0.26008224,-0.13333413,0.3405062
91339673,0.26008224,-0.13333413,0.3405062
91361706,0.26008224,-0.13333413,0.3434684
91384736,0.26008224,-0.13033961,0.337544
91406713,0.26008224,-0.13033961,0.3405062
91429673,0.26008224,-0.13333413,0.3405062
91450839,0.26008224,-0.13333413,0.3434684
91473678,0.26008224,-0.13333413,0.34643057
91496779,0.26008224,-0.13333413,0.3434684
91517706,0.26008224,-0.13333413,0.337544
91539667,0.26008224,-0.13333413,0.3405062
91561665,0.26008224,-0.13333413,0.3405062
91584780,0.25703716,-0.13333413,0.34643057
91606714,0.25399208,-0.13632865,0.3434684
91627673,0.25703716,-0.13632865,0.34643057
91649666,0.25094703,-0.13632865,0.3434684
91671706,0.25094703,-0.13632865,0.3434684
91693665,0.25094703,-0.13932317,0.34643057
91715666,0.25094703,-0.13932317,0.3434684
91737666,0.25094703,-0.13932317,0.34643057
91759666,0.24790196,-0.13932317,0.35235497
91781669,0.24790196,-0.13932317,0.34939277
91803666,0.2448569,-0.13932317,0.34643057
91825665,0.2448569,-0.13932317,0.34643057
91848717,0.2448569,-0.13632865,0.34643057
91870714,0.24181183,-0.13932317,0.34939277
91893667,0.2448569,-0.13632865,0.34939277
91915668,0.24181183,-0.13632865,0.35235497
91937705,0.2448569,-0.13632865,0.35235497
91960724,0.24181183,-0.13632865,0.34939277
91982710,0.2448569,-0.13632865,0.34939277
92005667,0.24790196,-0.13632865,0.35235497
92026848,0.25094703,-0.13333413,0.34939277
92049666,0.25094703,-0.13333413,0.34939277
92072734,0.25094703,-0.13333413,0.34939277
92093667,0.25399208,-0.13333413,0.34939277
92114823,0.25399208,-0.13333413,0.337544
92136723,0.25399208,-0.13333413,0.3434684
92158712,0.25399208,-0.13333413,0.34939277
92181667,0.25703716,-0.13333413,0.3434684
92202758,0.25703716,-0.13632865,0.3405062
92222712,0.26008224,-0.13333413,0.34643057
92245666,0.25703716,-0.13333413,0.3405062
92267667,0.26008224,-0.13333413,0.3405062
92289705,0.25703716,-0.13333413,0.3405062
92312718,0.25703716,-0.13033961,0.34643057
92334709,0.26008224,-0.13033961,0.3405062
92357666,0.26008224,-0.13333413,0.3405062
92379677,0.26008224,-0.13033961,0.337544
92401665,0.26008224,-0.13033961,0.34643057
92424724,0.25703716,-0.13033961,0.34643057
92445665,0.2631273,-0.13033961,0.3434684
92467672,0.25703716,-0.13033961,0.337544
92489666,0.25703716,-0.13333413,0.337544
92512774,0.25703716,-0.13333413,0.34643057
92533666,0.25399208,-0.13033961,0.3434684
92555666,0.25703716,-0.13333413,0.34643057
92577705,0.25703716,-0.13333413,0.34939277
92600728,0.25399208,-0.13333413,0.3434684
92622712,0.25703716,-0.13632865,0.3434684
92645666,0.25399208,-0.13632865,0.3405062
92666786,0.25399208,-0.13333413,0.34939277
92687666,0.25399208,-0.13333413,0.3434684
92709705,0.25094703,-0.13333413,0.34643057
92731666,0.25094703,-0.13333413,0.3434684
92753666,0.24790196,-0.13632865,0.34939277
92776725,0.25094703,-0.13333413,0.35235497
92798704,0.25094703,-0.13333413,0.3405062
92821666,0.25094703,-0.13333413,0.34939277
92843668,0.25399208,-0.13333413,0.3434684
92865705,0.25703716,-0.13333413,0.34643057
92888752,0.25703716,-0.13333413,0.34643057
92910704,0.25399208,-0.13632865,0.3434684
92933666,0.25399208,-0.13632865,0.3405062
92955667,0.25399208,-0.13932317,0.3434684
92976734,0.25399208,-0.13932317,0.34939277
92998714,0.25399208,-0.13932317,0.34643057
93021665,0.25399208,-0.13632865,0.34939277
93042818,0.25399208,-0.13632865,0.34939277
93064732,0.25703716,-0.13632865,0.34643057
93086712,0.26008224,-0.13333413,0.337544
93109666,0.26008224,-0.13632865,0.337544
93130850,0.26008224,-0.13632865,0.3434684
93153709,0.26617235,-0.13632865,0.337544
93176723,0.26921746,-0.13333413,0.3405062
93198705,0.2631273,-0.13333413,0.33458182
93221666,0.2631273,-0.13333413,0.337544
93242830,0.2631273,-0.13632865,0.337544
93265666,0.2631273,-0.13333413,0.337544
93288732,0.2631273,-0.13333413,0.3405062
93309665,0.26008224,-0.13632865,0.337544
93331666,0.26008224,-0.13632865,0.3405062
93353673,0.26008224,-0.13632865,0.3405062
93376710,0.26008224,-0.13333413,0.3434684
93398708,0.26008224,-0.13333413,0.3405062
93419671,0.2631273,-0.13632865,0.3405062
93441665,0.2631273,-0.13632865,0.337544
93463705,0.2631273,-0.13333413,0.337544
93485666,0.2631273,-0.13333413,0.337544
93507666,0.26617235,-0.13333413,0.337544
93529666,0.2631273,-0.13333413,0.337544
93551672,0.26617235,-0.13632865,0.33458182
93573666,0.26617235,-0.13333413,0.32865742
93595669,0.26617235,-0.13333413,0.337544
93617666,0.26617235,-0.13333413,0.3405062
93640773,0.26617235,-0.13632865,0.337544
93662711,0.26617235,-0.13333413,0.337544
93685669,0.26617235,-0.13333413,0.3405062
93707673,0.26617235,-0.13033961,0.3434684
93729712,0.26617235,-0.13333413,0.33458182
93752741,0.2631273,-0.13632865,0.33458182
93774707,0.26617235,-0.13632865,0.3405062
93797667,0.26921746,-0.13632865,0.337544
93819665,0.26921746,-0.13333413,0.33458182
93841666,0.26921746,-0.13333413,0.33161962
93863666,0.26921746,-0.13632865,0.33161962
93885666,0.26921746,-0.13632865,0.33161962
93907666,0.26921746,-0.13333413,0.33161962
93929666,0.26617235,-0.13632865,0.33161962
93952718,0.26617235,-0.13632865,0.33458182
93974704,0.2722625,-0.13632865,0.33161962
93996766,0.2722625,-0.13632865,0.33161962
94017704,0.26921746,-0.13932317,0.33161962
94040724,0.26921746,-0.13932317,0.33161962
94062711,0.26921746,-0.13632865,0.33458182
94085674,0.26921746,-0.13632865,0.33161962
94107675,0.2722625,-0.13932317,0.33458182
94129674,0.2722625,-0.13932317,0.33458182
94151675,0.2722625,-0.13632865,0.33161962
94172733,0.27530757,-0.13932317,0.32569525
94194713,0.27530757,-0.13932317,0.32569525
94216726,0.27530757,-0.13632865,0.33458182
94238712,0.27530757,-0.13333413,0.33161962
94260723,0.2722625,-0.13632865,0.32569525
94282711,0.2722625,-0.13333413,0.33458182
94304726,0.26921746,-0.13333413,0.337544
94326742,0.26921746,-0.13333413,0.337544
94348732,0.26617235,-0.13333413,0.337544
94371674,0.26617235,-0.13333413,0.33458182
94393674,0.26617235,-0.13632865,0.337544
94415675,0.26617235,-0.13632865,0.33458182
94437978,0.2722625,-0.13333413,0.3405062
94460710,0.26921746,-0.13632865,0.33161962
94483672,0.26921746,-0.13632865,0.33161962
94505666,0.26921746,-0.13632865,0.33458182
94527673,0.2722625,-0.13632865,0.33161962
94548724,0.2722625,-0.13932317,0.33458182
94571705,0.27835262,-0.13932317,0.337544
94592769,0.27530757,-0.13932317,0.32273304
94614568,0.27530757,-0.13632865,0.32569525
94636723,0.27530757,-0.13632865,0.33458182
94659666,0.27530757,-0.13632865,0.33161962
94682712,0.27530757,-0.13333413,0.32569525
94705213,0.2722625,-0.13932317,0.32865742
94726704,0.2722625,-0.13932317,0.32865742
94747666,0.2722625,-0.13932317,0.33161962
94770712,0.2722625,-0.13932317,0.33458182
94795077,0.27530757,-0.13632865,0.33161962
94816726,0.2722625,-0.13932317,0.32865742
94837668,0.2722625,-0.13932317,0.32865742
94857666,0.2722625,-0.1423177,0.32865742
94879768,0.2722625,-0.13932317,0.33161962
94903735,0.26921746,-0.13932317,0.33458182
94924755,0.26617235,-0.13932317,0.33458182
94947043,0.2631273,-0.13932317,0.32865742
94970916,0.2631273,-0.1423177,0.337544
94993665,0.26008224,-0.13932317,0.33458182
95015673,0.25703716,-0.1423177,0.337544
95037666,0.26008224,-0.1423177,0.337544
95058782,0.26008224,-0.1423177,0.337544
95081674,0.25703716,-0.14531222,0.3434684
95104724,0.25703716,-0.14531222,0.33458182
95126705,0.25703716,-0.14531222,0.337544
95148771,0.25703716,-0.14531222,0.337544
95169709,0.25703716,-0.14531222,0.337544
95192764,0.26008224,-0.14531222,0.3405062
95214704,0.26008224,-0.14531222,0.3405062
95237714,0.26008224,-0.14531222,0.337544
95258749,0.26008224,-0.14531222,0.337544
95280763,0.2631273,-0.14830673,0.33458182
95302712,0.2631273,-0.14830673,0.33458182
95325711,0.2631273,-0.14830673,0.337544
95347666,0.2631273,-0.15130126,0.33458182
95369666,0.26617235,-0.14830673,0.33458182
95392724,0.2631273,-0.14830673,0.33161962
95414709,0.26921746,-0.14830673,0.33458182
95437712,0.26617235,-0.14531222,0.33458182
95458904,0.2631273,-0.14531222,0.33458182
95481665,0.26617235,-0.14531222,0.33458182
95504717,0.26617235,-0.14531222,0.33161962
95525666,0.2631273,-0.14830673,0.33161962
95547668,0.2631273,-0.14830673,0.337544
95569666,0.26617235,-0.14830673,0.33458182
95592741,0.26617235,-0.14830673,0.33458182
95613665,0.2631273,-0.14830673,0.33161962
95635666,0.2631273,-0.14830673,0.33161962
95657666,0.26617235,-0.15130126,0.32569525
95680738,0.26008224,-0.14830673,0.33458182
95702721,0.26008224,-0.14830673,0.337544
95723705,0.2631273,-0.14830673,0.33458182
95745665,0.26008224,-0.15130126,0.33458182
95767711,0.26008224,-0.14830673,0.337544
95789665,0.2631273,-0.15130126,0.337544
95811666,0.2631273,-0.14830673,0.337544
95833673,0.2631273,-0.14830673,0.33458182
95855670,0.26617235,-0.14830673,0.33161962
95877666,0.26617235,-0.14830673,0.32865742
95899666,0.2631273,-0.14830673,0.33161962
95921665,0.2631273,-0.14531222,0.337544
95944737,0.26617235,-0.14531222,0.33458182
95966713,0.26617235,-0.14531222,0.337544
95989666,0.2631273,-0.14531222,0.33458182
96011052,0.2631273,-0.14531222,0.33458182
96033705,0.2631273,-0.14531222,0.337544
96056722,0.2631273,-0.1423177,0.337544
96078709,0.26008224,-0.1423177,0.337544
96100728,0.26008224,-0.1423177,0.3405062
96123665,0.26008224,-0.13932317,0.337544
96145666,0.26008224,-0.13932317,0.337544
96167673,0.25703716,-0.13932317,0.3405062
96188725,0.26008224,-0.13932317,0.3434684
96210738,0.26008224,-0.1423177,0.337544
96233668,0.26008224,-0.13932317,0.337544
96255666,0.26008224,-0.13932317,0.337544
96278070,0.25703716,-0.13932317,0.3405062
96299705,0.26008224,-0.1423177,0.3405062
96320763,0.26008224,-0.1423177,0.33458182
96342705,0.2631273,-0.1423177,0.33458182
96364724,0.2631273,-0.13932317,0.337544
96387672,0.2631273,-0.13932317,0.337544
96409665,0.2631273,-0.13932317,0.3434684
96431673,0.2631273,-0.13932317,0.337544
96453979,0.2631273,-0.13932317,0.337544
96476730,0.26617235,-0.13632865,0.3405062
96498704,0.26617235,-0.13632865,0.3405062
96521228,0.2631273,-0.13632865,0.33458182
96542704,0.2631273,-0.13333413,0.337544
96564714,0.2631273,-0.13333413,0.337544
96586744,0.2631273,-0.13333413,0.3405062
96607719,0.26008224,-0.13333413,0.337544
96630703,0.26008224,-0.13632865,0.31977084
96652758,0.26008224,-0.13333413,0.3405062
96674712,0.26008224,-0.13333413,0.337544
96697185,0.2631273,-0.13033961,0.3405062
96719666,0.2631273,-0.13333413,0.3434684
96742703,0.26008224,-0.13033961,0.3405062
96764730,0.2631273,-0.13333413,0.34643057
96786711,0.2631273,-0.13033961,0.3434684
96807668,0.2631273,-0.13333413,0.337544
96830744,0.2631273,-0.13033961,0.3405062
96852842,0.2631273,-0.13033961,0.3405062
96875666,0.26617235,-0.13033961,0.337544
96898708,0.2631273,-0.13333413,0.337544
96919672,0.2631273,-0.13333413,0.33458182
96942746,0.2631273,-0.13333413,0.337544
96964871,0.26617235,-0.13033961,0.337544
96986703,0.26617235,-0.13333413,0.337544
97007672,0.26617235,-0.13333413,0.33161962
97030704,0.2631273,-0.13033961,0.337544
97052718,0.2631273,-0.13033961,0.3405062
97074704,0.2631273,-0.13033961,0.3405062
97095665,0.26617235,-0.13333413,0.3405062
97118741,0.26617235,-0.13033961,0.3434684
97139705,0.26617235,-0.13033961,0.3405062
97162703,0.2631273,-0.12734509,0.337544
97185290,0.26617235,-0.13033961,0.337544
97207674,0.26617235,-0.12734509,0.337544
97230703,0.26617235,-0.12734509,0.3405062
97252841,0.26617235,-0.12734509,0.337544
97274704,0.2631273,-0.12734509,0.337544
97295665,0.26617235,-0.12734509,0.337544
97317674,0.2631273,-0.12734509,0.3405062
97339667,0.26617235,-0.12734509,0.3405062
97362705,0.26617235,-0.12734509,0.33458182
97385222,0.26921746,-0.12734509,0.3405062
97406742,0.26617235,-0.12435056,0.33458182
97427712,0.26617235,-0.12435056,0.3405062
97450703,0.26921746,-0.12734509,0.3405062
97473242,0.26617235,-0.12734509,0.337544
97494710,0.26617235,-0.12435056,0.33458182
97516743,0.26921746,-0.12734509,0.337544
97538703,0.2722625,-0.12435056,0.337544
97561134,0.2722625,-0.12435056,0.32865742
97583665,0.2722625,-0.12435056,0.33458182
97606710,0.26921746,-0.12435056,0.33458182
97628719,0.2722625,-0.12135605,0.33458182
97650749,0.26921746,-0.12135605,0.33458182
97671707,0.2722625,-0.12135605,0.33458182
97694710,0.27530757,-0.12435056,0.337544
97716741,0.2722625,-0.12435056,0.33458182
97738711,0.2722625,-0.12135605,0.33161962
97759669,0.26921746,-0.12135605,0.33458182
97782710,0.26921746,-0.12135605,0.33458182
97805666,0.2722625,-0.12135605,0.33161962
97828369,0.26617235,-0.12435056,0.337544
97850711,0.26921746,-0.12435056,0.33458182
97873668,0.26617235,-0.12435056,0.337544
97895054,0.2631273,-0.12435056,0.337544
97919252,0.26617235,-0.12734509,0.33458182
97943043,0.26617235,-0.12734509,0.33458182
97965665,0.2631273,-0.12734509,0.337544
97987669,0.26008224,-0.12734509,0.337544
98009675,0.2631273,-0.13033961,0.3405062
98031674,0.2631273,-0.13033961,0.33458182
98055081,0.26617235,-0.13033961,0.337544
98079278,0.2631273,-0.13033961,0.337544
98102791,0.26617235,-0.13333413,0.33458182
98125707,0.26617235,-0.13033961,0.33458182
98147674,0.26921746,-0.13333413,0.337544
98169674,0.26617235,-0.13333413,0.337544
98192765,0.26617235,-0.13632865,0.337544
98214712,0.26617235,-0.13632865,0.337544
98235669,0.26617235,-0.13333413,0.337544
98257674,0.26617235,-0.13632865,0.3434684
98280769,0.2631273,-0.13632865,0.337544
98302709,0.2631273,-0.13632865,0.337544
98325666,0.26617235,-0.13632865,0.33161962
98347668,0.26617235,-0.13632865,0.337544
98369704,0.2631273,-0.13932317,0.337544
98392723,0.2631273,-0.13932317,0.337544
98414707,0.26008224,-0.13932317,0.337544
98437666,0.26008224,-0.13932317,0.337544
98459668,0.2631273,-0.13932317,0.337544
98480771,0.2631273,-0.1423177,0.337544
98502706,0.2631273,-0.1423177,0.337544
98525666,0.2631273,-0.1423177,0.337544
98546855,0.2631273,-0.1423177,0.33458182
98569666,0.2631273,-0.1423177,0.33458182
98592755,0.26008224,-0.1423177,0.3434684
98613667,0.26008224,-0.1423177,0.337544
98635667,0.26008224,-0.1423177,0.33161962
98657712,0.26008224,-0.1423177,0.33458182
98680709,0.26008224,-0.1423177,0.33458182
98702704,0.26008224,-0.1423177,0.337544
98724723,0.25703716,-0.1423177,0.337544
98746082,0.25703716,-0.1423177,0.337544
98768732,0.26008224,-0.14531222,0.3405062
98791666,0.25703716,-0.14531222,0.33458182
98812732,0.25703716,-0.14531222,0.337544
98834143,0.25703716,-0.14531222,0.337544
98856724,0.25703716,-0.1423177,0.337544
98879671,0.25399208,-0.14531222,0.337544
98901666,0.25399208,-0.1423177,0.337544
98923722,0.25703716,-0.1423177,0.337544
98946763,0.25703716,-0.14531222,0.337544
98968821,0.25703716,-0.14531222,0.3405062
98990704,0.25703716,-0.14531222,0.3405062
99011666,0.25399208,-0.14531222,0.33458182
99034703,0.25703716,-0.14531222,0.3434684
99056727,0.25399208,-0.14531222,0.3434684
99078703,0.25703716,-0.14830673,0.3405062
99099673,0.25399208,-0.14531222,0.3434684
99122703,0.25399208,-0.14830673,0.337544
99144715,0.25703716,-0.14830673,0.33458182
99166709,0.25399208,-0.14531222,0.337544
99187667,0.25703716,-0.14830673,0.3405062
99210746,0.25399208,-0.14830673,0.337544
99232734,0.25399208,-0.14830673,0.337544
99254704,0.25399208,-0.14531222,0.337544
99277291,0.25399208,-0.14830673,0.3405062
99299673,0.25399208,-0.14830673,0.337544
99322703,0.25399208,-0.14830673,0.3405062
99344728,0.25399208,-0.14830673,0.3405062
99366705,0.25399208,-0.14830673,0.337544
99389288,0.25399208,-0.14830673,0.337544
99411673,0.25399208,-0.14830673,0.3434684
99434712,0.25703716,-0.14830673,0.337544
99456741,0.25399208,-0.14830673,0.337544
99478710,0.25703716,-0.14830673,0.3405062
99499666,0.25703716,-0.14830673,0.337544
99522710,0.25703716,-0.14830673,0.337544
99543666,0.25703716,-0.14830673,0.337544
99567942,0.26008224,-0.15130126,0.3405062
99591845,0.25703716,-0.14830673,0.3405062
99613667,0.25703716,-0.15130126,0.3405062
99635668,0.25703716,-0.15130126,0.337544
99656752,0.25399208,-0.15130126,0.337544
99677705,0.25399208,-0.15130126,0.3405062
99699672,0.25399208,-0.15429579,0.3434684
99723073,0.25703716,-0.15130126,0.337544
99747051,0.25094703,-0.15130126,0.3405062
99771076,0.25399208,-0.15130126,0.337544
99795151,0.25399208,-0.15429579,0.337544
99819213,0.25399208,-0.15130126,0.3434684
99840731,0.25399208,-0.15429579,0.337544
99863663,0.25703716,-0.15429579,0.337544
99885665,0.25703716,-0.15429579,0.33458182
99907666,0.25703716,-0.15429579,0.3405062
99928731,0.25399208,-0.15130126,0.337544
99949674,0.25703716,-0.15130126,0.337544
99972055,0.25703716,-0.15130126,0.337544
99996013,0.25703716,-0.15429579,0.337544
100020166,0.25703716,-0.15429579,0.337544
100044010,0.26008224,-0.15429579,0.33458182
100067968,0.26008224,-0.15429579,0.337544
100092051,0.26008224,-0.15429579,0.337544
100116030,0.26008224,-0.15429579,0.337544
100138568,0.2631273,-0.15429579,0.337544
100160466,0.2631273,-0.15429579,0.33458182
100182584,0.2631273,-0.15130126,0.33458182
100204533,0.2631273,-0.15130126,0.33161962
100228020,0.2631273,-0.15130126,0.33458182
100251961,0.26008224,-0.15130126,0.33161962
100276011,0.2631273,-0.15130126,0.33161962
100300166,0.26617235,-0.14830673,0.33161962
100323999,0.26617235,-0.14830673,0.32865742
100346871,0.26617235,-0.14830673,0.33458182
100369665,0.26921746,-0.14830673,0.337544
100391669,0.26921746,-0.14830673,0.33458182
100413665,0.26921746,-0.14830673,0.33161962
100435968,0.26921746,-0.14830673,0.32865742
100460073,0.26921746,-0.14830673,0.33161962
100484040,0.26617235,-0.15130126,0.32865742
100507073,0.26921746,-0.15130126,0.32865742
100529666,0.26921746,-0.14830673,0.32569525
100551668,0.26921746,-0.15130126,0.33161962
100573668,0.26921746,-0.15130126,0.32569525
100596054,0.26921746,-0.14830673,0.33161962
100620085,0.2722625,-0.14830673,0.32865742
100644018,0.26921746,-0.14830673,0.33161962
100668114,0.2722625,-0.14830673,0.32569525
100692091,0.26921746,-0.14830673,0.32569525
100715150,0.2722625,-0.14830673,0.32569525
100737674,0.2722625,-0.14830673,0.33161962
100759668,0.26921746,-0.14830673,0.32865742
100780849,0.26921746,-0.14830673,0.33161962
100803944,0.26921746,-0.14830673,0.33161962
100828523,0.26617235,-0.14830673,0.337544
100851955,0.2631273,-0.14830673,0.337544
100876014,0.26008224,-0.14531222,0.33458182
100900081,0.2631273,-0.14830673,0.33458182
100923079,0.2631273,-0.14830673,0.337544
100945665,0.26008224,-0.15130126,0.33458182
100967678,0.2631273,-0.15130126,0.337544
100989665,0.2631273,-0.15130126,0.33161962
101012056,0.2631273,-0.14830673,0.33458182
101036049,0.2631273,-0.14830673,0.337544
101058665,0.26617235,-0.14830673,0.32865742
101083043,0.26617235,-0.14830673,0.33161962
101103672,0.26921746,-0.14830673,0.337544
101125665,0.26617235,-0.14830673,0.33161962
101148202,0.26617235,-0.14830673,0.33161962
101172169,0.26921746,-0.14830673,0.3405062
101196106,0.26617235,-0.14531222,0.337544
101219672,0.26617235,-0.14830673,0.33458182
101241682,0.26617235,-0.14531222,0.33161962
101263668,0.26617235,-0.14531222,0.33458182
101285665,0.26617235,-0.14830673,0.32865742
101307673,0.26617235,-0.14531222,0.32865742
101331062,0.26617235,-0.14531222,0.32865742
101353705,0.26617235,-0.14531222,0.33458182
101375632,0.26921746,-0.1423177,0.32865742
101395705,0.26921746,-0.14531222,0.32865742
101419220,0.26921746,-0.14531222,0.33458182
101443093,0.2722625,-0.1423177,0.33161962
101467098,0.26921746,-0.1423177,0.32865742
101491048,0.2722625,-0.14531222,0.32865742
101515046,0.26921746,-0.14531222,0.32865742
101539103,0.26921746,-0.1423177,0.33161962
101562889,0.26921746,-0.14531222,0.33161962
101587041,0.2631273,-0.14531222,0.33161962
101609668,0.2631273,-0.14531222,0.32865742
101631673,0.26617235,-0.14531222,0.33161962
101653666,0.26008224,-0.14531222,0.337544
101675666,0.26008224,-0.14531222,0.337544
101699239,0.2631273,-0.14531222,0.337544
101723153,0.26008224,-0.14830673,0.33458182
101745712,0.2631273,-0.14531222,0.33458182
101767668,0.2631273,-0.14531222,0.3405062
101788710,0.26008224,-0.14531222,0.337544
101811045,0.2631273,-0.14531222,0.337544
101831692,0.26617235,-0.14531222,0.337544
101853708,0.2631273,-0.14531222,0.33161962
101875238,0.26008224,-0.1423177,0.33458182
101897666,0.26008224,-0.14531222,0.33458182
101919673,0.26008224,-0.14531222,0.3405062
101942151,0.26008224,-0.1423177,0.337544
101964731,0.25703716,-0.1423177,0.337544
101987669,0.26008224,-0.14531222,0.3405062
102009676,0.26008224,-0.1423177,0.33458182
102031673,0.26008224,-0.1423177,0.33458182
102053706,0.2631273,-0.1423177,0.337544
102074741,0.26008224,-0.1423177,0.33458182
102096736,0.26008224,-0.1423177,0.337544
102118703,0.26008224,-0.13932317,0.3405062
102141322,0.25703716,-0.1423177,0.3405062
102162709,0.25703716,-0.13932317,0.3405062
102184793,0.25703716,-0.1423177,0.3434684
102205675,0.25399208,-0.1423177,0.3405062
102227674,0.25399208,-0.13932317,0.34643057
102248758,0.25399208,-0.1423177,0.337544
102270704,0.25399208,-0.1423177,0.3405062
102291673,0.25703716,-0.1423177,0.3434684
102313666,0.25399208,-0.1423177,0.33458182
102335666,0.26008224,-0.1423177,0.3405062
102357666,0.25703716,-0.14531222,0.337544
102379672,0.25703716,-0.14531222,0.3405062
102401674,0.26008224,-0.14531222,0.3434684
102423666,0.25703716,-0.14531222,0.33458182
102445705,0.26008224,-0.14531222,0.33458182
102466743,0.26008224,-0.14531222,0.3405062
102488749,0.26008224,-0.14830673,0.3434684
102510703,0.25703716,-0.14531222,0.3405062
102531674,0.25703716,-0.14830673,0.33161962
102554714,0.26008224,-0.15130126,0.337544
102575667,0.26008224,-0.14830673,0.337544
102598703,0.26008224,-0.15130126,0.3405062
102619666,0.26008224,-0.14830673,0.33458182
102642704,0.2631273,-0.14830673,0.337544
102664728,0.26008224,-0.15130126,0.3405062
102686704,0.26008224,-0.15130126,0.33458182
102709281,0.26008224,-0.15130126,0.337544
102731673,0.26008224,-0.14830673,0.33458182
102753676,0.2631273,-0.14830673,0.33458182
102776750,0.2631273,-0.15130126,0.337544
102798702,0.2631273,-0.14830673,0.337544
102821151,0.2631273,-0.15130126,0.33161962
102843666,0.2631273,-0.15130126,0.32865742
102864712,0.26617235,-0.15130126,0.33161962
102885670,0.2631273,-0.14830673,0.337544
102907706,0.2631273,-0.15429579,0.33161962
102930703,0.26008224,-0.15429579,0.337544
102952738,0.2631273,-0.15429579,0.33458182
102974710,0.2631273,-0.1572903,0.33458182
102997156,0.2631273,-0.15429579,0.33161962
103019707,0.26617235,-0.15429579,0.33161962
103042704,0.26617235,-0.15429579,0.32569525
103064766,0.26921746,-0.15130126,0.32273304
103085706,0.26921746,-0.15130126,0.32865742
103106743,0.2631273,-0.14830673,0.32865742
103128732,0.2631273,-0.15130126,0.337544
103150703,0.2631273,-0.14531222,0.337544
103173193,0.26008224,-0.14531222,0.33458182
103194703,0.2631273,-0.1423177,0.337544
103216727,0.2631273,-0.1423177,0.337544
103238703,0.2631273,-0.1423177,0.33161962
103261146,0.26008224,-0.1423177,0.337544
103283706,0.26617235,-0.1423177,0.33458182
103306703,0.2631273,-0.13932317,0.337544
103328715,0.2631273,-0.13932317,0.32865742
103350745,0.26617235,-0.1423177,0.33458182
103371713,0.26921746,-0.13932317,0.3405062
103394710,0.26921746,-0.13932317,0.33161962
103416729,0.26617235,-0.13932317,0.33458182
103438703,0.26617235,-0.13932317,0.337544
103459684,0.26617235,-0.1423177,0.33161962
103482705,0.2631273,-0.1423177,0.32865742
103504728,0.2631273,-0.14531222,0.33161962
103526714,0.26617235,-0.14531222,0.33161962
103548487,0.2631273,-0.14531222,0.337544
103571135,0.2631273,-0.1423177,0.337544
103595101,0.26617235,-0.14531222,0.33458182
103616725,0.2631273,-0.14531222,0.337544
103637706,0.26617235,-0.1423177,0.32865742
103659684,0.26617235,-0.14531222,0.33458182
103683083,0.26921746,-0.1423177,0.337544
103707060,0.2722625,-0.1423177,0.33161962
103729666,0.2722625,-0.1423177,0.33458182
103751669,0.26921746,-0.1423177,0.32865742
103773665,0.26921746,-0.1423177,0.33458182
103795666,0.2722625,-0.13932317,0.32865742
103815859,0.2722625,-0.1423177,0.32569525
103837706,0.2722625,-0.1423177,0.33458182
103859227,0.2722625,-0.13932317,0.33161962
103883053,0.26921746,-0.13932317,0.33161962
103907054,0.2722625,-0.13932317,0.33458182
103931088,0.26921746,-0.13932317,0.32569525
103955051,0.26921746,-0.1423177,0.32865742
103979105,0.26617235,-0.1423177,0.32865742
104003223,0.26617235,-0.1423177,0.32865742
104024740,0.26617235,-0.1423177,0.337544
104045667,0.2631273,-0.1423177,0.33458182
104067044,0.26617235,-0.1423177,0.337544
104091041,0.2631273,-0.13932317,0.3405062
104112731,0.2631273,-0.13932317,0.33161962
104133665,0.26008224,-0.13932317,0.337544
104155673,0.26008224,-0.13932317,0.337544
104179268,0.26008224,-0.13932317,0.337544
104203085,0.25703716,-0.1423177,0.337544
104225666,0.26008224,-0.1423177,0.337544
104247666,0.26008224,-0.1423177,0.3405062
104268729,0.26008224,-0.14531222,0.3405062
104289666,0.26008224,-0.14531222,0.33458182
104311669,0.2631273,-0.14531222,0.337544
104333673,0.26008224,-0.1423177,0.33458182
104355665,0.26008224,-0.1423177,0.3405062
104377665,0.25703716,-0.1423177,0.3434684
104398930,0.25703716,-0.14531222,0.337544
104421647,0.25703716,-0.1423177,0.3434684
104444718,0.26008224,-0.13932317,0.3434684
104466749,0.25703716,-0.1423177,0.337544
104488735,0.25703716,-0.1423177,0.337544
104510763,0.26008224,-0.1423177,0.3405062
104532734,0.25703716,-0.13932317,0.3405062
104554713,0.25703716,-0.13932317,0.3405062
104574890,0.25399208,-0.1423177,0.35235497
104597665,0.25399208,-0.13932317,0.3434684
104620740,0.25094703,-0.1423177,0.3405062
104641665,0.25094703,-0.1423177,0.34643057
104662948,0.25094703,-0.13932317,0.34643057
104685617,0.25094703,-0.13932317,0.34643057
104708732,0.25094703,-0.13932317,0.3434684
104730521,0.25399208,-0.13932317,0.3434684
104753705,0.25094703,-0.13932317,0.3405062
104774818,0.25399208,-0.13932317,0.34643057
104796735,0.25399208,-0.13932317,0.3405062
104818520,0.25703716,-0.1423177,0.337544
104840525,0.26008224,-0.1423177,0.3405062
104862820,0.26008224,-0.1423177,0.337544
104885628,0.26008224,-0.1423177,0.33161962
104908671,0.26008224,-0.1423177,0.33458182
104930590,0.2631273,-0.1423177,0.33458182
104952531,0.2631273,-0.1423177,0.337544
104974812,0.26008224,-0.1423177,0.33458182
104998032,0.26008224,-0.1423177,0.33458182
105020524,0.26008224,-0.14531222,0.337544
105042748,0.25703716,-0.1423177,0.3405062
105064725,0.26008224,-0.13932317,0.3405062
105086704,0.26008224,-0.1423177,0.33458182
105108737,0.25703716,-0.1423177,0.337544
105131666,0.25703716,-0.1423177,0.3405062
105152738,0.25703716,-0.1423177,0.34939277
105174666,0.25703716,-0.1423177,0.33458182
105196730,0.26008224,-0.1423177,0.337544
105218703,0.26008224,-0.1423177,0.3405062
105239666,0.25703716,-0.1423177,0.337544
105260739,0.26008224,-0.13932317,0.337544
105282714,0.25703716,-0.13632865,0.3405062
105304737,0.26008224,-0.13932317,0.337544
105326712,0.25703716,-0.13932317,0.3405062
105348738,0.26008224,-0.13632865,0.3405062
105371676,0.26008224,-0.13333413,0.3405062
105393672,0.2631273,-0.13333413,0.3405062
105415706,0.2631273,-0.13333413,0.3405062
105438711,0.26617235,-0.13932317,0.337544
105460728,0.2631273,-0.13632865,0.3405062
105482713,0.2631273,-0.13632865,0.33458182
105503666,0.2631273,-0.13932317,0.33161962
105526712,0.26008224,-0.13932317,0.337544
105548736,0.2631273,-0.1423177,0.337544
105570713,0.2631273,-0.1423177,0.337544
105593241,0.2631273,-0.1423177,0.337544
105615666,0.2631273,-0.1423177,0.337544
105638704,0.25703716,-0.1423177,0.337544
105660729,0.25703716,-0.14531222,0.337544
105682742,0.25703716,-0.14531222,0.337544
105703714,0.25703716,-0.14531222,0.3434684
105726703,0.25703716,-0.14531222,0.3405062
105748745,0.25703716,-0.1423177,0.3405062
105770703,0.25703716,-0.14531222,0.33458182
105791666,0.25703716,-0.1423177,0.337544
105814703,0.25703716,-0.1423177,0.337544
105837668,0.25703716,-0.13932317,0.337544
105859843,0.26008224,-0.1423177,0.337544
105883666,0.2631273,-0.1423177,0.33161962
105907043,0.26008224,-0.1423177,0.33458182
105929705,0.2631273,-0.1423177,0.337544
105950889,0.2631273,-0.1423177,0.33458182
105973665,0.2631273,-0.1423177,0.3405062
105996711,0.26008224,-0.1423177,0.337544
106017666,0.26008224,-0.1423177,0.337544
106038952,0.2631273,-0.1423177,0.337544
106061666,0.2631273,-0.13932317,0.3405062
106083666,0.26008224,-0.13632865,0.33458182
106105673,0.2631273,-0.13932317,0.337544
106127666,0.26921746,-0.13932317,0.337544
106149666,0.2631273,-0.13632865,0.33458182
106172734,0.26617235,-0.13932317,0.33458182
106193665,0.26617235,-0.13932317,0.337544
106215671,0.2631273,-0.13932317,0.337544
106237704,0.2631273,-0.13932317,0.337544
106260723,0.26617235,-0.13932317,0.337544
106282708,0.2631273,-0.13932317,0.337544
106305674,0.26617235,-0.13932317,0.33458182
106326737,0.26617235,-0.13932317,0.33161962
106347669,0.2631273,-0.1423177,0.33458182
106369667,0.2631273,-0.13932317,0.337544
106391666,0.26617235,-0.13932317,0.33161962
106413665,0.2631273,-0.13932317,0.337544
106436726,0.2631273,-0.13632865,0.337544
106458703,0.2631273,-0.13632865,0.337544
106480709,0.2631273,-0.13632865,0.3405062
106505717,0.2631273,-0.13333413,0.3405062
106526870,0.2631273,-0.13333413,0.3405062
106549674,0.2631273,-0.13333413,0.3405062
106572739,0.2631273,-0.13632865,0.337544
106594704,0.2631273,-0.13333413,0.3405062
106617666,0.2631273,-0.13632865,0.3405062
106639666,0.26617235,-0.13632865,0.3405062
106661666,0.26921746,-0.13632865,0.3405062
106684731,0.2722625,-0.13333413,0.33458182
106706703,0.26921746,-0.13333413,0.337544
106729666,0.2722625,-0.13632865,0.33458182
106750833,0.2722625,-0.13632865,0.33458182
106773712,0.2722625,-0.13632865,0.33458182
106796731,0.26921746,-0.13333413,0.33161962
106818704,0.2722625,-0.13632865,0.32569525
106841666,0.2722625,-0.13932317,0.337544
106862876,0.2722625,-0.13932317,0.33161962
106885673,0.26921746,-0.13932317,0.32865742
106908731,0.2722625,-0.13932317,0.32569525
106929667,0.2722625,-0.1423177,0.32865742
106951666,0.2722625,-0.1423177,0.32865742
106973665,0.2722625,-0.1423177,0.32569525
106996720,0.27530757,-0.14531222,0.32865742
107018714,0.27530757,-0.1423177,0.32569525
107039666,0.27530757,-0.1423177,0.32569525
107061665,0.27530757,-0.1423177,0.32273304
107083710,0.27530757,-0.1423177,0.32569525
107105665,0.2722625,-0.1423177,0.33161962
107127666,0.2722625,-0.1423177,0.32273304
107149666,0.2722625,-0.14531222,0.337544
107171667,0.2722625,-0.14531222,0.33458182
107193665,0.26921746,-0.14531222,0.33458182
107215666,0.26921746,-0.1423177,0.33161962
107237668,0.26921746,-0.14531222,0.33161962
107260741,0.2722625,-0.14531222,0.33161962
107282713,0.26921746,-0.14531222,0.32569525
107305666,0.26921746,-0.1423177,0.33458182
107327667,0.2722625,-0.13932317,0.32865742
107349705,0.26617235,-0.1423177,0.33161962
107372772,0.26921746,-0.1423177,0.337544
107394712,0.26617235,-0.1423177,0.337544
107417666,0.26617235,-0.1423177,0.3405062
107439007,0.2631273,-0.1423177,0.337544
107461671,0.2631273,-0.1423177,0.337544
107484729,0.26617235,-0.1423177,0.337544
107505666,0.26617235,-0.1423177,0.337544
107527666,0.26921746,-0.13932317,0.33458182
107549666,0.26921746,-0.1423177,0.33161962
107572710,0.26921746,-0.14531222,0.32865742
107594714,0.26921746,-0.1423177,0.33161962
107615668,0.2722625,-0.1423177,0.32569525
107637666,0.2722625,-0.1423177,0.32865742
107659705,0.27530757,-0.1423177,0.32865742
107681666,0.27530757,-0.1423177,0.32865742
107703666,0.27530757,-0.1423177,0.32569525
107725666,0.27530757,-0.1423177,0.33458182
107747665,0.27530757,-0.1423177,0.32865742
107769667,0.2722625,-0.1423177,0.33161962
107791666,0.2722625,-0.1423177,0.33161962
107813666,0.27530757,-0.1423177,0.33161962
107836732,0.27530757,-0.1423177,0.32569525
107858712,0.2722625,-0.14531222,0.32865742
107881677,0.2722625,-0.1423177,0.33161962
107903667,0.26921746,-0.14531222,0.32273304
107925705,0.26921746,-0.14531222,0.32865742
107948820,0.26921746,-0.14531222,0.33161962
107970703,0.26921746,-0.14531222,0.32865742
107993707,0.26921746,-0.14830673,0.32865742
108015666,0.2722625,-0.14830673,0.33458182
108036753,0.2722625,-0.14531222,0.32865742
108058704,0.2722625,-0.14531222,0.32569525
108081718,0.2722625,-0.14830673,0.32569525
108102748,0.2722625,-0.14830673,0.32569525
108122706,0.26921746,-0.14531222,0.32865742
108144727,0.2722625,-0.14531222,0.33161962
108166777,0.26921746,-0.14531222,0.32865742
108187667,0.26921746,-0.14531222,0.32865742
108208735,0.26617235,-0.14830673,0.32865742
108230893,0.26617235,-0.14830673,0.337544
108252736,0.26617235,-0.14830673,0.337544
108273667,0.2631273,-0.14830673,0.33161962
108294831,0.2631273,-0.14830673,0.33458182
108317672,0.26617235,-0.14830673,0.33458182
108339665,0.26617235,-0.14830673,0.33161962
108361704,0.2631273,-0.15130126,0.33161962
108382845,0.26921746,-0.14830673,0.337544
108405602,0.26921746,-0.14830673,0.32865742
108428731,0.26921746,-0.14830673,0.32865742
108450564,0.26921746,-0.14830673,0.33458182
108471655,0.26617235,-0.14830673,0.32865742
108493614,0.2631273,-0.14830673,0.33161962
108516729,0.26617235,-0.15130126,0.32865742
108538587,0.26617235,-0.15130126,0.337544
108560524,0.26617235,-0.15130126,0.33161962
108582804,0.26617235,-0.15130126,0.32865742
108605618,0.26617235,-0.14830673,0.337544
108628717,0.26921746,-0.14830673,0.32569525
108650747,0.26617235,-0.14830673,0.32865742
108672731,0.26921746,-0.14830673,0.32865742
108694816,0.26617235,-0.14830673,0.33161962
108717666,0.26921746,-0.14830673,0.33161962
108738712,0.26617235,-0.14830673,0.33458182
108761666,0.26921746,-0.15130126,0.33161962
108783666,0.2631273,-0.15130126,0.33458182
108805667,0.2631273,-0.15130126,0.33161962
108828674,0.2631273,-0.15130126,0.337544
108850707,0.2631273,-0.15130126,0.33458182
108873668,0.2631273,-0.15429579,0.337544
108894786,0.26008224,-0.15130126,0.337544
108914708,0.26008224,-0.15130126,0.33458182
108937666,0.26008224,-0.14830673,0.33458182
108959668,0.2631273,-0.14830673,0.337544
108981705,0.2631273,-0.14531222,0.3405062
109004725,0.2631273,-0.14531222,0.33458182
109026706,0.2631273,-0.13932317,0.337544
109049674,0.26921746,-0.13333413,0.32865742
109071670,0.26921746,-0.13033961,0.33161962
109093666,0.27530757,-0.12435056,0.33161962
109117707,0.27530757,-0.12135605,0.32569525
109140710,0.27835262,-0.118361525,0.32865742
109162713,0.27835262,-0.115367,0.33161962
109185666,0.2813977,-0.11237249,0.32865742
109207705,0.28748783,-0.109377965,0.32273304
109229711,0.28748783,-0.106383435,0.31384647
109252729,0.29357797,-0.10338892,0.32569525
109274709,0.29357797,-0.1003944,0.32273304
109298744,0.29966813,-0.097399876,0.31977084
109322744,0.3027132,-0.09440536,0.31088427
109345666,0.3027132,-0.09141083,0.31088427
109367666,0.3088033,-0.08841631,0.3049599
109389677,0.3118484,-0.085421786,0.3079221
109412732,0.31489345,-0.08242727,0.3049599
109434706,0.3179385,-0.07643822,0.3049599
109457745,0.32402864,-0.0734437,0.30199772
109478913,0.32707372,-0.07044918,0.30199772
109501673,0.3301188,-0.06745466,0.2901489
109524729,0.33316386,-0.0584711,0.28718674
109545706,0.3362089,-0.052482054,0.28422457
109567666,0.33925396,-0.052482054,0.28126234
109589668,0.34229907,-0.04649301,0.2664514
109612711,0.34534413,-0.040503964,0.2723758
109634705,0.34838918,-0.037509445,0.26348922
109657717,0.35143426,-0.028525881,0.2575648
109679667,0.3575244,-0.022536837,0.25460264
109700751,0.3575244,-0.016547795,0.24571607
109722749,0.36056945,-0.0105587505,0.24275386
109745748,0.36665958,-0.0015751865,0.23979168
109766890,0.36665958,0.001419335,0.23386729
109789666,0.36970466,0.010402899,0.2279429
109812734,0.36970466,0.016391944,0.22498073
109833666,0.37274975,0.025375508,0.22201853
109855673,0.37274975,0.031364553,0.22201853
109877665,0.3757948,0.03735359,0.21313195
109900732,0.3757948,0.046337157,0.21016976
109922717,0.3757948,0.055320725,0.20720756
109945666,0.3757948,0.061309762,0.21016976
109967672,0.3757948,0.067298815,0.20424537
109988731,0.3757948,0.07328785,0.20128319
110010714,0.37274975,0.07927689,0.19832098
110033711,0.36970466,0.08526594,0.1953588
110054870,0.37274975,0.08826046,0.19832098
110077666,0.36970466,0.09724402,0.18943442
110100728,0.36970466,0.10023855,0.19239661
110122707,0.36970466,0.10323307,0.19239661
110144713,0.36970466,0.10922211,0.18943442
110166890,0.36665958,0.11221663,0.18943442
110189666,0.36665958,0.11521116,0.19239661
110212717,0.36665958,0.118205674,0.18943442
110234711,0.36361453,0.118205674,0.19239661
110255667,0.36361453,0.12419472,0.19239661
110277666,0.36056945,0.13018377,0.1953588
110299705,0.36056945,0.13018377,0.19832098
110322715,0.36056945,0.13317828,0.1953588
110345669,0.3575244,0.1361728,0.20128319
110366785,0.35447934,0.13317828,0.20424537
110387667,0.35143426,0.1361728,0.20424537
110410712,0.35143426,0.13317828,0.20128319
110433666,0.35143426,0.1361728,0.20720756
110455666,0.34838918,0.1361728,0.21016976
110477673,0.34838918,0.13916734,0.21016976
110500768,0.34534413,0.14216185,0.21609414
110522707,0.34534413,0.14216185,0.21609414
110545704,0.34229907,0.14216185,0.21609414
110566922,0.34229907,0.14216185,0.21905632
110589666,0.33925396,0.14216185,0.22201853
110611667,0.33925396,0.14216185,0.21609414
110634706,0.33925396,0.14216185,0.21905632
110657674,0.33925396,0.14216185,0.2279429
110678981,0.33925396,0.14216185,0.22498073
110701669,0.3362089,0.14216185,0.22498073
110724754,0.3362089,0.13916734,0.2279429
110745666,0.3301188,0.13916734,0.2279429
110766705,0.3301188,0.13916734,0.2309051
110788724,0.3301188,0.13916734,0.23386729
110811666,0.3301188,0.13916734,0.23979168
110833666,0.32707372,0.13916734,0.23682947
110855666,0.3301188,0.1361728,0.23682947
110878127,0.32707372,0.1361728,0.23979168
110900731,0.32707372,0.1361728,0.24275386
110923665,0.32402864,0.1361728,0.24275386
110945665,0.32402864,0.1361728,0.23682947
110967665,0.3209836,0.1361728,0.24867824
110990049,0.3209836,0.13317828,0.24867824
111012733,0.3209836,0.13317828,0.24571607
111035666,0.3209836,0.13018377,0.24867824
111057712,0.3179385,0.13018377,0.25460264
111078744,0.31489345,0.13018377,0.25164047
111099713,0.3179385,0.12718923,0.260527
111121667,0.31489345,0.12718923,0.260527
111143671,0.31489345,0.13018377,0.260527
111166006,0.3118484,0.12718923,0.2664514
111188718,0.3118484,0.12718923,0.260527
111211674,0.3088033,0.12718923,0.26348922
111233674,0.3088033,0.12718923,0.26348922
111256720,0.3118484,0.12419472,0.2664514
111278705,0.3118484,0.12419472,0.2664514
111298704,0.30575824,0.12718923,0.2664514
111321674,0.3027132,0.12419472,0.2664514
111343674,0.30575824,0.12419472,0.2664514
111366035,0.30575824,0.12419472,0.2664514
111386708,0.3027132,0.12419472,0.275338
111408935,0.3027132,0.12419472,0.275338
111430787,0.29966813,0.1212002,0.2723758
111452736,0.29966813,0.1212002,0.275338
111474702,0.29966813,0.12419472,0.2723758
111497275,0.29662302,0.12419472,0.2694136
111519666,0.29966813,0.12419472,0.27830017
111542748,0.29966813,0.1212002,0.2694136
111563667,0.29662302,0.12419472,0.28422457
111586745,0.29662302,0.1212002,0.28126234
111607675,0.29662302,0.1212002,0.275338
111630710,0.29662302,0.1212002,0.275338
111651673,0.29357797,0.1212002,0.275338
111674704,0.29966813,0.1212002,0.28126234
111695665,0.29966813,0.12419472,0.27830017
111717667,0.29662302,0.12419472,0.275338
111739666,0.29966813,0.12419472,0.275338
111762742,0.29662302,0.12419472,0.27830017
111785149,0.29662302,0.12419472,0.27830017
111807673,0.29662302,0.12419472,0.275338
111829668,0.29662302,0.12419472,0.28126234
111852826,0.29662302,0.12419472,0.28126234
111876776,0.29357797,0.12419472,0.27830017
111898713,0.28748783,0.12419472,0.28126234
111921163,0.29053292,0.1212002,0.28126234
111943677,0.29053292,0.1212002,0.28422457
111966748,0.28748783,0.118205674,0.2901489
111987704,0.28444278,0.11521116,0.29607332
112009705,0.28444278,0.11521116,0.2901489
112031673,0.2813977,0.11221663,0.2901489
112054712,0.28444278,0.11521116,0.29607332
112076770,0.2813977,0.11521116,0.29607332
112098714,0.28444278,0.11521116,0.29311115
112121230,0.2813977,0.11221663,0.29607332
112143675,0.2813977,0.11221663,0.2901489
112166704,0.28444278,0.11221663,0.29607332
112190704,0.28444278,0.11221663,0.29607332
112212732,0.28444278,0.11221663,0.2990355
112234704,0.28748783,0.10922211,0.28718674
112257203,0.28444278,0.11221663,0.28718674
112279666,0.28444278,0.11221663,0.2901489
112302704,0.29053292,0.11221663,0.29607332
112324712,0.29053292,0.11221663,0.28718674
112345673,0.28444278,0.11221663,0.29311115
112367666,0.28444278,0.11221663,0.2901489
112390705,0.28444278,0.11221663,0.29311115
112412729,0.28444278,0.11521116,0.29607332
112433666,0.28444278,0.11221663,0.29311115
112453676,0.2813977,0.11221663,0.2901489
112474813,0.2813977,0.10922211,0.2901489
112498030,0.2813977,0.10922211,0.2901489
112521206,0.27835262,0.11221663,0.3049599
112543558,0.27835262,0.10922211,0.2990355
112566701,0.27530757,0.11221663,0.30199772
112588767,0.27530757,0.10922211,0.2990355
112610741,0.2722625,0.10922211,0.3049599
112633912,0.26921746,0.11221663,0.30199772
112655670,0.26921746,0.11221663,0.3049599
112678703,0.26617235,0.11221663,0.3079221
112699666,0.2631273,0.11221663,0.31088427
112722703,0.2631273,0.11521116,0.3079221
112743666,0.2631273,0.11521116,0.3079221
112766703,0.25703716,0.11221663,0.31088427
112787673,0.26008224,0.11221663,0.31384647
112809680,0.25703716,0.10922211,0.31680867
112830710,0.25703716,0.11221663,0.31088427
112852712,0.25703716,0.11221663,0.31384647
112874706,0.25094703,0.11221663,0.31384647
112897214,0.25094703,0.11521116,0.31977084
112919707,0.24790196,0.11521116,0.31977084
112942712,0.2448569,0.118205674,0.31977084
112964773,0.24181183,0.11521116,0.32273304
112986703,0.23876676,0.118205674,0.32569525
113009228,0.23572169,0.118205674,0.32273304
113029666,0.23267663,0.1212002,0.32569525
113052869,0.23267663,0.1212002,0.31977084
113076737,0.22963154,0.1212002,0.32569525
113098716,0.22963154,0.118205674,0.32273304
113119666,0.22658649,0.118205674,0.33161962
113141673,0.22354142,0.118205674,0.32865742
113164742,0.22049636,0.118205674,0.33161962
113185329,0.22049636,0.118205674,0.33161962
113207666,0.22049636,0.118205674,0.33458182
113229707,0.21745129,0.118205674,0.33458182
113252730,0.2144062,0.118205674,0.337544
113275935,0.2144062,0.1212002,0.337544
113299671,0.21136115,0.1212002,0.32865742
113323045,0.20831607,0.1212002,0.337544
113345666,0.20222595,0.1212002,0.33458182
113367665,0.20222595,0.12419472,0.3434684
113389668,0.20527102,0.1212002,0.337544
113411671,0.20222595,0.1212002,0.33458182
113435077,0.20222595,0.1212002,0.3405062
113459263,0.20222595,0.12419472,0.3434684
113483080,0.19918089,0.12419472,0.337544
113505666,0.19613582,0.12419472,0.3434684
113527668,0.19918089,0.12419472,0.3434684
113549672,0.19309074,0.12419472,0.3434684
113571674,0.19309074,0.12419472,0.3405062
113591688,0.19309074,0.12419472,0.3434684
113613666,0.19309074,0.1212002,0.3434684
113635076,0.19004568,0.1212002,0.3405062
113659104,0.19309074,0.1212002,0.34643057
113683216,0.19004568,0.1212002,0.34939277
113707087,0.19613582,0.12419472,0.34643057
113731041,0.1870006,0.12419472,0.34939277
113755091,0.19004568,0.1212002,0.3434684
113779665,0.19004568,0.1212002,0.34643057
113800741,0.1870006,0.1212002,0.34643057
113821666,0.1870006,0.1212002,0.34643057
113841666,0.19004568,0.1212002,0.3405062
113863649,0.1870006,0.1212002,0.35235497
113884711,0.19004568,0.12419472,0.3434684
113907128,0.19309074,0.12419472,0.3434684
113931047,0.19309074,0.12419472,0.3434684
113952451,0.19309074,0.12419472,0.3405062
113973666,0.19309074,0.1212002,0.3405062
113995066,0.19309074,0.1212002,0.3405062
114016780,0.19613582,0.1212002,0.3434684
114037744,0.19309074,0.12419472,0.337544
114059294,0.19918089,0.12419472,0.337544
114083087,0.19613582,0.12718923,0.337544
114106673,0.19918089,0.12718923,0.337544
114127674,0.19918089,0.12718923,0.3405062
114149676,0.19613582,0.13018377,0.33458182
114171674,0.19918089,0.12718923,0.3434684
114195044,0.19918089,0.13018377,0.33458182
114219213,0.19613582,0.13018377,0.337544
114243049,0.19613582,0.13018377,0.33458182
114267097,0.19918089,0.13018377,0.337544
114291220,0.20222595,0.13018377,0.33161962
114313667,0.19918089,0.13018377,0.337544
114335713,0.20527102,0.13018377,0.33161962
114357666,0.20222595,0.13018377,0.33458182
114379667,0.20527102,0.13018377,0.337544
114401666,0.20222595,0.13018377,0.337544
114423666,0.20527102,0.13018377,0.33458182
114444767,0.20527102,0.13018377,0.33458182
114467666,0.20527102,0.13018377,0.33161962
114489698,0.20831607,0.13018377,0.33458182
114511666,0.21136115,0.13018377,0.33458182
114534137,0.21136115,0.13018377,0.32865742
114556732,0.20831607,0.13018377,0.33458182
114579667,0.21136115,0.12718923,0.337544
114601667,0.21136115,0.13018377,0.337544
114623666,0.2144062,0.13018377,0.33458182
114646040,0.2144062,0.12718923,0.33161962
114668726,0.21745129,0.12718923,0.33161962
114691675,0.22049636,0.12718923,0.32273304
114713670,0.21745129,0.12718923,0.32569525
114735713,0.21745129,0.12718923,0.32569525
114758702,0.22354142,0.12718923,0.33161962
114780737,0.22049636,0.12718923,0.33458182
114802713,0.21745129,0.12718923,0.33161962
114825193,0.22049636,0.12718923,0.32865742
114847666,0.21745129,0.12718923,0.32865742
114870712,0.22049636,0.12718923,0.33161962
114892721,0.22049636,0.13018377,0.32273304
114914713,0.22354142,0.13018377,0.32569525
114935674,0.22049636,0.13018377,0.31680867
114958709,0.22354142,0.13018377,0.32273304
114980746,0.22658649,0.12718923,0.32865742
115002712,0.22049636,0.12718923,0.32865742
115022714,0.22354142,0.12419472,0.32273304
115044728,0.22354142,0.12419472,0.32865742
115066704,0.22049636,0.12419472,0.33161962
115089294,0.22354142,0.12419472,0.32865742
115111706,0.22658649,0.12718923,0.32569525
115134711,0.22658649,0.12419472,0.32569525
115156744,0.22963154,0.1212002,0.32865742
115178710,0.22963154,0.1212002,0.32569525
115202039,0.22963154,0.1212002,0.32865742
115225189,0.23267663,0.1212002,0.32273304
115247669,0.23267663,0.1212002,0.32273304
115270710,0.23572169,0.12419472,0.32273304
115292790,0.22963154,0.12419472,0.32569525
115314705,0.23267663,0.12419472,0.32569525
115337201,0.22963154,0.12419472,0.32865742
115359715,0.22658649,0.1212002,0.32273304
115382705,0.22963154,0.1212002,0.32865742
115404712,0.22658649,0.1212002,0.32865742
115426713,0.22658649,0.1212002,0.32569525
115449274,0.22963154,0.118205674,0.32865742
115470704,0.22963154,0.1212002,0.32569525
115492729,0.23267663,0.1212002,0.32569525
115514704,0.23267663,0.1212002,0.32273304
115537221,0.22963154,0.1212002,0.32569525
115559674,0.23267663,0.1212002,0.32273304
115582704,0.23267663,0.12419472,0.32569525
115604742,0.23267663,0.12419472,0.31680867
115626744,0.23267663,0.12419472,0.32273304
115647704,0.22963154,0.12718923,0.32569525
115670703,0.22963154,0.12718923,0.31977084
115692735,0.22963154,0.12718923,0.32273304
115714711,0.22658649,0.12718923,0.32273304
115737263,0.22963154,0.12718923,0.32273304
115759673,0.22658649,0.12419472,0.32865742
115782703,0.22658649,0.12718923,0.32273304
115804769,0.23267663,0.12718923,0.32273304
115826711,0.22963154,0.12419472,0.32569525
115847707,0.23267663,0.12419472,0.32273304
115869674,0.23572169,0.12419472,0.32569525
115892826,0.23876676,0.12718923,0.32273304
115914713,0.23876676,0.12718923,0.31384647
115937175,0.23876676,0.12718923,0.31680867
115959709,0.24181183,0.12718923,0.31977084
115982703,0.24181183,0.12718923,0.31977084
116004752,0.2448569,0.12718923,0.31977084
116026706,0.24790196,0.13018377,0.31680867
116047705,0.2448569,0.12718923,0.31384647
116068767,0.2448569,0.12718923,0.3079221
116089666,0.2448569,0.12718923,0.31384647
116110715,0.24181183,0.13018377,0.31088427
116132736,0.2448569,0.13018377,0.3079221
116155936,0.2448569,0.13018377,0.31088427
116180727,0.2448569,0.13018377,0.31088427
116204027,0.2448569,0.13018377,0.31088427
116228724,0.2448569,0.13018377,0.31088427
116249705,0.2448569,0.12718923,0.31384647
116270742,0.24181183,0.12718923,0.31977084
116293666,0.2448569,0.13018377,0.31977084
116315673,0.2448569,0.13018377,0.31977084
116339216,0.2448569,0.12718923,0.31384647
116363675,0.2448569,0.13018377,0.31384647
116387052,0.2448569,0.12718923,0.31384647
116411666,0.2448569,0.12718923,0.31088427
116432771,0.2448569,0.13018377,0.31088427
116453713,0.2448569,0.12718923,0.31384647
116473706,0.2448569,0.13018377,0.3049599
116495669,0.2448569,0.13018377,0.31384647
116517665,0.24790196,0.13018377,0.31384647
116539328,0.24790196,0.13018377,0.31680867
116563105,0.2448569,0.13018377,0.32273304
116584246,0.2448569,0.13018377,0.31384647
116607552,0.2448569,0.13018377,0.31088427
116629666,0.24790196,0.12718923,0.31088427
116649666,0.2448569,0.12718923,0.31680867
116671577,0.2448569,0.12718923,0.31088427
116691962,0.24181183,0.12718923,0.31384647
116715977,0.2448569,0.12718923,0.31680867
116740068,0.24181183,0.12718923,0.31680867
116764060,0.24181183,0.12419472,0.31088427
116787673,0.2448569,0.12419472,0.32273304
116811134,0.24181183,0.12419472,0.31384647
116833666,0.24181183,0.12419472,0.31680867
116855669,0.2448569,0.12718923,0.31977084
116877674,0.24181183,0.12718923,0.31680867
116899356,0.2448569,0.12718923,0.31088427
116920667,0.24181183,0.12419472,0.31384647
116941665,0.24181183,0.12419472,0.31680867
116963967,0.2448569,0.12419472,0.31384647
116988026,0.2448569,0.12419472,0.31680867
117012520,0.24181183,0.12419472,0.31680867
117035704,0.2448569,0.12718923,0.31680867
117059666,0.2448569,0.12718923,0.31384647
117083104,0.24181183,0.12718923,0.31680867
117107045,0.24181183,0.13018377,0.31680867
117131043,0.2448569,0.13018377,0.31088427
117153666,0.2448569,0.13018377,0.31088427
117175666,0.2448569,0.12718923,0.31384647
117197666,0.2448569,0.13018377,0.31384647
117219667,0.2448569,0.12718923,0.31977084
117239683,0.24790196,0.12718923,0.31088427
117261668,0.24790196,0.12718923,0.31088427
117283968,0.24790196,0.12718923,0.31088427
117308093,0.24790196,0.12718923,0.31977084
117332523,0.2448569,0.12718923,0.31384647
117355665,0.2448569,0.13018377,0.31384647
117379667,0.2448569,0.12718923,0.31680867
117403668,0.2448569,0.13018377,0.3079221
117427666,0.24181183,0.12718923,0.31088427
117451200,0.24181183,0.12718923,0.31088427
117475078,0.24181183,0.12718923,0.31680867
117499229,0.2448569,0.12718923,0.31088427
117523076,0.24181183,0.12718923,0.31680867
117547279,0.2448569,0.12419472,0.31680867
117571074,0.24790196,0.12718923,0.31384647
117592726,0.24790196,0.12718923,0.31088427
117616023,0.24790196,0.12718923,0.31088427
117639612,0.24790196,0.12718923,0.31088427
117661677,0.25094703,0.12718923,0.31384647
117683061,0.25094703,0.13018377,0.31384647
117707674,0.25094703,0.12718923,0.31088427
117728724,0.25094703,0.12419472,0.3079221
117751650,0.25399208,0.12718923,0.31088427
117773666,0.25399208,0.13018377,0.31088427
117795673,0.25094703,0.12718923,0.3079221
117819217,0.24790196,0.12718923,0.31088427
117843090,0.2448569,0.12718923,0.31384647
117867050,0.2448569,0.12419472,0.31680867
117891097,0.23876676,0.12419472,0.31680867
117915043,0.23876676,0.12718923,0.32273304
117939102,0.23572169,0.12718923,0.32273304
117963044,0.23572169,0.12419472,0.31977084
117987042,0.23572169,0.12419472,0.31977084
118010895,0.22963154,0.12718923,0.31680867
118035043,0.23572169,0.12419472,0.32273304
118059103,0.23267663,0.12718923,0.32273304
118083041,0.23267663,0.12718923,0.32273304
118104711,0.23572169,0.12419472,0.31977084
