timestamp,time_utc_usec,lat,lon,alt,alt_ellipsoid,s_variance_m_s,c_variance_rad,eph,epv,hdop,vdop,noise_per_ms,jamming_indicator,vel_m_s,vel_n_m_s,vel_e_m_s,vel_d_m_s,cog_rad,timestamp_time_relative,heading,heading_offset,fix_type,vel_ned_valid,satellites_used
95514629,1557937325200466,323874384,-1170762796,20528,-13916,0.273,0.35679832,0.791,1.1930001,0.55,0.91999996,61,4,0.052,-0.031000001,0.042000003,-0.029000001,2.039283,0,nan,0.0,3,1,20
95812989,1557937325400466,323874384,-1170762796,20541,-13903,0.21000001,0.35681456,0.791,1.192,0.55,0.91999996,61,4,0.013,0.006,0.011000001,0.012,2.039283,0,nan,0.0,3,1,20
95914628,1557937325600466,323874384,-1170762797,20508,-13936,0.21100001,0.3568308,0.79,1.19,0.55,0.91999996,61,4,0.076000005,-0.008,-0.076000005,-0.033,2.039283,0,nan,0.0,3,1,20
96107677,1557937325800466,323874384,-1170762798,20502,-13942,0.264,0.35685104,0.78900003,1.189,0.55,0.91999996,61,4,0.032,0.008,0.031000001,-0.032,2.039283,0,nan,0.0,3,1,20
96325763,1557937326000466,323874383,-1170762797,20505,-13939,0.282,0.35687268,0.78900003,1.187,0.55,0.91999996,61,1,0.062000003,-0.038000003,0.049000002,-0.093,2.039283,0,nan,0.0,3,1,20
96511667,1557937326200466,323874382,-1170762796,20522,-13922,0.277,0.356894,0.78800005,1.1860001,0.55,0.91999996,61,1,0.014,-0.002,-0.014,0.026,2.039283,0,nan,0.0,3,1,20
96713706,1557937326400466,323874383,-1170762795,20499,-13945,0.2,0.35690933,0.78700006,1.184,0.55,0.91999996,61,1,0.098000005,0.030000001,0.093,0.029000001,2.039283,0,nan,0.0,3,1,20
96914623,1557937326600466,323874383,-1170762794,20438,-14006,0.27600002,0.35693064,0.786,1.1830001,0.55,0.91999996,61,1,0.020000001,0.017,-0.011000001,0.030000001,2.039283,0,nan,0.0,3,1,20
97113760,1557937326800466,323874383,-1170762794,20414,-14030,0.25300002,0.35695,0.786,1.182,0.55,0.91999996,61,1,0.060000002,-0.059000004,0.009000001,-0.060000002,2.039283,0,nan,0.0,3,1,20
97313704,1557937327000466,323874384,-1170762794,20416,-14028,0.24700001,0.35696903,0.785,1.1800001,0.55,0.91999996,61,1,0.109000005,0.108,-0.016,0.053000003,2.039283,0,nan,0.0,3,1,20
97513697,1557937327200466,323874385,-1170762795,20398,-14046,0.24000001,0.35698736,0.785,1.179,0.55,0.91999996,61,1,0.041,0.041,-0.0050000004,0.020000001,2.039283,0,nan,0.0,3,1,20
97710049,1557937327400466,323874384,-1170762794,20398,-14046,0.268,0.35700795,0.785,1.1780001,0.55,0.91999996,61,1,0.124000005,-0.080000006,0.094000004,-0.029000001,2.039283,0,nan,0.0,3,1,20
97913795,1557937327600466,323874384,-1170762794,20440,-14004,0.24900001,0.3570296,0.78400004,1.177,0.55,0.91999996,61,1,0.094000004,0.080000006,-0.049000002,-0.26700002,2.039283,0,nan,0.0,3,1,20
98112960,1557937327800466,323874384,-1170762795,20589,-13855,0.277,0.35711598,0.78400004,1.177,0.55,0.91999996,61,1,0.071,-0.047000002,0.052,-1.121,2.039283,0,nan,0.0,3,1,20
98314629,1557937328000466,323874383,-1170762794,20822,-13622,0.28300002,0.3572181,0.785,1.179,0.55,0.91999996,61,1,0.148,-0.074,0.128,-1.3210001,2.039283,0,nan,0.0,3,1,20
98512676,1557937328200466,323874384,-1170762793,21023,-13421,0.294,0.35728946,0.785,1.184,0.55,0.91999996,61,1,0.1,0.068,0.07300001,-0.92700005,2.039283,0,nan,0.0,3,1,20
98707668,1557937328400466,323874387,-1170762794,21211,-13233,0.273,0.7738573,0.786,1.187,0.55,0.91999996,61,1,0.289,0.24900001,-0.148,-0.73600006,1.5866299,0,nan,0.0,3,1,20
98908869,1557937328600466,323874395,-1170762796,21365,-13079,0.246,0.42851514,0.78700006,1.187,0.55,0.91999996,61,1,0.56600004,0.56100005,-0.075,-0.73600006,0.27113637,0,nan,0.0,3,1,20
99104683,1557937328800466,323874414,-1170762796,21516,-12928,0.238,0.15997966,0.78800005,1.1910001,0.55,0.91999996,61,1,1.4380001,1.437,0.066,-0.573,0.07335147,0,nan,0.0,3,1,20
99305465,1557937329000466,323874443,-1170762795,21627,-12817,0.395,0.2129682,0.79300004,1.2,0.55,0.91999996,57,2,1.8140001,1.812,0.086,-0.55,0.06388952,0,nan,0.0,3,1,20
99506291,1557937329200466,323874484,-1170762785,21725,-12719,0.22800002,0.089865774,0.79700005,1.197,0.58,0.93,57,2,2.73,2.604,0.818,-0.47200003,0.26813737,0,nan,0.0,3,1,19
99703716,1557937329400466,323874536,-1170762766,21857,-12587,0.194,0.081729926,0.79800004,1.1910001,0.58,0.93,57,2,3.2770002,3.0740001,1.1350001,-0.569,0.3154663,0,nan,0.0,3,1,19
99907690,1557937329600466,323874598,-1170762739,21992,-12452,0.215,0.067912854,0.79700005,1.1860001,0.58,0.93,57,2,4.01,3.7640002,1.383,-0.30900002,0.3374353,0,nan,0.0,3,1,19
100108223,1557937329800466,323874668,-1170762711,22050,-12394,0.328,0.091148764,0.80200005,1.19,0.58,0.93,57,2,4.178,3.979,1.273,-0.22200002,0.32720086,0,nan,0.0,3,1,19
100310645,1557937330000466,323874744,-1170762689,22085,-12359,0.38500002,0.0880803,0.81000006,1.1980001,0.58,0.93,57,3,4.3700004,4.281,0.87600005,-0.021000002,0.26144367,0,nan,0.0,3,1,19
100508693,1557937330200466,323874826,-1170762674,22165,-12279,0.31100002,0.058824923,0.81600004,1.2,0.58,0.93,57,3,4.7790003,4.7460003,0.555,-0.49,0.160172,0,nan,0.0,3,1,19
100713710,1557937330400466,323874917,-1170762672,22309,-12135,0.30200002,0.05642841,0.81700003,1.1980001,0.58,0.93,57,3,5.222,5.2170005,-0.24700001,-0.537,0.047994107,0,nan,0.0,3,1,19
100913701,1557937330600466,323875014,-1170762681,22492,-11952,0.263,0.03672417,0.81600004,1.1850001,0.58,0.93,57,3,5.464,5.419,-0.703,-0.469,6.2035513,0,nan,0.0,3,1,19
101117711,1557937330800466,323875115,-1170762706,22654,-11790,0.252,0.037206054,0.81500006,1.1800001,0.58,0.93,57,3,6.0060005,5.7730002,-1.659,-0.77300006,6.093761,0,nan,0.0,3,1,19
101318674,1557937331000467,323875222,-1170762744,22784,-11660,0.303,0.052619755,0.818,1.1850001,0.58,0.93,74,1,6.399,6.0990005,-1.9390001,-0.777,6.04811,0,nan,0.0,3,1,19
101502616,1557937331200467,323875334,-1170762781,22947,-11497,0.28300002,0.051419493,0.823,1.19,0.58,0.93,74,1,6.551,6.354,-1.5940001,-0.74300003,6.042319,0,nan,0.0,3,1,19
101713708,1557937331400467,323875453,-1170762811,23135,-11309,0.27600002,0.04590809,0.82800007,1.194,0.58,0.93,74,1,6.9170003,6.8090005,-1.2210001,-0.86300004,6.079735,0,nan,0.0,3,1,19
101911680,1557937331600467,323875577,-1170762828,23367,-11077,0.24000001,0.041639715,0.83000004,1.199,0.58,0.93,74,1,6.9480004,6.9340005,-0.44400004,-1.245,6.1620283,0,nan,0.0,3,1,19
102110640,1557937331800467,323875704,-1170762829,23658,-10786,0.24300002,0.03916257,0.83100003,1.2010001,0.58,0.93,74,1,7.0290003,7.0200005,0.35000002,-1.718,6.261427,0,nan,0.0,3,1,19
102323866,1557937332000467,323875832,-1170762815,24012,-10432,0.238,0.040050592,0.83300006,1.205,0.58,0.93,69,1,7.214,7.1570005,0.90800005,-1.5610001,0.05922914,0,nan,0.0,3,1,19
102511897,1557937332200467,323875962,-1170762791,24272,-10171,0.202,0.03376095,0.83300006,1.2010001,0.58,0.93,69,1,7.32,7.1930003,1.3620001,-1.3010001,0.1408383,0,nan,0.0,3,1,19
102721709,1557937332400467,323876092,-1170762758,24562,-9882,0.21800001,0.038374726,0.83300006,1.205,0.58,0.93,69,1,7.2950006,7.0920005,1.7120001,-1.4810001,0.19006687,0,nan,0.0,3,1,19
102909703,1557937332600467,323876217,-1170762720,24887,-9557,0.21200001,0.035517447,0.83100003,1.205,0.58,0.93,69,1,6.8190002,6.5000005,2.0630002,-1.5100001,0.25986362,0,nan,0.0,3,1,19
103105742,1557937332800467,323876333,-1170762675,25193,-9250,0.21000001,0.04408021,0.83000004,1.21,0.58,0.93,69,1,6.517,6.149,2.16,-1.6790001,0.29546222,0,nan,0.0,3,1,19
103305730,1557937333000467,323876439,-1170762630,25408,-9035,0.277,0.053636756,0.832,1.215,0.58,0.93,69,3,6.0460005,5.6920004,2.038,-1.608,0.3168687,0,nan,0.0,3,1,19
103509709,1557937333200467,323876535,-1170762598,25705,-8738,0.259,0.06832894,0.836,1.222,0.58,0.93,69,3,4.984,4.8560004,1.1240001,-1.503,0.28076184,0,nan,0.0,3,1,19
103710615,1557937333400467,323876615,-1170762577,26000,-8444,0.27800003,0.08493679,0.84000003,1.2290001,0.58,0.93,69,3,4.1590004,4.071,0.84900004,-1.5430001,0.25028682,0,nan,0.0,3,1,19
103908067,1557937333600467,323876687,-1170762561,26343,-8100,0.27100003,0.08272877,0.84400004,1.2360001,0.58,0.93,69,3,3.943,3.8890002,0.651,-1.9410001,0.2063171,0,nan,0.0,3,1,19
104103660,1557937333800467,323876751,-1170762545,26772,-7672,0.27800003,0.09494067,0.84700006,1.24,0.58,0.93,69,3,3.285,3.186,0.80100006,-1.868,0.2238896,0,nan,0.0,3,1,19
104313746,1557937334000467,323876804,-1170762528,27106,-7337,0.289,0.11492469,0.84900004,1.246,0.58,0.93,68,3,2.7680001,2.6560001,0.781,-1.8650001,0.24945274,0,nan,0.0,3,1,19
104511682,1557937334200467,323876846,-1170762514,27520,-6923,0.312,0.15796223,0.851,1.25,0.58,0.93,68,3,1.909,1.8230001,0.56700003,-2.0570002,0.26760083,0,nan,0.0,3,1,19
104710666,1557937334400467,323876874,-1170762501,28014,-6429,0.326,0.20411608,0.85300004,1.25,0.58,0.93,68,3,1.457,1.269,0.71500003,-2.262,0.35996628,0,nan,0.0,3,1,19
104917848,1557937334600467,323876896,-1170762488,28409,-6035,0.31300002,0.23275012,0.855,1.256,0.58,0.93,68,3,1.332,1.223,0.526,-2.0860002,0.3800674,0,nan,0.0,3,1,19
105117472,1557937334800467,323876914,-1170762479,28825,-5619,0.32200003,0.36183885,0.85800004,1.2600001,0.59999996,0.94,68,3,0.79700005,0.74300003,0.291,-2.0210001,0.3780376,0,nan,0.0,3,1,18
105314639,1557937335000467,323876924,-1170762471,29297,-5147,0.328,0.39782736,0.859,1.2620001,0.59999996,0.94,68,2,0.65300006,0.425,0.49600002,-2.2280002,0.5971693,0,nan,0.0,3,1,18
105516726,1557937335200467,323876930,-1170762463,29732,-4712,0.335,0.7702504,0.86100006,1.268,0.59999996,0.94,68,2,0.38500002,0.28,0.263,-2.184,0.6302024,0,nan,0.0,3,1,18
105710971,1557937335400467,323876935,-1170762458,30173,-4271,0.33800003,0.7703321,0.86300004,1.274,0.58,0.93,68,2,0.26700002,0.19800001,0.178,-2.2800002,0.6302024,0,nan,0.0,3,1,19
105907667,1557937335600467,323876940,-1170762457,30675,-3769,0.333,0.77040035,0.86500007,1.276,0.58,0.93,68,2,0.363,0.36200002,-0.021000002,-1.881,0.6302024,0,nan,0.0,3,1,19
106108983,1557937335800467,323876951,-1170762457,31016,-3428,0.33200002,0.42500317,0.86800003,1.2830001,0.58,0.93,68,2,0.80700004,0.80700004,0.015000001,-1.4360001,0.16115654,0,nan,0.0,3,1,19
106312676,1557937336000467,323876971,-1170762460,31305,-3138,0.24700001,0.20619754,0.869,1.2780001,0.58,0.93,64,1,1.3570001,1.3280001,-0.279,-0.514,6.1464086,0,nan,0.0,3,1,19
106509715,1557937336200467,323877003,-1170762469,31343,-3100,0.25,0.13227029,0.869,1.274,0.58,0.93,64,1,2.262,2.2080002,-0.49300003,-0.10700001,6.087514,0,nan,0.0,3,1,19
106701937,1557937336400467,323877051,-1170762486,31459,-2985,0.22900002,0.073283054,0.86800003,1.268,0.58,0.93,64,1,3.1480002,2.989,-0.98800004,-0.27600002,5.9927964,0,nan,0.0,3,1,19
106906601,1557937336600467,323877111,-1170762512,31565,-2878,0.27100003,0.062006656,0.86800003,1.268,0.58,0.93,64,1,4.04,3.765,-1.463,-0.23,5.9452367,0,nan,0.0,3,1,19
107106867,1557937336800467,323877180,-1170762547,31641,-2802,0.268,0.06407243,0.869,1.266,0.58,0.93,64,1,4.1940002,3.8250003,-1.7190001,-0.22800002,5.9031954,0,nan,0.0,3,1,19
107309833,1557937337000467,323877253,-1170762592,31669,-2774,0.263,0.058879204,0.87000006,1.263,0.58,0.93,64,2,4.749,4.135,-2.3360002,0.026,5.828353,0,nan,0.0,3,1,19
107515035,1557937337200467,323877328,-1170762654,31672,-2772,0.252,0.055059373,0.87100005,1.263,0.58,0.93,64,2,5.2640004,4.096,-3.305,0.15300001,5.70435,0,nan,0.0,3,1,19
107707741,1557937337400467,323877403,-1170762734,31630,-2813,0.26900002,0.054496855,0.873,1.2650001,0.58,0.93,64,2,5.735,4.123,-3.9860003,0.275,5.603894,0,nan,0.0,3,1,19
107908681,1557937337600467,323877477,-1170762829,31560,-2884,0.26000002,0.046646364,0.87600005,1.2670001,0.58,0.93,64,2,6.1460004,3.9580002,-4.702,0.20300001,5.4881797,0,nan,0.0,3,1,19
108108672,1557937337800467,323877550,-1170762941,31518,-2925,0.261,0.045374542,0.878,1.269,0.58,0.93,64,2,6.6670003,3.7940001,-5.4820004,0.24200001,5.394026,0,nan,0.0,3,1,19
108314642,1557937338000467,323877620,-1170763064,31512,-2932,0.282,0.04886049,0.88100004,1.273,0.58,0.93,64,4,6.9370003,3.7670002,-5.8250003,-0.007,5.3396606,0,nan,0.0,3,1,19
108510063,1557937338200467,323877689,-1170763193,31558,-2886,0.298,0.045287453,0.88500005,1.2770001,0.59999996,0.93,64,4,7.1840005,3.7530003,-6.1250005,-0.07700001,5.2950506,0,nan,0.0,3,1,18
108709274,1557937338400467,323877758,-1170763330,31530,-2913,0.26700002,0.0390664,0.8880001,1.2800001,0.58,0.93,64,4,7.5050006,3.7570002,-6.497,-0.078,5.2589765,0,nan,0.0,3,1,19
108909686,1557937338600467,323877829,-1170763471,31552,-2892,0.254,0.03952734,0.88900006,1.281,0.58,0.93,64,4,7.7050004,3.9710002,-6.603,-0.34100002,5.256129,0,nan,0.0,3,1,19
109122667,1557937338800467,323877902,-1170763614,31645,-2798,0.23200001,0.041177202,0.89100003,1.2800001,0.58,0.93,64,4,7.84,4.0610003,-6.7060003,-0.33900002,5.2565446,0,nan,0.0,3,1,19
109306275,1557937339000467,323877974,-1170763760,31690,-2754,0.209,0.0376649,0.89100003,1.2770001,0.58,0.93,63,10,8.023001,3.8100002,-7.0610003,0.106000006,5.207191,0,nan,0.0,3,1,19
109515967,1557937339200467,323878045,-1170763911,31677,-2767,0.20500001,0.034043517,0.89100003,1.2750001,0.58,0.93,63,10,8.196,3.9930003,-7.1570005,0.19900002,5.221224,0,nan,0.0,3,1,19
109715758,1557937339400467,323878122,-1170764063,31676,-2768,0.256,0.036910743,0.892,1.2770001,0.58,0.93,63,10,8.315001,4.373,-7.0720005,-0.010000001,5.266185,0,nan,0.0,3,1,19
109911976,1557937339600467,323878205,-1170764211,31682,-2761,0.321,0.038074877,0.896,1.2830001,0.58,0.93,63,10,8.349,4.8910003,-6.7660003,-0.044000003,5.338311,0,nan,0.0,3,1,19
110113707,1557937339800467,323878298,-1170764351,31718,-2726,0.32200003,0.03753557,0.90000004,1.289,0.58,0.93,63,10,8.262,5.4210005,-6.235,0.2,5.4280744,0,nan,0.0,3,1,19
110317709,1557937340000467,323878401,-1170764477,31753,-2690,0.34300002,0.040344507,0.90300006,1.2950001,0.58,0.93,59,3,8.127001,5.991,-5.492,0.25,5.541253,0,nan,0.0,3,1,19
110509682,1557937340200467,323878513,-1170764587,31740,-2704,0.33400002,0.03552984,0.90500003,1.2980001,0.58,0.93,59,3,7.951,6.3650002,-4.7650003,0.23300001,5.6028996,0,nan,0.0,3,1,19
110705940,1557937340400467,323878632,-1170764678,31740,-2703,0.33,0.03817646,0.90500003,1.3000001,0.58,0.93,59,3,7.6270003,6.637,-3.759,0.388,5.691241,0,nan,0.0,3,1,19
110906624,1557937340600467,323878753,-1170764749,31700,-2744,0.29000002,0.03939557,0.906,1.304,0.58,0.93,59,3,7.3090005,6.7530003,-2.7960002,0.34800002,5.79992,0,nan,0.0,3,1,19
111105724,1557937340800467,323878873,-1170764800,31594,-2850,0.252,0.043333903,0.906,1.307,0.58,0.93,59,3,6.788,6.458,-2.091,0.60800004,5.8860373,0,nan,0.0,3,1,19
111317747,1557937341000467,323878987,-1170764835,31508,-2936,0.25100002,0.04372678,0.90200007,1.3080001,0.58,0.93,59,1,6.327,6.215,-1.182,0.697,5.9986105,0,nan,0.0,3,1,19
111506644,1557937341200467,323879094,-1170764856,31375,-3068,0.19900002,0.05282326,0.89800006,1.307,0.58,0.93,59,1,5.729,5.681,-0.744,0.878,6.0671725,0,nan,0.0,3,1,19
111708672,1557937341400467,323879188,-1170764861,31235,-3208,0.21400002,0.06604657,0.896,1.309,0.58,0.93,59,1,4.795,4.794,0.081,1.046,6.1631546,0,nan,0.0,3,1,19
111899748,1557937341600467,323879265,-1170764859,31046,-3397,0.21400002,0.07243727,0.89400005,1.3130001,0.59999996,0.94,59,1,3.9960003,3.9960003,0.044000003,0.67300004,6.2242904,0,nan,0.0,3,1,18
112112928,1557937341800467,323879330,-1170764862,30937,-3506,0.24800001,0.09594947,0.89300007,1.315,0.58,0.93,59,1,3.1390002,3.131,-0.22600001,0.386,6.2194595,0,nan,0.0,3,1,19
112316673,1557937342000467,323879382,-1170764870,30724,-3719,0.23900001,0.11077325,0.89400005,1.314,0.58,0.93,59,1,2.637,2.618,-0.31300002,0.504,6.195523,0,nan,0.0,3,1,19
112509477,1557937342200467,323879425,-1170764881,30676,-3768,0.24900001,0.15581618,0.89500004,1.3180001,0.58,0.93,59,1,2.3490002,2.2240002,-0.757,0.555,6.1141653,0,nan,0.0,3,1,19
112708766,1557937342400467,323879465,-1170764904,30554,-3889,0.22900002,0.13525079,0.89800006,1.3230001,0.58,0.93,59,1,2.4640002,2.1030002,-1.2850001,0.363,5.89728,0,nan,0.0,3,1,19
112906651,1557937342600467,323879504,-1170764941,30392,-4051,0.277,0.10592106,0.90000004,1.327,0.58,0.93,59,1,2.937,2.2110002,-1.9330001,0.514,5.6904507,0,nan,0.0,3,1,19
113106648,1557937342800467,323879548,-1170764984,30275,-4168,0.28300002,0.07448908,0.901,1.327,0.58,0.93,59,1,3.4140003,2.628,-2.1790001,0.54800004,5.6235065,0,nan,0.0,3,1,19
113305772,1557937343000467,323879599,-1170765027,30088,-4355,0.282,0.06933599,0.90000004,1.3240001,0.58,0.93,59,4,3.706,3.0830002,-2.0570002,0.51900005,5.662284,0,nan,0.0,3,1,19
113511493,1557937343200467,323879653,-1170765062,30036,-4407,0.277,0.06768264,0.89900005,1.3240001,0.58,0.93,59,4,3.476,3.1090002,-1.554,0.05,5.7443404,0,nan,0.0,3,1,19
113707692,1557937343400467,323879713,-1170765085,29957,-4486,0.3,0.06800745,0.89800006,1.325,0.59999996,0.93,59,4,3.6450002,3.5170002,-0.95600003,0.21000001,5.883326,0,nan,0.0,3,1,18
113912884,1557937343600467,323879774,-1170765098,29832,-4611,0.25300002,0.07605586,0.896,1.3230001,0.58,0.93,59,4,3.292,3.2730002,-0.35900003,0.18400002,6.0152473,0,nan,0.0,3,1,19
114107944,1557937343800467,323879832,-1170765096,29782,-4661,0.263,0.080102056,0.89400005,1.3230001,0.58,0.93,59,4,3.0970001,3.038,0.6,0.141,6.2381186,0,nan,0.0,3,1,19
114313775,1557937344000467,323879883,-1170765078,29679,-4764,0.294,0.09913522,0.89300007,1.327,0.58,0.93,59,4,2.805,2.5990002,1.0530001,0.21200001,0.12724514,0,nan,0.0,3,1,19
114500691,1557937344200467,323879925,-1170765052,29631,-4813,0.291,0.12587261,0.89400005,1.332,0.58,0.93,59,4,2.4320002,1.9940001,1.393,0.356,0.31349444,0,nan,0.0,3,1,19
114708722,1557937344400467,323879956,-1170765012,29501,-4942,0.289,0.08163707,0.89300007,1.3310001,0.58,0.93,59,4,2.7010002,1.5690001,2.1980002,0.441,0.76341724,0,nan,0.0,3,1,19
114910716,1557937344600467,323879978,-1170764958,29321,-5122,0.30200002,0.063005686,0.89100003,1.3280001,0.58,0.93,59,4,2.97,0.80500007,2.8590002,0.49400002,1.1004932,0,nan,0.0,3,1,19
115109704,1557937344800467,323879990,-1170764887,29199,-5245,0.24400002,0.051517054,0.887,1.32,0.58,0.93,59,4,3.6410003,0.27100003,3.6310003,0.551,1.3424344,0,nan,0.0,3,1,19
115309711,1557937345000467,323879992,-1170764806,29069,-5374,0.314,0.055084858,0.88600004,1.3210001,0.58,0.93,59,1,4.0410004,-0.223,4.0350003,0.38200003,1.4804046,0,nan,0.0,3,1,19
115510690,1557937345200467,323879982,-1170764712,28980,-5463,0.289,0.04709439,0.88500005,1.3210001,0.58,0.93,59,1,4.8650002,-0.97200006,4.767,0.224,1.6548227,0,nan,0.0,3,1,19
115714656,1557937345400467,323879957,-1170764601,28975,-5468,0.25800002,0.04061224,0.88400006,1.319,0.58,0.93,59,1,5.7910004,-1.702,5.5350003,0.072000004,1.784618,0,nan,0.0,3,1,19
115908666,1557937345600467,323879921,-1170764476,28883,-5561,0.26000002,0.037443593,0.882,1.317,0.58,0.93,59,1,6.518,-2.2840002,6.1050005,0.16700001,1.869484,0,nan,0.0,3,1,19
116107670,1557937345800467,323879872,-1170764337,28887,-5556,0.282,0.03696677,0.882,1.3160001,0.58,0.93,59,1,7.3750005,-2.858,6.7990003,-0.071,1.926026,0,nan,0.0,3,1,19
116308672,1557937346000467,323879813,-1170764184,28867,-5576,0.22200002,0.030317066,0.882,1.314,0.58,0.93,59,4,8.179001,-3.5040002,7.3910003,-0.069000006,2.0135002,0,nan,0.0,3,1,19
116504728,1557937346200467,323879744,-1170764020,28862,-5581,0.259,0.029257301,0.88000005,1.312,0.58,0.93,59,4,8.744,-3.851,7.8500004,-0.05,2.0268497,0,nan,0.0,3,1,19
116706629,1557937346400468,323879671,-1170763851,28817,-5626,0.24400002,0.026749961,0.87900007,1.3100001,0.58,0.93,59,4,9.051001,-4.229,8.002001,0.045,2.056987,0,nan,0.0,3,1,19
116905754,1557937346600468,323879590,-1170763677,28859,-5584,0.25300002,0.02719537,0.878,1.3080001,0.58,0.93,59,4,9.308001,-4.374,8.217,-0.133,2.0599139,0,nan,0.0,3,1,19
117102628,1557937346800468,323879509,-1170763502,28859,-5585,0.23400001,0.024660803,0.87700003,1.3050001,0.58,0.93,59,4,9.4210005,-4.57,8.238,-0.112,2.0772905,0,nan,0.0,3,1,19
117309910,1557937347000468,323879425,-1170763326,28868,-5575,0.24100001,0.024210159,0.87500006,1.3010001,0.58,0.93,59,2,9.51,-4.625,8.309,-0.002,2.0786896,0,nan,0.0,3,1,19
117511112,1557937347200468,323879341,-1170763147,28854,-5589,0.24100001,0.02652848,0.874,1.3010001,0.58,0.93,59,2,9.667001,-4.556,8.525001,0.034,2.0616312,0,nan,0.0,3,1,19
117707727,1557937347400468,323879261,-1170762962,28823,-5620,0.23900001,0.02622392,0.873,1.302,0.58,0.93,59,2,9.733001,-4.346,8.708,0.201,2.0336702,0,nan,0.0,3,1,19
117907759,1557937347600468,323879186,-1170762776,28815,-5628,0.246,0.028927783,0.873,1.304,0.58,0.93,59,2,9.556001,-3.8430002,8.75,-0.094000004,1.9846337,0,nan,0.0,3,1,19
118108765,1557937347800468,323879121,-1170762587,28816,-5627,0.24200001,0.029632896,0.874,1.3060001,0.58,0.93,59,2,9.620001,-3.45,8.9800005,-0.11100001,1.9376527,0,nan,0.0,3,1,19
118308672,1557937348000468,323879066,-1170762393,28780,-5663,0.24100001,0.029062873,0.873,1.3080001,0.58,0.93,59,1,9.669001,-2.7580001,9.268001,0.15900001,1.860073,0,nan,0.0,3,1,19
118509712,1557937348200468,323879019,-1170762195,28739,-5704,0.259,0.027118575,0.874,1.309,0.58,0.93,59,1,9.63,-2.516,9.295,0.26700002,1.8351208,0,nan,0.0,3,1,19
118708678,1557937348400468,323878978,-1170761996,28628,-5815,0.24000001,0.025981668,0.874,1.309,0.58,0.93,59,1,9.662001,-2.23,9.402,0.35000002,1.8037293,0,nan,0.0,3,1,19
118905251,1557937348600468,323878938,-1170761797,28613,-5831,0.24300002,0.026368083,0.873,1.309,0.58,0.93,59,1,9.753,-2.2840002,9.482,-0.044000003,1.8072244,0,nan,0.0,3,1,19
119108682,1557937348800468,323878895,-1170761598,28663,-5780,0.252,0.024889441,0.87200004,1.309,0.58,0.93,59,1,9.688001,-2.651,9.318001,-0.411,1.8480299,0,nan,0.0,3,1,19
119309787,1557937349000468,323878841,-1170761403,28781,-5662,0.26700002,0.029600434,0.873,1.3110001,0.58,0.93,59,1,9.738001,-3.4370003,9.111,-0.698,1.9314804,0,nan,0.0,3,1,19
119509718,1557937349200468,323878775,-1170761212,28989,-5454,0.256,0.029527305,0.874,1.3160001,0.58,0.93,59,1,9.806001,-3.9710002,8.966001,-1.103,1.9876957,0,nan,0.0,3,1,19
119703738,1557937349400468,323878703,-1170761026,29244,-5199,0.24800001,0.027105136,0.874,1.32,0.64,1.01,59,1,9.532001,-4.176,8.568001,-1.1980001,2.0243092,0,nan,0.0,3,1,18
119906679,1557937349600468,323878631,-1170760843,29559,-4884,0.24200001,0.025961945,0.874,1.32,0.64,1.01,59,1,9.514001,-3.831,8.709001,-1.394,1.9852604,0,nan,0.0,3,1,18
120110850,1557937349800468,323878568,-1170760658,29840,-4603,0.25300002,0.032515656,0.87500006,1.3240001,0.64,1.01,59,1,9.312,-3.3040001,8.707001,-1.5050001,1.9334376,0,nan,0.0,3,1,18
120323970,1557937350000468,323878514,-1170760475,30225,-4218,0.264,0.034021176,0.87600005,1.327,0.64,1.01,59,2,8.852,-2.6030002,8.46,-1.6220001,1.8692769,0,nan,0.0,3,1,18
120532677,1557937350200468,323878475,-1170760296,30504,-3939,0.263,0.037408687,0.878,1.3280001,0.58,0.93,59,2,8.547,-1.8230001,8.35,-0.99000007,1.7857007,0,nan,0.0,3,1,19
120716218,1557937350400468,323878450,-1170760117,30670,-3773,0.19500001,0.03672888,0.87600005,1.322,0.58,0.93,59,2,8.375,-1.0960001,8.303,-0.49100003,1.702063,0,nan,0.0,3,1,19
120916681,1557937350600468,323878441,-1170759942,30694,-3749,0.192,0.03691511,0.873,1.317,0.58,0.93,59,2,8.044001,-0.036000002,8.044001,-0.21000001,1.5752912,0,nan,0.0,3,1,19
121116668,1557937350800468,323878449,-1170759769,30770,-3673,0.18800001,0.036066703,0.87000006,1.3110001,0.58,0.93,59,2,8.037001,0.896,7.9870005,-0.006,1.4590484,0,nan,0.0,3,1,19
121313714,1557937351000468,323878469,-1170759596,30857,-3586,0.19800001,0.037571702,0.86700004,1.3060001,0.58,0.93,59,3,8.068001,1.6610001,7.8950005,-0.094000004,1.3633684,0,nan,0.0,3,1,19
121518626,1557937351200468,323878509,-1170759434,30965,-3478,0.238,0.039893687,0.86700004,1.3060001,0.58,0.93,59,3,8.099,2.8820002,7.5690002,-0.18,1.2070125,0,nan,0.0,3,1,19
121715496,1557937351400468,323878567,-1170759276,30968,-3475,0.326,0.04765691,0.87000006,1.3110001,0.58,0.93,59,3,8.065001,3.4220002,7.3030005,-0.10300001,1.1325898,0,nan,0.0,3,1,19
121906677,1557937351600468,323878636,-1170759124,30959,-3484,0.32200003,0.048432186,0.87500006,1.3180001,0.58,0.93,59,3,8.219001,4.196,7.0680003,-0.101,1.0350854,0,nan,0.0,3,1,19
122107667,1557937351800468,323878721,-1170758982,30987,-3456,0.34800002,0.05305469,0.882,1.3260001,0.58,0.93,59,3,8.226001,5.1130004,6.4440002,0.056,0.90005016,0,nan,0.0,3,1,19
122298658,1557937352000468,323878819,-1170758858,30941,-3502,0.21700001,0.036898527,0.883,1.3230001,0.58,0.93,59,3,7.8980002,5.6600003,5.5080004,0.086,0.80972,0,nan,0.0,3,1,19
122507663,1557937352200468,323878923,-1170758749,30988,-3455,0.20400001,0.030455122,0.878,1.314,0.58,0.93,59,3,7.6650004,5.946,4.8370004,0.112,0.7263302,0,nan,0.0,3,1,19
122705700,1557937352400468,323879033,-1170758655,30950,-3493,0.32700002,0.044764552,0.878,1.32,0.58,0.93,59,3,7.3970003,6.1670003,4.084,0.047000002,0.66982764,0,nan,0.0,3,1,19
122903933,1557937352600468,323879144,-1170758578,30972,-3471,0.31100002,0.04536791,0.88100004,1.3260001,0.59999996,0.94,59,3,6.8880005,6.0730004,3.249,-0.013,0.5740604,0,nan,0.0,3,1,18
123110090,1557937352800468,323879253,-1170758519,30952,-3491,0.32900003,0.05013999,0.88400006,1.332,0.59999996,0.94,59,3,6.3430004,5.86,2.427,0.16000001,0.48532996,0,nan,0.0,3,1,18
123309710,1557937353000468,323879356,-1170758477,30955,-3487,0.354,0.05732708,0.8880001,1.3390001,0.59999996,0.94,59,2,5.7730002,5.5480003,1.5940001,-0.006,0.39017078,0,nan,0.0,3,1,18
123506645,1557937353200468,323879451,-1170758452,30955,-3488,0.36600003,0.06964125,0.89400005,1.3490001,0.59999996,0.94,59,2,5.1740003,5.11,0.813,0.057000004,0.29160243,0,nan,0.0,3,1,18
123710632,1557937353400468,323879536,-1170758441,30925,-3517,0.324,0.07339144,0.89900005,1.358,0.59999996,0.94,59,2,4.414,4.401,0.349,0.19100001,0.18830216,0,nan,0.0,3,1,18
123914946,1557937353600468,323879606,-1170758438,30886,-3556,0.27100003,0.093578264,0.90400004,1.365,0.59999996,0.94,59,2,3.4970002,3.4970002,0.008,0.124000005,0.11587956,0,nan,0.0,3,1,18
124106642,1557937353800468,323879661,-1170758439,30865,-3577,0.266,0.12267046,0.90700006,1.3720001,0.59999996,0.94,59,2,2.7570002,2.7540002,-0.13000001,0.16800001,0.055247694,0,nan,0.0,3,1,18
124308690,1557937354000468,323879701,-1170758439,30837,-3606,0.26700002,0.18721867,0.90900004,1.381,0.59999996,0.94,59,1,2.003,2.002,0.056,0.216,0.047074668,0,nan,0.0,3,1,18
124508725,1557937354200468,323879726,-1170758432,30825,-3618,0.31500003,0.3016407,0.91300005,1.386,0.59999996,0.94,59,1,1.1600001,1.08,0.42200002,0.252,0.13762636,0,nan,0.0,3,1,18
124708676,1557937354400468,323879740,-1170758415,30770,-3673,0.32700002,0.20471315,0.915,1.394,0.59999996,0.94,59,1,1.2820001,0.671,1.092,0.35700002,0.741635,0,nan,0.0,3,1,18
124901873,1557937354600468,323879749,-1170758385,30680,-3762,0.30400002,0.17520277,0.91700006,1.401,0.59999996,0.94,59,1,1.7500001,0.37300003,1.7090001,0.37,1.0965192,0,nan,0.0,3,1,18
125110629,1557937354800468,323879757,-1170758343,30582,-3860,0.22000001,0.11630158,0.915,1.404,0.57,0.93,59,1,2.342,0.59800005,2.265,0.4,1.2467649,0,nan,0.0,3,1,19
125313729,1557937355000468,323879768,-1170758288,30541,-3902,0.245,0.08756613,0.9110001,1.4070001,0.57,0.93,59,1,2.904,0.837,2.7810001,0.29700002,1.2671219,0,nan,0.0,3,1,19
125514627,1557937355200468,323879788,-1170758231,30490,-3953,0.25300002,0.08151926,0.90900004,1.409,0.57,0.93,59,1,3.025,1.45,2.6550002,0.246,1.1608573,0,nan,0.0,3,1,19
125710615,1557937355400468,323879820,-1170758178,30491,-3952,0.286,0.07632953,0.90700006,1.4050001,0.57,0.93,59,1,3.015,1.9010001,2.3400002,0.12100001,1.0140352,0,nan,0.0,3,1,19
125907690,1557937355600468,323879858,-1170758135,30507,-3936,0.272,0.08096844,0.90500003,1.4070001,0.57,0.93,59,1,2.884,2.107,1.9690001,0.035,0.8888314,0,nan,0.0,3,1,19
126107668,1557937355800468,323879898,-1170758100,30527,-3915,0.279,0.092678025,0.90400004,1.4080001,0.57,0.93,59,1,2.7350001,2.3040001,1.4720001,0.067,0.7483961,0,nan,0.0,3,1,19
126316711,1557937356000468,323879935,-1170758079,30532,-3910,0.261,0.13083057,0.90400004,1.4130001,0.57,0.93,59,1,2.016,1.894,0.69200003,-0.040000003,0.61433685,0,nan,0.0,3,1,19
126509706,1557937356200468,323879963,-1170758071,30548,-3894,0.20600002,0.1539108,0.901,1.4120001,0.57,0.93,59,1,1.514,1.511,0.085,-0.023000002,0.37956074,0,nan,0.0,3,1,19
126713705,1557937356400468,323879982,-1170758069,30611,-3832,0.18200001,0.289226,0.897,1.4030001,0.57,0.93,59,1,0.851,0.851,-0.016,0.060000002,0.29151535,0,nan,0.0,3,1,19
126914629,1557937356600468,323879993,-1170758068,30711,-3732,0.16700001,0.42637798,0.89100003,1.3920001,0.55,0.91999996,59,1,0.52900004,0.50600004,-0.155,-0.27400002,0.10628583,0,nan,0.0,3,1,20
127114625,1557937356800468,323879999,-1170758073,30897,-3546,0.19500001,0.77131295,0.883,1.381,0.57,0.93,59,1,0.261,0.25100002,-0.07,-0.24400002,0.017624334,0,nan,0.0,3,1,19
127314865,1557937357000468,323880001,-1170758072,30954,-3489,0.23300001,0.77132136,0.87700003,1.3770001,0.57,0.93,59,4,0.155,0.017,0.15400001,-0.072000004,0.017624334,0,nan,0.0,3,1,19
127508671,1557937357200468,323880000,-1170758068,31038,-3405,0.28300002,0.77133876,0.873,1.373,0.55,0.93,59,4,0.18100001,-0.074,0.165,-0.45900002,0.017624334,0,nan,0.0,3,1,20
127715447,1557937357400468,323879999,-1170758067,31045,-3398,0.24200001,0.77134734,0.87100005,1.3720001,0.55,0.93,59,4,0.158,0.001,0.158,-0.071,0.017624334,0,nan,0.0,3,1,20
127912071,1557937357600468,323879997,-1170758065,31115,-3328,0.23900001,0.77135587,0.87000006,1.368,0.55,0.93,59,4,0.13700001,-0.08400001,0.108,-0.087000005,0.017624334,0,nan,0.0,3,1,20
128112677,1557937357800468,323879995,-1170758063,31139,-3303,0.22800002,0.7713641,0.86700004,1.365,0.55,0.93,59,4,0.186,-0.116000004,0.14500001,-0.002,0.017624334,0,nan,0.0,3,1,20
128313716,1557937358000468,323879993,-1170758058,31245,-3197,0.264,0.5637485,0.864,1.3610001,0.55,0.93,59,4,0.39800003,-0.128,0.377,-0.48100004,1.2441124,0,nan,0.0,3,1,20
128512668,1557937358200468,323879991,-1170758048,31439,-3004,0.268,0.3831521,0.86200005,1.358,0.55,0.93,59,4,0.609,-0.135,0.59400004,-0.84800005,1.6208814,0,nan,0.0,3,1,20
128713727,1557937358400468,323879991,-1170758037,31663,-2780,0.29000002,0.41444063,0.86,1.3590001,0.55,0.93,59,4,0.57000005,-0.089,0.563,-1.1830001,1.6699884,0,nan,0.0,3,1,20
128909901,1557937358600468,323879990,-1170758027,31950,-2492,0.294,0.42293096,0.859,1.3590001,0.55,0.93,59,4,0.55600005,-0.2,0.518,-1.562,1.8020879,0,nan,0.0,3,1,20
129110685,1557937358800468,323879987,-1170758021,32315,-2128,0.287,0.4940023,0.85600007,1.3570001,0.55,0.93,59,4,0.404,-0.14500001,0.377,-1.8850001,1.8589511,0,nan,0.0,3,1,20
129314619,1557937359000468,323879986,-1170758014,32772,-1671,0.28500003,0.52389073,0.85300004,1.353,0.55,0.93,63,1,0.42000002,-0.085,0.41200003,-2.2710001,1.8191674,0,nan,0.0,3,1,20
129514624,1557937359200468,323879985,-1170758010,33266,-1176,0.291,0.64482933,0.851,1.353,0.55,0.93,63,1,0.34300002,-0.074,0.335,-2.5660002,1.8074355,0,nan,0.0,3,1,20
129715662,1557937359400468,323879985,-1170758008,33824,-619,0.303,0.64494485,0.85,1.3540001,0.55,0.93,63,1,0.091000006,-0.012,0.091000006,-2.716,1.8074355,0,nan,0.0,3,1,20
129916690,1557937359600468,323879985,-1170758007,34405,-38,0.3,0.6450597,0.84900004,1.3540001,0.53,0.90999997,63,1,0.21800001,0.036000002,0.21400002,-2.6940002,1.8074355,0,nan,0.0,3,1,21
130105306,1557937359800468,323879983,-1170758006,34971,528,0.30100003,0.64517176,0.84800005,1.3540001,0.53,0.90999997,63,1,0.19000001,-0.14,0.12900001,-2.631,1.8074355,0,nan,0.0,3,1,21
130317706,1557937360000468,323879981,-1170758005,35552,1110,0.287,0.64527875,0.846,1.3470001,0.53,0.90999997,63,1,0.18200001,-0.07,0.16800001,-2.5110002,1.8074355,0,nan,0.0,3,1,21
130518656,1557937360200468,323879981,-1170758006,36056,1613,0.29700002,0.64537597,0.845,1.3470001,0.53,0.90999997,63,1,0.087000005,0.061000004,-0.062000003,-2.286,1.8074355,0,nan,0.0,3,1,21
130717480,1557937360400468,323879982,-1170758009,36509,2067,0.30200002,0.6454665,0.84400004,1.3470001,0.53,0.90999997,63,1,0.061000004,0.057000004,0.021000002,-2.1290002,1.8074355,0,nan,0.0,3,1,21
130909722,1557937360600468,323879984,-1170758009,36927,2484,0.303,0.6455498,0.84300005,1.3470001,0.53,0.90999997,63,1,0.158,0.112,0.11100001,-1.9520001,1.8074355,0,nan,0.0,3,1,21
131110642,1557937360800468,323879985,-1170758010,37289,2846,0.30400002,0.645629,0.84200007,1.3470001,0.53,0.90999997,63,1,0.069000006,-0.0050000004,0.069000006,-1.868,1.8074355,0,nan,0.0,3,1,21
131312329,1557937361000468,323879988,-1170758011,37591,3149,0.30200002,0.64570177,0.84000003,1.345,0.53,0.90999997,63,3,0.192,0.19100001,0.009000001,-1.7030001,1.8074355,0,nan,0.0,3,1,21
131515713,1557937361200468,323879992,-1170758011,37858,3415,0.303,0.6457624,0.83900005,1.345,0.53,0.90999997,63,3,0.171,0.16600001,0.039,-1.414,1.8074355,0,nan,0.0,3,1,21
131716736,1557937361400468,323879995,-1170758010,38158,3715,0.30400002,0.6458207,0.837,1.3440001,0.53,0.90999997,63,3,0.13000001,0.087000005,0.096,-1.3670001,1.8074355,0,nan,0.0,3,1,21
131923691,1557937361600468,323879998,-1170758010,38421,3979,0.29200003,0.64587754,0.83500004,1.3390001,0.53,0.90999997,63,3,0.171,0.162,0.056,-1.33,1.8074355,0,nan,0.0,3,1,21
132113723,1557937361800469,323880003,-1170758007,38636,4193,0.27400002,0.4477167,0.83300006,1.337,0.53,0.90999997,63,3,0.47300002,0.321,0.34800002,-1.1120001,1.1441765,0,nan,0.0,3,1,21
132324673,1557937362000469,323880008,-1170758004,38884,4442,0.28500003,0.44778442,0.832,1.3340001,0.53,0.90999997,67,11,0.21400002,0.13900001,0.162,-1.085,1.1441765,0,nan,0.0,3,1,21
132514621,1557937362200469,323880008,-1170758003,39109,4666,0.28800002,0.4478537,0.83000004,1.3310001,0.53,0.90999997,67,11,0.162,-0.032,0.15900001,-1.12,1.1441765,0,nan,0.0,3,1,21
132706622,1557937362400469,323880009,-1170758002,39330,4888,0.277,0.44791254,0.82800007,1.327,0.53,0.90999997,67,11,0.142,0.106000006,0.095000006,-0.95000005,1.1441765,0,nan,0.0,3,1,21
132914620,1557937362600469,323880011,-1170758003,39498,5055,0.284,0.44795182,0.827,1.327,0.53,0.90999997,67,11,0.061000004,0.060000002,-0.007,-0.637,1.1441765,0,nan,0.0,3,1,21
133114618,1557937362800469,323880013,-1170758004,39607,5164,0.27100003,0.4479794,0.82500005,1.322,0.53,0.90999997,67,11,0.10700001,0.104,0.025,-0.44000003,1.1441765,0,nan,0.0,3,1,21
133316137,1557937363000469,323880015,-1170758008,39753,5310,0.272,0.44800174,0.823,1.3160001,0.53,0.90999997,67,1,0.120000005,-0.020000001,-0.11800001,-0.34300002,1.1441765,0,nan,0.0,3,1,21
133516736,1557937363200469,323880015,-1170758012,39888,5445,0.264,0.44801778,0.82000005,1.3050001,0.53,0.90999997,67,1,0.117000006,-0.055000003,-0.104,-0.22200002,1.1441765,0,nan,0.0,3,1,21
133716891,1557937363400469,323880013,-1170758016,39975,5532,0.261,0.44803593,0.81700003,1.294,0.53,0.90999997,67,1,0.18400002,-0.104,-0.15200001,-0.231,1.1441765,0,nan,0.0,3,1,21
133917873,1557937363600469,323880012,-1170758019,40004,5561,0.26000002,0.4480518,0.81500006,1.2870001,0.53,0.90999997,67,1,0.015000001,0.015000001,-0.001,-0.147,1.1441765,0,nan,0.0,3,1,21
134117763,1557937363800469,323880012,-1170758020,40037,5595,0.245,0.44806683,0.814,1.281,0.53,0.90999997,67,1,0.060000002,0.043,0.042000003,-0.125,1.1441765,0,nan,0.0,3,1,21
134317128,1557937364000469,323880013,-1170758020,40047,5604,0.24200001,0.44808167,0.81200004,1.2750001,0.53,0.90999997,67,1,0.117000006,0.022000002,0.11400001,-0.008,1.1441765,0,nan,0.0,3,1,21
134513736,1557937364200469,323880012,-1170758020,40041,5599,0.264,0.44809788,0.81100005,1.269,0.53,0.90999997,67,1,0.148,0.034,0.14400001,0.079,1.1441765,0,nan,0.0,3,1,21
134717705,1557937364400469,323880011,-1170758019,40030,5587,0.25500003,0.44811344,0.81100005,1.266,0.53,0.90999997,67,1,0.08800001,-0.042000003,0.078,0.13700001,1.1441765,0,nan,0.0,3,1,21
134917703,1557937364600469,323880011,-1170758019,40018,5575,0.284,0.44813088,0.81000006,1.263,0.53,0.90999997,67,1,0.11400001,0.034,0.108,0.20700002,1.1441765,0,nan,0.0,3,1,21
135118628,1557937364800469,323880011,-1170758018,40008,5566,0.25800002,0.44814658,0.81000006,1.2600001,0.53,0.90999997,67,1,0.18300001,0.037,0.18,0.081,1.1441765,0,nan,0.0,3,1,21
135311667,1557937365000469,323880012,-1170758017,39972,5529,0.25,0.44816196,0.809,1.256,0.53,0.90999997,67,3,0.16900001,0.068,0.155,0.028,1.1441765,0,nan,0.0,3,1,21
135515778,1557937365200469,323880013,-1170758019,39947,5505,0.23700002,0.44817644,0.80700004,1.251,0.53,0.90999997,67,3,0.061000004,0.045,0.042000003,-0.031000001,1.1441765,0,nan,0.0,3,1,21
135718933,1557937365400469,323880015,-1170758021,39952,5509,0.23900001,0.4481911,0.80600005,1.2470001,0.53,0.90999997,67,3,0.097,0.08800001,0.041,-0.116000004,1.1441765,0,nan,0.0,3,1,21
135917708,1557937365600469,323880017,-1170758024,39946,5503,0.24100001,0.44820595,0.804,1.2420001,0.53,0.90999997,67,3,0.120000005,0.08800001,0.081,-0.010000001,1.1441765,0,nan,0.0,3,1,21
136115672,1557937365800469,323880019,-1170758027,40002,5560,0.22500001,0.44821972,0.80200005,1.2360001,0.53,0.90999997,67,3,0.1,0.1,0.004,-0.124000005,1.1441765,0,nan,0.0,3,1,21
136320697,1557937366000469,323880021,-1170758030,40042,5599,0.24400002,0.44823804,0.80100006,1.2310001,0.53,0.90999997,67,4,0.126,0.109000005,0.063,-0.27400002,1.1441765,0,nan,0.0,3,1,21
136508767,1557937366200469,323880022,-1170758032,40102,5659,0.263,0.44825935,0.799,1.2260001,0.53,0.90999997,67,4,0.07700001,0.015000001,-0.075,-0.337,1.1441765,0,nan,0.0,3,1,21
136709708,1557937366400469,323880022,-1170758033,40209,5767,0.24700001,0.44828796,0.79800004,1.223,0.53,0.90999997,67,4,0.24800001,0.083000004,0.23400001,-0.397,1.1441765,0,nan,0.0,3,1,21
136910824,1557937366600469,323880023,-1170758032,40289,5846,0.264,0.44830856,0.79800004,1.222,0.53,0.90999997,67,4,0.089,0.081,-0.038000003,-0.32500002,1.1441765,0,nan,0.0,3,1,21
137111073,1557937366800469,323880025,-1170758034,40327,5885,0.26700002,0.4483262,0.79800004,1.223,0.53,0.90999997,67,4,0.104,0.093,-0.048,-0.27100003,1.1441765,0,nan,0.0,3,1,21
137314635,1557937367000469,323880025,-1170758034,40409,5966,0.298,0.44835672,0.799,1.2260001,0.55,0.91999996,67,1,0.21700001,-0.023000002,0.216,-0.45000002,1.1441765,0,nan,0.0,3,1,20
137512706,1557937367200469,323880024,-1170758033,40472,6030,0.30600002,0.44837716,0.80100006,1.2270001,0.53,0.90999997,67,1,0.149,-0.148,-0.009000001,-0.296,1.1441765,0,nan,0.0,3,1,21
137713705,1557937367400469,323880019,-1170758037,40559,6116,0.24800001,0.62860876,0.8,1.225,0.55,0.91999996,67,1,0.31,-0.268,-0.156,-0.24900001,1.9951113,0,nan,0.0,3,1,20
137909679,1557937367600469,323880012,-1170758045,40628,6185,0.24000001,0.3059869,0.79800004,1.222,0.53,0.90999997,67,1,0.647,-0.41500002,-0.49600002,-0.21100001,3.628496,0,nan,0.0,3,1,21
138105298,1557937367800469,323880002,-1170758063,40652,6210,0.344,0.18519059,0.8,1.225,0.53,0.90999997,67,1,1.4050001,-0.79800004,-1.1570001,-0.101,3.9800653,0,nan,0.0,3,1,21
138317786,1557937368000469,323879989,-1170758096,40766,6324,0.17600001,0.0623374,0.79600006,1.2040001,0.53,0.90999997,50,2,1.9990001,-0.87000006,-1.8000001,-0.24300002,4.233487,0,nan,0.0,3,1,21
138506639,1557937368200469,323879973,-1170758143,40868,6426,0.21200001,0.057253428,0.791,1.197,0.53,0.90999997,50,2,2.7540002,-1.107,-2.522,-0.19600001,4.269502,0,nan,0.0,3,1,21
138706641,1557937368400469,323879954,-1170758201,40864,6421,0.342,0.08537679,0.79300004,1.199,0.53,0.90999997,50,2,3.1520002,-1.103,-2.953,0.018000001,4.2968965,0,nan,0.0,3,1,21
138902640,1557937368600469,323879930,-1170758271,40949,6506,0.22100002,0.048983708,0.794,1.1980001,0.53,0.90999997,50,2,3.8860002,-1.4950001,-3.5870001,-0.342,4.3124666,0,nan,0.0,3,1,21
139099688,1557937368800469,323879904,-1170758353,41016,6574,0.321,0.059404545,0.79600006,1.2030001,0.53,0.90999997,50,2,4.427,-1.468,-4.177,-0.485,4.3390155,0,nan,0.0,3,1,21
139304729,1557937369000469,323879874,-1170758444,41124,6681,0.33600003,0.060663976,0.80100006,1.2080001,0.53,0.90999997,61,2,4.6600003,-1.69,-4.342,-0.637,4.3401337,0,nan,0.0,3,1,21
139504670,1557937369200469,323879842,-1170758538,41327,6884,0.215,0.044692818,0.80100006,1.2040001,0.55,0.96999997,61,2,4.8570004,-1.7880001,-4.5160003,-0.43800002,4.3370137,0,nan,0.0,3,1,19
139703768,1557937369400469,323879809,-1170758636,41562,7119,0.21000001,0.042537685,0.79800004,1.199,0.55,0.96999997,61,2,5.0750003,-1.8420001,-4.729,-0.46600002,4.339268,0,nan,0.0,3,1,19
139904747,1557937369600469,323879774,-1170758734,41746,7303,0.21900001,0.04661041,0.79600006,1.195,0.55,0.96999997,61,2,5.1070004,-1.8520001,-4.7590003,-0.36,4.3402762,0,nan,0.0,3,1,19
140110675,1557937369800469,323879736,-1170758833,41955,7512,0.22100002,0.057148535,0.795,1.192,0.55,0.96999997,61,2,5.1930003,-2.072,-4.762,-0.388,4.323849,0,nan,0.0,3,1,19
140302627,1557937370000469,323879701,-1170758934,42028,7586,0.252,0.07134993,0.79700005,1.1960001,0.55,0.96999997,61,3,5.1060004,-1.8470001,-4.76,-0.22700001,4.3313947,0,nan,0.0,3,1,19
140502634,1557937370200469,323879665,-1170759034,42046,7604,0.40500003,0.08003695,0.804,1.2030001,0.55,0.96999997,61,3,5.196,-2.134,-4.737,-0.012,4.312132,0,nan,0.0,3,1,19
140701819,1557937370400469,323879630,-1170759136,42000,7557,0.35200003,0.062729575,0.81200004,1.2110001,0.55,0.96999997,61,3,5.1910005,-1.9110001,-4.827,0.007,4.326723,0,nan,0.0,3,1,19
140902640,1557937370600469,323879593,-1170759244,42071,7629,0.21300001,0.046288922,0.81200004,1.2090001,0.58,0.96999997,61,3,5.254,-2.071,-4.828,-0.20600002,4.3138084,0,nan,0.0,3,1,18
141098657,1557937370800469,323879557,-1170759346,42095,7652,0.317,0.060380533,0.813,1.213,0.55,0.96999997,61,3,5.0270004,-2.0830002,-4.5750003,-0.404,4.3023257,0,nan,0.0,3,1,19
141299937,1557937371000469,323879522,-1170759443,42115,7672,0.317,0.054927077,0.81600004,1.217,0.55,0.96999997,62,2,5.005,-2.033,-4.5730004,-0.291,4.2976522,0,nan,0.0,3,1,19
141499834,1557937371200469,323879486,-1170759541,41998,7555,0.264,0.056888655,0.818,1.2190001,0.55,0.96999997,62,2,5.024,-2.217,-4.5090003,0.034,4.276335,0,nan,0.0,3,1,19
141703676,1557937371400469,323879448,-1170759641,42012,7569,0.21800001,0.043641083,0.81700003,1.2160001,0.55,0.96999997,62,2,5.1920004,-2.138,-4.7310004,-0.0050000004,4.2838774,0,nan,0.0,3,1,19
141908572,1557937371600469,323879411,-1170759742,42027,7584,0.21800001,0.04023333,0.814,1.212,0.55,0.96999997,62,2,5.1930003,-2.2580001,-4.676,0.041,4.2716045,0,nan,0.0,3,1,19
142097725,1557937371800469,323879369,-1170759841,42001,7558,0.21200001,0.03968599,0.81100005,1.2080001,0.55,0.96999997,62,2,5.195,-2.375,-4.6210003,0.14,4.252997,0,nan,0.0,3,1,19
142301555,1557937372000469,323879327,-1170759942,41945,7502,0.20700002,0.03976715,0.80700004,1.2030001,0.55,0.96999997,62,1,5.136,-2.2280002,-4.6280003,0.27400002,4.258844,0,nan,0.0,3,1,19
142501323,1557937372200469,323879284,-1170760040,41860,7417,0.33600003,0.067880385,0.809,1.207,0.55,0.96999997,62,1,5.1940002,-2.4320002,-4.59,0.38000003,4.249102,0,nan,0.0,3,1,19
142701703,1557937372400469,323879239,-1170760139,41744,7301,0.29000002,0.056493163,0.813,1.2110001,0.55,0.96999997,62,1,5.2330003,-2.536,-4.577,0.528,4.223281,0,nan,0.0,3,1,19
142901729,1557937372600469,323879191,-1170760237,41601,7158,0.193,0.03280032,0.81000006,1.199,0.55,0.96999997,62,1,5.2510004,-2.4320002,-4.6540003,0.55600005,4.229117,0,nan,0.0,3,1,19
143103720,1557937372800469,323879143,-1170760335,41443,7000,0.177,0.029381046,0.80200005,1.184,0.55,0.96999997,62,1,5.2120004,-2.476,-4.5860004,0.68600005,4.2219567,0,nan,0.0,3,1,19
143303718,1557937373000469,323879096,-1170760434,41299,6857,0.22000001,0.04102658,0.79800004,1.1800001,0.55,0.96999997,62,1,5.221,-2.607,-4.5230002,0.648,4.208753,0,nan,0.0,3,1,19
143503677,1557937373200469,323879051,-1170760532,41208,6765,0.23200001,0.052947003,0.79700005,1.1800001,0.55,0.96999997,62,1,5.063,-2.365,-4.477,0.53400004,4.216007,0,nan,0.0,3,1,19
143703496,1557937373400469,323879009,-1170760625,41095,6652,0.26500002,0.062445085,0.799,1.1830001,0.55,0.96999997,62,1,4.9700003,-2.351,-4.379,0.536,4.2176275,0,nan,0.0,3,1,19
143908669,1557937373600469,323878966,-1170760719,40976,6533,0.36400002,0.079225026,0.80500007,1.19,0.55,0.96999997,62,1,5.0680003,-2.4550002,-4.433,0.57000005,4.2132154,0,nan,0.0,3,1,19
144107673,1557937373800469,323878921,-1170760812,40933,6490,0.2,0.03628068,0.804,1.179,0.55,0.96999997,62,1,4.9420004,-2.2940001,-4.3780003,0.55300003,4.2269845,0,nan,0.0,3,1,19
144312308,1557937374000469,323878882,-1170760904,40833,6390,0.18800001,0.032605365,0.79700005,1.1650001,0.55,0.96999997,70,3,4.7840004,-2.0870001,-4.3050003,0.509,4.247297,0,nan,0.0,3,1,19
144504458,1557937374200469,323878844,-1170760997,40776,6333,0.22600001,0.04390009,0.794,1.161,0.55,0.96999997,70,3,4.853,-2.17,-4.341,0.577,4.2479634,0,nan,0.0,3,1,19
144701719,1557937374400469,323878804,-1170761091,40669,6226,0.36800003,0.06624362,0.79600006,1.164,0.55,0.96999997,70,3,5.0730004,-2.341,-4.5010004,0.49600002,4.2429037,0,nan,0.0,3,1,19
144905691,1557937374600469,323878764,-1170761184,40616,6173,0.358,0.07026102,0.80300003,1.1700001,0.58,0.96999997,70,3,4.7990003,-2.1520002,-4.2900004,0.20600002,4.245153,0,nan,0.0,3,1,18
145106626,1557937374800469,323878727,-1170761272,40578,6135,0.363,0.08434303,0.81100005,1.179,0.58,0.96999997,70,3,4.492,-1.9900001,-4.0270004,0.109000005,4.2486086,0,nan,0.0,3,1,18
145303684,1557937375000469,323878693,-1170761356,40516,6073,0.21800001,0.045733556,0.81100005,1.177,0.58,0.96999997,71,1,4.322,-1.9410001,-3.8610003,0.16800001,4.2471023,0,nan,0.0,3,1,18
145506671,1557937375200469,323878662,-1170761436,40455,6012,0.21400002,0.049378503,0.80700004,1.1750001,0.58,0.96999997,71,1,3.9880002,-1.7960001,-3.561,0.13700001,4.2462296,0,nan,0.0,3,1,18
145710982,1557937375400469,323878631,-1170761511,40441,5998,0.307,0.0966558,0.809,1.1830001,0.58,0.96999997,71,1,3.811,-1.7530001,-3.384,0.14,4.243607,0,nan,0.0,3,1,18
145909737,1557937375600469,323878600,-1170761578,40419,5976,0.21900001,0.068971045,0.81000006,1.1830001,0.59999996,1.04,71,1,3.4700003,-1.6650001,-3.045,0.083000004,4.22245,0,nan,0.0,3,1,16
146104939,1557937375800469,323878571,-1170761638,40418,5975,0.29900002,0.11086261,0.81200004,1.1880001,0.58,0.96999997,71,1,3.072,-1.478,-2.693,0.041,4.2189794,0,nan,0.0,3,1,18
146309783,1557937376000469,323878547,-1170761694,40429,5986,0.323,0.14483021,0.818,1.197,0.58,0.96999997,71,3,2.805,-1.184,-2.5430002,-0.030000001,4.24046,0,nan,0.0,3,1,18
146509714,1557937376200469,323878526,-1170761746,40414,5970,0.27800003,0.11488472,0.823,1.2010001,0.58,0.96999997,71,3,2.6290002,-1.1620001,-2.358,-0.16600001,4.2492194,0,nan,0.0,3,1,18
146708668,1557937376400469,323878500,-1170761793,40437,5993,0.21700001,0.082117565,0.82100004,1.195,0.58,0.96999997,71,3,2.4190001,-1.2260001,-2.085,-0.056,4.203928,0,nan,0.0,3,1,18
146908929,1557937376600469,323878478,-1170761839,40513,6070,0.238,0.12859201,0.82000005,1.197,0.58,0.96999997,71,3,2.3070002,-1.033,-2.0640001,-0.16800001,4.2169905,0,nan,0.0,3,1,18
147106639,1557937376800469,323878459,-1170761882,40565,6122,0.273,0.14225987,0.822,1.2,0.58,0.96999997,71,3,2.1320002,-0.9620001,-1.9030001,-0.24700001,4.2293763,0,nan,0.0,3,1,18
147302321,1557937377000469,323878444,-1170761922,40618,6175,0.30600002,0.18118541,0.82600003,1.2080001,0.58,0.96999997,71,1,1.9790001,-0.809,-1.8060001,-0.252,4.253009,0,nan,0.0,3,1,18
147503725,1557937377200469,323878428,-1170761961,40674,6230,0.27100003,0.16008228,0.82900006,1.212,0.58,0.96999997,71,1,1.9100001,-0.882,-1.6940001,-0.238,4.241398,0,nan,0.0,3,1,18
147708238,1557937377400469,323878410,-1170761994,40561,6117,0.21400002,0.10895514,0.82600003,1.2040001,0.58,0.96999997,71,1,1.774,-0.73700005,-1.613,-0.208,4.270598,0,nan,0.0,3,1,18
147907673,1557937377600469,323878396,-1170762028,40579,6136,0.31300002,0.1692732,0.82600003,1.2090001,0.58,0.96999997,71,1,1.7140001,-0.77400005,-1.5300001,-0.172,4.262745,0,nan,0.0,3,1,18
148108973,1557937377800470,323878382,-1170762060,40605,6162,0.365,0.21506365,0.832,1.217,0.58,0.96999997,71,1,1.6650001,-0.758,-1.4820001,-0.18200001,4.253897,0,nan,0.0,3,1,18
148308527,1557937378000470,323878368,-1170762091,40625,6182,0.35700002,0.23038484,0.83900005,1.2270001,0.58,0.96999997,71,2,1.593,-0.734,-1.4130001,-0.178,4.2443275,0,nan,0.0,3,1,18
148508669,1557937378200470,323878356,-1170762118,40649,6206,0.43600002,0.32363096,0.84800005,1.2390001,0.58,0.96999997,71,2,1.2700001,-0.61,-1.1140001,-0.25300002,4.2332597,0,nan,0.0,3,1,18
148712677,1557937378400470,323878343,-1170762143,40727,6284,0.342,0.21231598,0.85600007,1.245,0.58,0.96999997,71,2,1.3440001,-0.67200005,-1.164,-0.132,4.201913,0,nan,0.0,3,1,18
148907689,1557937378600470,323878331,-1170762167,40776,6333,0.37600002,0.26467636,0.86100006,1.2520001,0.58,0.96999997,71,2,1.2,-0.57600003,-1.0530001,-0.155,4.2058983,0,nan,0.0,3,1,18
149110697,1557937378800470,323878320,-1170762188,40837,6394,0.347,0.2906563,0.86600006,1.256,0.58,0.96999997,71,2,1.054,-0.55700004,-0.89400005,-0.178,4.1830525,0,nan,0.0,3,1,18
149309082,1557937379000470,323878309,-1170762206,40938,6495,0.31100002,0.29776746,0.869,1.2590001,0.58,0.96999997,83,4,1.019,-0.569,-0.845,-0.32000002,4.151896,0,nan,0.0,3,1,18
149508685,1557937379200470,323878297,-1170762226,41020,6576,0.30100003,0.3243565,0.87100005,1.2650001,0.58,0.96999997,83,4,0.97,-0.536,-0.808,-0.31300002,4.140579,0,nan,0.0,3,1,18
149701694,1557937379400470,323878290,-1170762246,41094,6650,0.30200002,0.3880167,0.874,1.273,0.58,0.96999997,83,4,0.87600005,-0.28800002,-0.82800007,-0.522,4.23794,0,nan,0.0,3,1,18
149908728,1557937379600470,323878277,-1170762261,41280,6837,0.22600001,0.19193576,0.86700004,1.2470001,0.58,0.96999997,83,4,0.80700004,-0.41700003,-0.69100004,-0.564,4.18298,0,nan,0.0,3,1,18
150106659,1557937379800470,323878269,-1170762277,41450,7007,0.24700001,0.3159866,0.86200005,1.24,0.58,0.96999997,83,4,0.748,-0.32500002,-0.674,-0.38300002,4.204478,0,nan,0.0,3,1,18
150313722,1557937380000470,323878262,-1170762293,41548,7105,0.34,0.43489397,0.864,1.2440001,0.58,0.96999997,83,3,0.768,-0.32000002,-0.698,-0.512,4.2315693,0,nan,0.0,3,1,18
150506174,1557937380200470,323878256,-1170762308,41683,7240,0.35000002,0.43161485,0.869,1.25,0.58,0.96999997,83,3,0.785,-0.324,-0.71500003,-0.75000006,4.2598543,0,nan,0.0,3,1,18
150705874,1557937380400470,323878251,-1170762323,41804,7361,0.40500003,0.5440069,0.87600005,1.258,0.58,0.96999997,83,3,0.693,-0.20400001,-0.66200006,-0.60700005,4.3191104,0,nan,0.0,3,1,18
150903735,1557937380600470,323878248,-1170762336,41931,7488,0.446,0.54404825,0.88600004,1.271,0.59999996,0.97999996,83,3,0.555,-0.19500001,-0.52000004,-0.601,4.3191104,0,nan,0.0,3,1,17
151111484,1557937380800470,323878245,-1170762347,42023,7580,0.44300002,0.544088,0.89800006,1.2850001,0.59999996,0.97999996,83,3,0.554,-0.16900001,-0.528,-0.563,4.3191104,0,nan,0.0,3,1,17
151311413,1557937381000470,323878243,-1170762360,42116,7673,0.425,0.7190177,0.90900004,1.3000001,0.59999996,0.97999996,77,1,0.679,-0.065000005,-0.67600006,-0.512,4.4274693,0,nan,0.0,3,1,17
151511977,1557937381200470,323878246,-1170762377,42241,7798,0.316,0.45102045,0.92,1.3100001,0.59999996,0.97999996,77,1,1.0810001,0.39600003,-1.006,-0.367,4.900893,0,nan,0.0,3,1,17
151703681,1557937381400470,323878255,-1170762403,42346,7903,0.26900002,0.25456393,0.92800003,1.3180001,0.59999996,0.97999996,77,1,1.7850001,0.62700003,-1.6710001,-0.44500002,5.030302,0,nan,0.0,3,1,17
151916730,1557937381600470,323878267,-1170762447,42454,8011,0.33400002,0.18535745,0.93600005,1.33,0.59999996,0.97999996,77,1,2.584,0.75100005,-2.473,-0.37,5.0150986,0,nan,0.0,3,1,17
152104581,1557937381800470,323878286,-1170762505,42591,8147,0.307,0.14323811,0.94600004,1.3410001,0.59999996,0.97999996,77,1,3.147,1.1700001,-2.9220002,-0.349,5.0641513,0,nan,0.0,3,1,17
152300674,1557937382000470,323878312,-1170762574,42654,8210,0.31100002,0.11124536,0.95300007,1.3520001,0.59999996,0.97999996,67,1,3.91,1.6420001,-3.548,-0.27100003,5.115258,0,nan,0.0,3,1,17
152504707,1557937382200470,323878343,-1170762655,42698,8254,0.363,0.09955462,0.961,1.366,0.59999996,0.97999996,67,1,4.4750004,1.7990001,-4.097,-0.35500002,5.121346,0,nan,0.0,3,1,17
152706628,1557937382400470,323878377,-1170762749,42903,8459,0.328,0.08474236,0.96900004,1.3740001,0.59999996,0.97999996,67,1,4.881,1.9660001,-4.4680004,-0.47500002,5.124657,0,nan,0.0,3,1,17
152909130,1557937382600470,323878412,-1170762845,43039,8596,0.31500003,0.079625584,0.97400004,1.3800001,0.59999996,0.97999996,67,1,4.912,1.927,-4.519,-0.573,5.1196613,0,nan,0.0,3,1,17
153105951,1557937382800470,323878448,-1170762940,43163,8720,0.326,0.08123024,0.98,1.386,0.58,0.96999997,67,1,4.9040003,1.9890001,-4.4820004,-0.57500005,5.1248093,0,nan,0.0,3,1,18
153307674,1557937383000470,323878483,-1170763035,43256,8813,0.29700002,0.07752246,0.9850001,1.3920001,0.58,0.96999997,62,3,4.852,1.973,-4.432,-0.381,5.1281786,0,nan,0.0,3,1,18
153508679,1557937383200470,323878519,-1170763135,43436,8993,0.24300002,0.050824508,0.98200005,1.388,0.58,0.96999997,62,3,5.197,2.1420002,-4.735,-0.31,5.1346326,0,nan,0.0,3,1,18
153707760,1557937383400470,323878558,-1170763237,43583,9140,0.22200002,0.045969177,0.97400004,1.3750001,0.58,0.96999997,62,3,5.138,2.0370002,-4.716,-0.126,5.126285,0,nan,0.0,3,1,18
153908663,1557937383600470,323878596,-1170763341,43698,9255,0.23300001,0.045162138,0.96700007,1.365,0.58,0.96999997,62,3,5.2990003,2.0770001,-4.875,0.004,5.1203194,0,nan,0.0,3,1,18
154107677,1557937383800470,323878633,-1170763443,43696,9252,0.22700001,0.047179215,0.96000004,1.3570001,0.58,0.96999997,62,3,5.0940003,2.1680002,-4.609,0.078,5.136543,0,nan,0.0,3,1,18
154313702,1557937384000470,323878671,-1170763545,43665,9221,0.22200002,0.048157644,0.95400006,1.35,0.58,0.96999997,62,3,5.181,2.177,-4.702,0.25300002,5.1414814,0,nan,0.0,3,1,18
154505700,1557937384200470,323878713,-1170763644,43662,9218,0.215,0.04690991,0.9480001,1.3440001,0.58,0.96999997,62,3,5.151,2.24,-4.6390004,0.48000002,5.1527333,0,nan,0.0,3,1,18
154704758,1557937384400470,323878753,-1170763744,43594,9150,0.24300002,0.052098423,0.943,1.34,0.58,0.96999997,62,3,5.1250005,2.229,-4.6150002,0.66400003,5.1573424,0,nan,0.0,3,1,18
154901695,1557937384600470,323878796,-1170763844,43512,9069,0.19600001,0.04456314,0.938,1.332,0.58,0.96999997,62,3,5.3250003,2.3890002,-4.7590003,0.578,5.1695056,0,nan,0.0,3,1,18
155106048,1557937384800470,323878837,-1170763942,43380,8937,0.18400002,0.048073694,0.93200004,1.3240001,0.58,0.96999997,62,3,5.0820003,2.321,-4.5220003,0.702,5.1779494,0,nan,0.0,3,1,18
155304671,1557937385000470,323878879,-1170764039,43256,8813,0.23500001,0.04659296,0.92700005,1.3210001,0.58,0.96999997,62,1,5.0940003,2.348,-4.5210004,0.763,5.1852283,0,nan,0.0,3,1,18
155505510,1557937385200470,323878921,-1170764135,43095,8651,0.18200001,0.045066666,0.92100006,1.3130001,0.58,0.96999997,62,1,5.105,2.2640002,-4.5750003,0.726,5.1779428,0,nan,0.0,3,1,18
155700703,1557937385400470,323878960,-1170764229,42994,8550,0.187,0.046385262,0.915,1.3060001,0.58,0.96999997,62,1,4.9960003,2.2340002,-4.4690003,0.74700004,5.176961,0,nan,0.0,3,1,18
155906624,1557937385600470,323879002,-1170764323,42796,8353,0.22200002,0.048996277,0.91,1.302,0.58,0.96999997,62,1,4.921,2.2970002,-4.352,0.93000007,5.1875916,0,nan,0.0,3,1,18
156105702,1557937385800470,323879043,-1170764413,42582,8138,0.178,0.047661275,0.90400004,1.2950001,0.58,0.96999997,62,1,5.0140004,2.302,-4.454,0.961,5.1885962,0,nan,0.0,3,1,18
156315531,1557937386000470,323879083,-1170764507,42399,7955,0.24000001,0.05949897,0.90200007,1.294,0.58,0.96999997,62,1,4.94,2.2450001,-4.401,1.153,5.1867065,0,nan,0.0,3,1,18
156507675,1557937386200470,323879126,-1170764598,42204,7761,0.20400001,0.05425059,0.89900005,1.289,0.58,0.96999997,62,1,4.984,2.3530002,-4.393,0.99600005,5.196515,0,nan,0.0,3,1,18
156706719,1557937386400470,323879169,-1170764689,42004,7560,0.18900001,0.048749313,0.89500004,1.2820001,0.58,0.96999997,62,1,5.11,2.3790002,-4.5230002,1.161,5.1965747,0,nan,0.0,3,1,18
156903827,1557937386600470,323879213,-1170764783,41832,7389,0.245,0.051472027,0.892,1.281,0.58,0.96999997,62,1,4.892,2.332,-4.3,0.79200006,5.202972,0,nan,0.0,3,1,18
157104704,1557937386800470,323879253,-1170764873,41668,7224,0.186,0.05095628,0.8880001,1.2770001,0.58,0.96999997,62,1,4.971,2.237,-4.439,0.8,5.190405,0,nan,0.0,3,1,18
157305710,1557937387000470,323879293,-1170764966,41504,7061,0.24000001,0.053113334,0.88600004,1.2750001,0.58,0.96999997,62,2,4.868,2.24,-4.322,0.632,5.1905036,0,nan,0.0,3,1,18
157503669,1557937387200470,323879334,-1170765058,41348,6905,0.21900001,0.047718346,0.883,1.2720001,0.58,0.96999997,62,2,5.118,2.262,-4.591,0.70400006,5.178775,0,nan,0.0,3,1,18
157705738,1557937387400470,323879376,-1170765151,41234,6791,0.186,0.050494466,0.88000005,1.266,0.58,0.96999997,62,2,4.841,2.226,-4.2990003,0.64100003,5.1844835,0,nan,0.0,3,1,18
157904694,1557937387600470,323879417,-1170765240,41072,6628,0.21400002,0.05220035,0.87600005,1.263,0.58,0.96999997,62,2,4.794,2.266,-4.2250004,0.62200004,5.194797,0,nan,0.0,3,1,18
158107665,1557937387800470,323879458,-1170765330,40968,6525,0.215,0.051757388,0.874,1.2600001,0.58,0.96999997,62,2,4.859,2.206,-4.3300004,0.45800003,5.188855,0,nan,0.0,3,1,18
158305234,1557937388000470,323879500,-1170765422,40902,6459,0.23700002,0.052598637,0.87100005,1.2600001,0.58,0.96999997,62,4,4.8840003,2.331,-4.2920003,0.34,5.1996646,0,nan,0.0,3,1,18
158507675,1557937388200470,323879542,-1170765513,40807,6363,0.215,0.052005745,0.869,1.2570001,0.58,0.96999997,62,4,4.873,2.21,-4.3430004,0.27100003,5.1909475,0,nan,0.0,3,1,18
158707664,1557937388400470,323879583,-1170765605,40769,6326,0.19700001,0.052860435,0.86600006,1.2550001,0.58,0.96999997,62,4,4.859,2.19,-4.3370004,0.16100001,5.1852446,0,nan,0.0,3,1,18
158904674,1557937388600470,323879624,-1170765696,40670,6226,0.22000001,0.05632125,0.86500007,1.253,0.59999996,0.97999996,62,4,4.9300003,2.265,-4.379,0.416,5.187411,0,nan,0.0,3,1,17
159111241,1557937388800470,323879665,-1170765790,40601,6157,0.22800002,0.05439458,0.864,1.2520001,0.59999996,0.97999996,62,4,4.938,2.298,-4.3710003,0.21800001,5.1923194,0,nan,0.0,3,1,17
159313692,1557937389000470,323879706,-1170765883,40572,6128,0.23500001,0.057187628,0.86300004,1.251,0.62,0.97999996,63,9,4.8900003,2.253,-4.34,0.13100001,5.1918015,0,nan,0.0,3,1,16
159511695,1557937389200470,323879748,-1170765977,40553,6110,0.20700002,0.05471188,0.86100006,1.248,0.59999996,0.97999996,63,9,4.972,2.367,-4.372,0.20500001,5.200891,0,nan,0.0,3,1,17
159713847,1557937389400470,323879790,-1170766071,40520,6077,0.194,0.054110613,0.86,1.2440001,0.59999996,0.97999996,63,9,4.938,2.2910001,-4.374,0.18300001,5.1977,0,nan,0.0,3,1,17
159908937,1557937389600470,323879831,-1170766165,40494,6051,0.19500001,0.051305696,0.85700005,1.2390001,0.59999996,0.97999996,63,9,4.992,2.256,-4.453,0.09200001,5.1887665,0,nan,0.0,3,1,17
160097245,1557937389800470,323879872,-1170766261,40489,6046,0.193,0.050952442,0.855,1.2340001,0.59999996,0.97999996,63,9,4.9870005,2.2150002,-4.4680004,-0.036000002,5.180214,0,nan,0.0,3,1,17
160305950,1557937390000470,323879912,-1170766355,40502,6059,0.19900002,0.052639823,0.85300004,1.2310001,0.59999996,0.97999996,63,1,4.9680004,2.269,-4.42,-0.060000002,5.1835194,0,nan,0.0,3,1,17
160505351,1557937390200470,323879952,-1170766453,40541,6097,0.20400001,0.047109228,0.85,1.2290001,0.59999996,0.97999996,63,1,5.0740004,2.2610002,-4.5420003,-0.046000004,5.178229,0,nan,0.0,3,1,17
160705804,1557937390400470,323879994,-1170766549,40454,6010,0.268,0.05313515,0.85,1.2320001,0.58,0.96999997,63,1,5.241,2.417,-4.65,0.055000003,5.184548,0,nan,0.0,3,1,18
160905727,1557937390600470,323880036,-1170766649,40452,6009,0.246,0.053788774,0.84900004,1.2360001,0.61,1.04,63,1,5.065,2.321,-4.5020003,0.097,5.186563,0,nan,0.0,3,1,17
161106690,1557937390800470,323880076,-1170766746,40516,6073,0.192,0.049399097,0.84700006,1.235,0.61,1.04,63,1,5.1010003,2.163,-4.6190004,-0.022000002,5.166099,0,nan,0.0,3,1,17
161307726,1557937391000470,323880115,-1170766844,40599,6156,0.19900002,0.05214031,0.846,1.233,0.61,1.04,63,2,5.131,2.23,-4.6210003,-0.11400001,5.1640143,0,nan,0.0,3,1,17
161507689,1557937391200470,323880155,-1170766940,40673,6229,0.2,0.05260422,0.84400004,1.23,0.58,0.96999997,63,2,5.065,2.295,-4.5150003,0.003,5.173661,0,nan,0.0,3,1,18
161708675,1557937391400470,323880196,-1170767037,40703,6259,0.215,0.052201223,0.84300005,1.2270001,0.58,0.96999997,63,2,5.1450005,2.279,-4.6130004,-0.08400001,5.1723485,0,nan,0.0,3,1,18
161913743,1557937391600470,323880237,-1170767139,40744,6300,0.24300002,0.04709439,0.841,1.222,0.58,0.96999997,63,2,5.2730002,2.24,-4.774,-0.286,5.1600733,0,nan,0.0,3,1,18
