timestamp,baro_alt_meter,baro_temp_celcius,baro_pressure_pa,rho
95795935,1.1652629,26.359999,101311.0,1.2037423
95817949,0.9168849,26.359999,101313.99,1.2037778
95829676,1.331729,26.359999,101309.0,1.2037185
95841670,1.331729,26.359999,101309.0,1.2037185
95864634,0.99879676,26.359999,101313.0,1.203766
95876766,0.83233064,26.359999,101315.0,1.2037898
95887955,0.9168849,26.359999,101313.99,1.2037778
95909229,1.4981952,26.359999,101307.0,1.2036947
95921306,0.9168849,26.359999,101313.99,1.2037778
95931924,1.2498171,26.359999,101310.0,1.2037303
95953345,1.2498171,26.369999,101310.0,1.2037303
95965017,1.1652629,26.369999,101311.0,1.2037423
95975923,1.1652629,26.369999,101311.0,1.2037423
95997517,1.1652629,26.359999,101311.0,1.2037423
96008573,1.331729,26.359999,101309.0,1.2037185
96018882,1.4162832,26.359999,101307.99,1.2037065
96041893,0.5813103,26.369999,101318.0,1.2038255
96052632,0.99879676,26.369999,101313.0,1.203766
96063628,1.4162832,26.369999,101307.99,1.2037065
96084637,0.83233064,26.369999,101315.0,1.2037898
96095628,1.2498171,26.369999,101310.0,1.2037303
96106129,1.2498171,26.369999,101310.0,1.2037303
96130247,1.6646613,26.369999,101305.0,1.203671
96142672,1.5827494,26.369999,101306.0,1.2036829
96154239,1.2498171,26.369999,101310.0,1.2037303
96176630,0.9168849,26.359999,101313.99,1.2037778
96187765,0.99879676,26.359999,101313.0,1.203766
96198350,0.9168849,26.359999,101313.99,1.2037778
96222039,0.9168849,26.369999,101313.99,1.2037778
96234061,0.9168849,26.369999,101313.99,1.2037778
96245487,1.2498171,26.369999,101310.0,1.2037303
96266306,0.99879676,26.359999,101313.0,1.203766
96278470,1.1652629,26.359999,101311.0,1.2037423
96289932,0.9168849,26.359999,101313.99,1.2037778
96314080,0.99879676,26.369999,101313.0,1.203766
96325678,0.83233064,26.369999,101315.0,1.2037898
96337940,1.2498171,26.369999,101310.0,1.2037303
96361914,0.83233064,26.359999,101315.0,1.2037898
96373679,0.9168849,26.359999,101313.99,1.2037778
96386129,1.1652629,26.359999,101311.0,1.2037423
96407924,0.6658645,26.359999,101317.0,1.2038136
96420278,1.4162832,26.359999,101307.99,1.2037065
96431644,0.9168849,26.359999,101313.99,1.2037778
96455458,0.5813103,26.359999,101318.0,1.2038255
96467711,0.99879676,26.359999,101313.0,1.203766
96479466,0.7504187,26.359999,101316.0,1.2038016
96500105,0.9168849,26.359999,101313.99,1.2037778
96511349,0.6658645,26.359999,101317.0,1.2038136
96521056,0.7504187,26.359999,101316.0,1.2038016
96542037,0.5813103,26.359999,101318.0,1.2038255
96552479,0.49939838,26.359999,101319.0,1.2038373
96564065,0.99879676,26.359999,101313.0,1.203766
96587934,0.9168849,26.359999,101313.99,1.2037778
96600064,0.7504187,26.359999,101316.0,1.2038016
96611854,0.9168849,26.359999,101313.99,1.2037778
96634026,1.331729,26.359999,101309.0,1.2037185
96645518,1.083351,26.359999,101312.0,1.2037542
96655926,0.83233064,26.359999,101315.0,1.2037898
96678035,0.5813103,26.369999,101318.0,1.2038255
96689684,0.6658645,26.369999,101317.0,1.2038136
96699927,0.9168849,26.369999,101313.99,1.2037778
96721961,0.9168849,26.369999,101313.99,1.2037778
96733685,1.083351,26.369999,101312.0,1.2037542
96744260,0.5813103,26.369999,101318.0,1.2038255
96766940,0.49939838,26.359999,101319.0,1.2038373
96778575,0.99879676,26.359999,101313.0,1.203766
96789735,0.99879676,26.359999,101313.0,1.203766
96810705,0.9168849,26.369999,101313.99,1.2037778
96821724,0.9168849,26.369999,101313.99,1.2037778
96832636,0.83233064,26.369999,101315.0,1.2037898
96854582,0.7504187,26.369999,101316.0,1.2038016
96865639,0.83233064,26.369999,101315.0,1.2037898
96876632,0.83233064,26.369999,101315.0,1.2037898
96898589,1.083351,26.369999,101312.0,1.2037542
96909653,0.4174865,26.369999,101319.99,1.2038491
96920622,0.83233064,26.369999,101315.0,1.2037898
96942595,0.99879676,26.369999,101313.0,1.203766
96953676,1.1652629,26.369999,101311.0,1.2037423
96964735,0.83233064,26.369999,101315.0,1.2037898
96986595,0.7504187,26.369999,101316.0,1.2038016
96996698,0.6658645,26.369999,101317.0,1.2038136
97007883,1.1652629,26.369999,101311.0,1.2037423
97028650,0.9168849,26.369999,101313.99,1.2037778
97040714,0.99879676,26.369999,101313.0,1.203766
97052657,0.83233064,26.369999,101315.0,1.2037898
97074895,0.83233064,26.369999,101315.0,1.2037898
97086522,0.7504187,26.369999,101316.0,1.2038016
97096157,0.5813103,26.369999,101318.0,1.2038255
97116944,1.1652629,26.369999,101311.0,1.2037423
97128869,1.1652629,26.369999,101311.0,1.2037423
97141246,0.83233064,26.369999,101315.0,1.2037898
97163930,0.9168849,26.369999,101313.99,1.2037778
97174523,1.1652629,26.369999,101311.0,1.2037423
97185258,1.1652629,26.369999,101311.0,1.2037423
97207946,0.7504187,26.369999,101316.0,1.2038016
97218511,0.99879676,26.369999,101313.0,1.203766
97229410,0.5813103,26.369999,101318.0,1.2038255
97251941,0.83233064,26.38,101315.0,1.2037898
97262511,0.6658645,26.38,101317.0,1.2038136
97271938,0.9168849,26.38,101313.99,1.2037778
97293691,0.4174865,26.38,101319.99,1.2038491
97306070,1.5827494,26.38,101306.0,1.2036829
97317269,1.331729,26.38,101309.0,1.2037185
97338882,0.7504187,26.38,101316.0,1.2038016
97350508,1.083351,26.38,101312.0,1.2037542
97359931,0.83233064,26.38,101315.0,1.2037898
97381671,0.7504187,26.38,101316.0,1.2038016
97393663,0.83233064,26.38,101315.0,1.2037898
97405578,1.083351,26.38,101312.0,1.2037542
97426894,0.99879676,26.369999,101313.0,1.203766
97438499,1.1652629,26.369999,101311.0,1.2037423
97448737,1.2498171,26.369999,101310.0,1.2037303
97471940,0.7504187,26.38,101316.0,1.2038016
97482516,0.4174865,26.38,101319.99,1.2038491
97493260,1.331729,26.38,101309.0,1.2037185
97515937,0.99879676,26.38,101313.0,1.203766
97526518,0.7504187,26.38,101316.0,1.2038016
97537034,1.083351,26.38,101312.0,1.2037542
97559926,1.2498171,26.38,101310.0,1.2037303
97570566,0.6658645,26.38,101317.0,1.2038136
97581900,1.083351,26.38,101312.0,1.2037542
97603923,0.6658645,26.38,101317.0,1.2038136
97615473,0.7504187,26.38,101316.0,1.2038016
97625769,1.1652629,26.38,101311.0,1.2037423
97647927,0.6658645,26.38,101317.0,1.2038136
97659473,0.7504187,26.38,101316.0,1.2038016
97669801,0.6658645,26.38,101317.0,1.2038136
97691923,1.083351,26.38,101312.0,1.2037542
97703479,0.7504187,26.38,101316.0,1.2038016
97713478,0.99879676,26.38,101313.0,1.203766
97734952,1.1652629,26.38,101311.0,1.2037423
97745946,0.5813103,26.38,101318.0,1.2038255
97756088,0.6658645,26.38,101317.0,1.2038136
97778881,0.6658645,26.39,101317.0,1.2038136
97789948,0.7504187,26.39,101316.0,1.2038016
97801679,0.33293226,26.39,101321.0,1.2038611
97822881,1.1652629,26.38,101311.0,1.2037423
97833555,0.9168849,26.38,101313.99,1.2037778
97843948,0.9168849,26.38,101313.99,1.2037778
97866075,0.16646613,26.38,101323.0,1.2038848
97876470,0.6658645,26.38,101317.0,1.2038136
97886656,0.9168849,26.38,101313.99,1.2037778
97907932,1.1652629,26.38,101311.0,1.2037423
97919469,0.83233064,26.38,101315.0,1.2037898
97929483,1.083351,26.38,101312.0,1.2037542
97950963,1.2498171,26.38,101310.0,1.2037303
97962564,1.1652629,26.38,101311.0,1.2037423
97972929,1.331729,26.38,101309.0,1.2037185
97994896,0.6658645,26.38,101317.0,1.2038136
98006945,0.9168849,26.38,101313.99,1.2037778
98018360,0.99879676,26.38,101313.0,1.203766
98039925,1.083351,26.38,101312.0,1.2037542
98051504,1.4162832,26.38,101307.99,1.2037065
98062853,0.83233064,26.38,101315.0,1.2037898
98086863,0.7504187,26.38,101316.0,1.2038016
98098821,1.2498171,26.38,101310.0,1.2037303
98110648,0.83233064,26.38,101315.0,1.2037898
98134686,1.2498171,26.38,101310.0,1.2037303
98146875,1.4981952,26.38,101307.0,1.2036947
98158613,1.6646613,26.38,101305.0,1.203671
98181057,1.9975935,26.38,101300.99,1.2036234
98192635,1.8311274,26.38,101303.0,1.2036473
98202888,1.331729,26.38,101309.0,1.2037185
98224940,1.4981952,26.38,101307.0,1.2036947
98236563,2.0821478,26.38,101300.0,1.2036116
98246712,1.4162832,26.38,101307.99,1.2037065
98270973,1.1652629,26.38,101311.0,1.2037423
98282817,1.331729,26.38,101309.0,1.2037185
98294703,1.5827494,26.38,101306.0,1.2036829
98318836,1.5827494,26.38,101306.0,1.2036829
98330983,1.6646613,26.38,101305.0,1.203671
98341003,1.5827494,26.38,101306.0,1.2036829
98362882,1.5827494,26.38,101306.0,1.2036829
98375268,1.6646613,26.38,101305.0,1.203671
98386462,1.4981952,26.38,101307.0,1.2036947
98407915,1.5827494,26.38,101306.0,1.2036829
98419924,1.4981952,26.38,101307.0,1.2036947
98429942,2.0821478,26.38,101300.0,1.2036116
98451674,1.9156817,26.38,101301.99,1.2036352
98464427,2.0821478,26.38,101300.0,1.2036116
98475645,1.8311274,26.38,101303.0,1.2036473
98498029,2.1640596,26.38,101299.0,1.2035997
98508489,1.9156817,26.38,101301.99,1.2036352
98519855,2.3305259,26.38,101297.0,1.203576
98543854,2.1640596,26.38,101299.0,1.2035997
98555918,1.9156817,26.38,101301.99,1.2036352
98567929,2.2486138,26.38,101298.0,1.2035878
98590037,2.663458,26.369999,101293.0,1.2035284
98600629,2.2486138,26.369999,101298.0,1.2035878
98611470,2.663458,26.369999,101293.0,1.2035284
98634020,2.4969919,26.38,101294.99,1.2035521
98645517,2.41508,26.38,101296.0,1.203564
98655853,2.0821478,26.38,101300.0,1.2036116
98680068,2.5815463,26.38,101294.0,1.2035403
98691386,3.2474108,26.38,101286.0,1.2034452
98701070,2.663458,26.38,101293.0,1.2035284
98723642,2.663458,26.38,101293.0,1.2035284
98735542,2.829924,26.38,101291.0,1.2035047
98747073,2.9990327,26.38,101288.99,1.2034808
98768146,2.9990327,26.38,101288.99,1.2034808
98779256,2.41508,26.38,101296.0,1.203564
98790047,2.663458,26.38,101293.0,1.2035284
98812951,2.7480123,26.38,101292.0,1.2035165
98824458,2.2486138,26.38,101298.0,1.2035878
98834935,2.4969919,26.38,101294.99,1.2035521
98856940,2.663458,26.38,101293.0,1.2035284
98868926,2.41508,26.38,101296.0,1.203564
98880729,2.4969919,26.38,101294.99,1.2035521
98904742,2.5815463,26.38,101294.0,1.2035403
98916722,2.41508,26.38,101296.0,1.203564
98928720,2.4969919,26.38,101294.99,1.2035521
98952719,2.663458,26.38,101293.0,1.2035284
98964885,2.7480123,26.38,101292.0,1.2035165
98976549,2.41508,26.38,101296.0,1.203564
98998889,3.0809445,26.38,101288.0,1.203469
99009518,2.41508,26.38,101296.0,1.203564
99020269,2.4969919,26.38,101294.99,1.2035521
99040981,2.5815463,26.38,101294.0,1.2035403
99052100,2.5815463,26.38,101294.0,1.2035403
99062889,3.4138768,26.38,101284.0,1.2034215
99084929,3.1654987,26.38,101287.0,1.2034571
99097289,2.663458,26.38,101293.0,1.2035284
99108260,2.4969919,26.38,101294.99,1.2035521
99128944,2.9990327,26.38,101288.99,1.2034808
99139918,2.9990327,26.38,101288.99,1.2034808
99150962,2.9990327,26.38,101288.99,1.2034808
99172930,2.9144785,26.39,101290.0,1.2034928
99184231,2.9144785,26.39,101290.0,1.2034928
99194881,3.1654987,26.39,101287.0,1.2034571
99218054,3.0809445,26.38,101288.0,1.203469
99228704,3.0809445,26.38,101288.0,1.203469
99238945,2.9990327,26.38,101288.99,1.2034808
99260879,2.663458,26.38,101293.0,1.2035284
99271481,3.331965,26.38,101285.0,1.2034334
99281878,3.0809445,26.38,101288.0,1.203469
99303930,3.0809445,26.38,101288.0,1.203469
99315472,2.9990327,26.38,101288.99,1.2034808
99326342,2.829924,26.38,101291.0,1.2035047
99347923,2.9144785,26.39,101290.0,1.2034928
99359469,2.3305259,26.39,101297.0,1.203576
99370256,2.41508,26.39,101296.0,1.203564
99393242,2.3305259,26.39,101297.0,1.203576
99404736,2.663458,26.39,101293.0,1.2035284
99414895,2.9990327,26.39,101288.99,1.2034808
99437056,3.1654987,26.39,101287.0,1.2034571
99449038,2.829924,26.39,101291.0,1.2035047
99458885,3.1654987,26.39,101287.0,1.2034571
99481742,2.5815463,26.39,101294.0,1.2035403
99493670,2.7480123,26.39,101292.0,1.2035165
99505917,2.5815463,26.39,101294.0,1.2035403
99529219,2.5815463,26.39,101294.0,1.2035403
99540880,2.663458,26.39,101293.0,1.2035284
99551932,3.2474108,26.39,101286.0,1.2034452
99573034,2.829924,26.39,101291.0,1.2035047
99586643,2.41508,26.39,101296.0,1.203564
99598039,2.3305259,26.39,101297.0,1.203576
99621040,2.41508,26.39,101296.0,1.203564
99633942,2.829924,26.39,101291.0,1.2035047
99645038,2.5815463,26.39,101294.0,1.2035403
99666894,2.9990327,26.39,101288.99,1.2034808
99678518,2.7480123,26.39,101292.0,1.2035165
99687927,2.4969919,26.39,101294.99,1.2035521
99710957,2.7480123,26.39,101292.0,1.2035165
99723055,2.7480123,26.39,101292.0,1.2035165
99734075,2.663458,26.39,101293.0,1.2035284
99758043,2.2486138,26.39,101298.0,1.2035878
99768493,2.7480123,26.39,101292.0,1.2035165
99778897,2.663458,26.39,101293.0,1.2035284
99799940,2.3305259,26.39,101297.0,1.203576
99810817,2.1640596,26.39,101299.0,1.2035997
99822028,2.3305259,26.39,101297.0,1.203576
99845520,2.4969919,26.39,101294.99,1.2035521
99856494,2.3305259,26.39,101297.0,1.203576
99866881,2.3305259,26.39,101297.0,1.203576
99889870,2.0821478,26.39,101300.0,1.2036116
99901765,2.1640596,26.39,101299.0,1.2035997
99913881,2.0821478,26.39,101300.0,1.2036116
99935928,2.4969919,26.39,101294.99,1.2035521
99947469,2.7480123,26.39,101292.0,1.2035165
99958049,3.2474108,26.39,101286.0,1.2034452
99981539,2.3305259,26.39,101297.0,1.203576
99992481,2.5815463,26.39,101294.0,1.2035403
100003652,2.2486138,26.39,101298.0,1.2035878
100026527,2.663458,26.39,101293.0,1.2035284
100037690,2.663458,26.39,101293.0,1.2035284
100049936,2.7480123,26.39,101292.0,1.2035165
100072933,2.2486138,26.39,101298.0,1.2035878
100084640,2.4969919,26.39,101294.99,1.2035521
100094894,2.663458,26.39,101293.0,1.2035284
100118918,2.663458,26.39,101293.0,1.2035284
100132100,2.663458,26.39,101293.0,1.2035284
100142935,2.663458,26.39,101293.0,1.2035284
100166944,2.9144785,26.38,101290.0,1.2034928
100177517,3.0809445,26.38,101288.0,1.203469
100187929,3.331965,26.38,101285.0,1.2034334
100210720,3.8313634,26.38,101279.0,1.2033621
100222818,3.0809445,26.38,101288.0,1.203469
100234661,3.2474108,26.38,101286.0,1.2034452
100258651,3.746809,26.38,101280.0,1.2033739
100270826,3.580343,26.38,101282.0,1.2033978
100281005,3.2474108,26.38,101286.0,1.2034452
100302937,3.4138768,26.39,101284.0,1.2034215
100315970,3.580343,26.39,101282.0,1.2033978
100327039,3.498431,26.39,101282.99,1.2034096
100351065,3.9132752,26.39,101278.0,1.2033502
100361522,3.498431,26.39,101282.99,1.2034096
100372099,3.8313634,26.39,101279.0,1.2033621
100393056,3.9132752,26.39,101278.0,1.2033502
100404500,3.8313634,26.39,101279.0,1.2033621
100414534,3.4138768,26.39,101284.0,1.2034215
100435049,3.9978294,26.39,101276.99,1.2033381
100446846,3.8313634,26.39,101279.0,1.2033621
100458852,3.6648972,26.39,101281.0,1.2033858
100479953,3.1654987,26.39,101287.0,1.2034571
100491465,4.2462077,26.39,101274.0,1.2033026
100501056,2.9144785,26.39,101290.0,1.2034928
100524894,3.4138768,26.39,101284.0,1.2034215
100537006,3.6648972,26.39,101281.0,1.2033858
100548086,3.4138768,26.39,101284.0,1.2034215
100572646,3.498431,26.39,101282.99,1.2034096
100584893,3.0809445,26.39,101288.0,1.203469
100596085,2.41508,26.39,101296.0,1.203564
100620088,3.1654987,26.39,101287.0,1.2034571
100632936,3.1654987,26.39,101287.0,1.2034571
100644085,2.41508,26.39,101296.0,1.203564
100666885,3.2474108,26.39,101286.0,1.2034452
100679105,2.9990327,26.39,101288.99,1.2034808
100690037,2.829924,26.39,101291.0,1.2035047
100712931,3.1654987,26.39,101287.0,1.2034571
100724485,3.0809445,26.39,101288.0,1.203469
100735456,2.663458,26.39,101293.0,1.2035284
100759458,2.41508,26.39,101296.0,1.203564
100769515,2.9990327,26.39,101288.99,1.2034808
100780648,2.41508,26.39,101296.0,1.203564
100804762,2.9144785,26.39,101290.0,1.2034928
100816487,2.7480123,26.39,101292.0,1.2035165
100827941,3.0809445,26.39,101288.0,1.203469
100850042,2.9144785,26.39,101290.0,1.2034928
100861518,2.9144785,26.39,101290.0,1.2034928
100871939,3.2474108,26.39,101286.0,1.2034452
100894028,3.498431,26.39,101282.99,1.2034096
100905516,3.498431,26.39,101282.99,1.2034096
100916672,3.9132752,26.39,101278.0,1.2033502
100938906,3.6648972,26.39,101281.0,1.2033858
100949518,3.746809,26.39,101280.0,1.2033739
100960161,4.0823836,26.39,101275.99,1.2033263
100984271,4.2462077,26.39,101274.0,1.2033026
100996295,4.4972277,26.39,101271.0,1.203267
101006910,4.1642957,26.39,101275.0,1.2033145
101028654,4.1642957,26.39,101275.0,1.2033145
101039917,4.4126735,26.39,101272.0,1.2032789
101050970,4.330762,26.39,101273.0,1.2032908
101072961,4.4126735,26.39,101272.0,1.2032789
101085038,5.0811806,26.39,101263.99,1.2031838
101094942,4.4126735,26.39,101272.0,1.2032789
101116950,4.0823836,26.39,101275.99,1.2033263
101128933,3.9978294,26.39,101276.99,1.2033381
101140278,3.8313634,26.39,101279.0,1.2033621
101161287,3.6648972,26.39,101281.0,1.2033858
101174223,3.9978294,26.39,101276.99,1.2033381
101184481,4.1642957,26.39,101275.0,1.2033145
101207902,3.8313634,26.39,101279.0,1.2033621
101220197,4.2462077,26.39,101274.0,1.2033026
101230958,4.330762,26.39,101273.0,1.2032908
101252923,3.9978294,26.39,101276.99,1.2033381
101263926,4.663694,26.39,101269.0,1.2032433
101274882,4.4972277,26.39,101271.0,1.203267
101296240,4.4126735,26.39,101272.0,1.2032789
101308429,4.1642957,26.39,101275.0,1.2033145
101318899,4.4126735,26.39,101272.0,1.2032789
101342340,5.247647,26.39,101262.0,1.20316
101352882,5.3295584,26.39,101261.0,1.2031482
101365840,3.8313634,26.39,101279.0,1.2033621
101390151,4.1642957,26.39,101275.0,1.2033145
101400729,3.9978294,26.39,101276.99,1.2033381
101411934,3.746809,26.39,101280.0,1.2033739
101434042,3.6648972,26.39,101281.0,1.2033858
101445231,4.330762,26.39,101273.0,1.2032908
101455925,3.9978294,26.39,101276.99,1.2033381
101478881,4.581782,26.39,101269.99,1.203255
101490585,4.9966264,26.39,101265.0,1.2031957
101502023,5.4960246,26.39,101259.0,1.2031244
101525451,6.1645317,26.39,101250.99,1.2030293
101535489,5.4960246,26.39,101259.0,1.2031244
101545949,5.3295584,26.39,101261.0,1.2031482
101568735,5.662491,26.39,101257.0,1.2031007
101581948,5.247647,26.39,101262.0,1.20316
101593061,5.1630926,26.39,101263.0,1.203172
101613947,5.747045,26.39,101256.0,1.2030888
101624745,5.247647,26.39,101262.0,1.20316
101635937,5.0811806,26.39,101263.99,1.2031838
101658894,6.2464433,26.39,101250.0,1.2030175
101669894,5.580579,26.39,101257.99,1.2031125
101680984,5.247647,26.39,101262.0,1.20316
101705091,6.079977,26.39,101251.99,1.2030412
101715474,5.247647,26.39,101262.0,1.20316
101726021,5.747045,26.39,101256.0,1.2030888
101747937,5.747045,26.39,101256.0,1.2030888
101758731,6.079977,26.39,101251.99,1.2030412
101770038,5.662491,26.39,101257.0,1.2031007
101790973,6.4974637,26.39,101247.0,1.2029818
101801727,5.662491,26.39,101257.0,1.2031007
101814075,6.4129095,26.39,101248.0,1.2029938
101835938,5.995423,26.39,101253.0,1.2030531
101846901,6.4974637,26.39,101247.0,1.2029818
101858047,6.3283553,26.39,101249.0,1.2030056
101881736,5.9135113,26.39,101254.0,1.203065
101892484,5.580579,26.39,101257.99,1.2031125
101903069,6.745842,26.39,101244.0,1.2029462
101923928,6.079977,26.39,101251.99,1.2030412
101934673,5.828957,26.39,101255.0,1.203077
101945930,6.66393,26.39,101244.99,1.202958
101968150,6.3283553,26.39,101249.0,1.2030056
101979470,5.995423,26.39,101253.0,1.2030531
101990323,6.3283553,26.39,101249.0,1.2030056
102013928,6.1645317,26.39,101250.99,1.2030293
102024483,6.1645317,26.39,101250.99,1.2030293
102034886,5.828957,26.39,101255.0,1.203077
102058039,5.747045,26.39,101256.0,1.2030888
102069846,5.662491,26.39,101257.0,1.2031007
102081653,5.4141126,26.39,101260.0,1.2031363
102105526,5.4960246,26.39,101259.0,1.2031244
102116470,5.4960246,26.39,101259.0,1.2031244
102127345,5.747045,26.39,101256.0,1.2030888
102150650,5.1630926,26.38,101263.0,1.203172
102160633,5.4960246,26.38,101259.0,1.2031244
102171680,5.662491,26.38,101257.0,1.2031007
102193889,5.4141126,26.39,101260.0,1.2031363
102204623,5.662491,26.39,101257.0,1.2031007
102215635,5.3295584,26.39,101261.0,1.2031482
102236629,5.662491,26.39,101257.0,1.2031007
102247112,5.9135113,26.39,101254.0,1.203065
102258316,5.747045,26.39,101256.0,1.2030888
102278938,5.9135113,26.39,101254.0,1.203065
102290536,5.995423,26.39,101253.0,1.2030531
102300231,5.9135113,26.39,101254.0,1.203065
102323301,5.4960246,26.4,101259.0,1.2031244
102335764,5.580579,26.4,101257.99,1.2031125
102346680,5.828957,26.4,101255.0,1.203077
102370361,5.747045,26.39,101256.0,1.2030888
102381515,5.9135113,26.39,101254.0,1.203065
102391953,5.662491,26.39,101257.0,1.2031007
102415756,5.9135113,26.39,101254.0,1.203065
102427428,5.828957,26.39,101255.0,1.203077
102438692,5.9135113,26.39,101254.0,1.203065
102462863,6.4129095,26.38,101248.0,1.2029938
102474817,6.5793757,26.38,101246.0,1.2029699
102486681,6.5793757,26.38,101246.0,1.2029699
102510714,6.4974637,26.38,101247.0,1.2029818
102522890,6.5793757,26.38,101246.0,1.2029699
102534743,6.66393,26.38,101244.99,1.202958
102556937,6.66393,26.38,101244.99,1.202958
102568497,6.9123077,26.38,101242.0,1.2029225
102578894,6.830396,26.38,101243.0,1.2029343
102603355,6.996862,26.38,101241.0,1.2029105
102616209,7.078774,26.38,101240.0,1.2028986
102627729,6.9123077,26.38,101242.0,1.2029225
102651470,7.24524,26.369999,101238.0,1.2028749
102661518,7.163328,26.369999,101238.99,1.2028867
102671945,7.078774,26.369999,101240.0,1.2028986
102694037,6.830396,26.38,101243.0,1.2029343
102705495,7.4962606,26.38,101235.0,1.2028393
102715507,6.9123077,26.38,101242.0,1.2029225
102735928,6.996862,26.38,101241.0,1.2029105
102747427,7.24524,26.38,101238.0,1.2028749
102758027,7.24524,26.38,101238.0,1.2028749
102779905,7.7446384,26.38,101232.0,1.2028036
102792428,6.9123077,26.38,101242.0,1.2029225
102803463,6.996862,26.38,101241.0,1.2029105
102826024,7.7446384,26.38,101232.0,1.2028036
102837519,6.9123077,26.38,101242.0,1.2029225
102849341,7.163328,26.38,101238.99,1.2028867
102872064,6.996862,26.38,101241.0,1.2029105
102883157,7.24524,26.38,101238.0,1.2028749
102894022,7.3297944,26.38,101237.0,1.202863
102915449,7.4962606,26.369999,101235.0,1.2028393
102928176,7.4117064,26.369999,101236.0,1.2028512
102939546,6.9123077,26.369999,101242.0,1.2029225
102963365,7.3297944,26.369999,101237.0,1.202863
102975509,7.3297944,26.369999,101237.0,1.202863
102986023,6.9123077,26.369999,101242.0,1.2029225
103007482,6.9123077,26.369999,101242.0,1.2029225
103019392,7.163328,26.369999,101238.99,1.2028867
103029279,7.4117064,26.369999,101236.0,1.2028512
103052695,7.24524,26.369999,101238.0,1.2028749
103063467,7.4117064,26.369999,101236.0,1.2028512
103073759,7.578172,26.369999,101234.0,1.2028273
103097901,7.163328,26.369999,101238.99,1.2028867
103109735,7.8291926,26.369999,101231.0,1.2027917
103122267,7.7446384,26.369999,101232.0,1.2028036
103145842,7.662727,26.369999,101232.99,1.2028154
103157673,7.163328,26.369999,101238.99,1.2028867
103170659,7.078774,26.369999,101240.0,1.2028986
103193274,7.4117064,26.369999,101236.0,1.2028512
103203469,7.3297944,26.369999,101237.0,1.202863
103214024,7.7446384,26.369999,101232.0,1.2028036
103235924,7.078774,26.369999,101240.0,1.2028986
103247544,7.4117064,26.369999,101236.0,1.2028512
103258587,7.3297944,26.369999,101237.0,1.202863
103278894,7.163328,26.369999,101238.99,1.2028867
103290509,7.3297944,26.369999,101237.0,1.202863
103299927,7.3297944,26.369999,101237.0,1.202863
103323318,7.8291926,26.369999,101231.0,1.2027917
103334586,7.9111047,26.369999,101230.0,1.2027799
103346322,7.7446384,26.369999,101232.0,1.2028036
103366881,7.078774,26.369999,101240.0,1.2028986
103378670,7.7446384,26.369999,101232.0,1.2028036
103390024,7.4117064,26.369999,101236.0,1.2028512
103410971,7.578172,26.369999,101234.0,1.2028273
103421705,7.7446384,26.369999,101232.0,1.2028036
103433901,7.9111047,26.369999,101230.0,1.2027799
103455928,7.7446384,26.369999,101232.0,1.2028036
103466671,7.7446384,26.369999,101232.0,1.2028036
103478038,7.3297944,26.369999,101237.0,1.202863
103502049,7.578172,26.369999,101234.0,1.2028273
103512483,7.7446384,26.369999,101232.0,1.2028036
103523136,7.7446384,26.369999,101232.0,1.2028036
103546848,7.995659,26.359999,101229.0,1.202768
103558673,8.246679,26.359999,101225.99,1.2027322
103570274,7.7446384,26.359999,101232.0,1.2028036
103591928,8.413145,26.359999,101224.0,1.2027086
103603467,8.495057,26.359999,101223.0,1.2026967
103614025,8.328591,26.359999,101225.0,1.2027204
103638015,8.413145,26.359999,101224.0,1.2027086
103651164,8.246679,26.359999,101225.99,1.2027322
103662050,8.328591,26.359999,101225.0,1.2027204
103682938,8.579612,26.359999,101222.0,1.2026848
103694496,7.8291926,26.359999,101231.0,1.2027917
103704085,7.7446384,26.359999,101232.0,1.2028036
103726039,7.7446384,26.359999,101232.0,1.2028036
103737873,7.995659,26.359999,101229.0,1.202768
103748948,8.246679,26.359999,101225.99,1.2027322
103771160,7.24524,26.359999,101238.0,1.2028749
103782822,6.996862,26.359999,101241.0,1.2029105
103794722,7.24524,26.359999,101238.0,1.2028749
103815925,7.24524,26.359999,101238.0,1.2028749
103827754,7.578172,26.359999,101234.0,1.2028273
103838894,7.078774,26.359999,101240.0,1.2028986
103862361,7.3297944,26.359999,101237.0,1.202863
103873520,7.3297944,26.359999,101237.0,1.202863
103884338,8.080214,26.359999,101228.0,1.202756
103904931,7.3297944,26.359999,101237.0,1.202863
103916502,7.7446384,26.359999,101232.0,1.2028036
103926307,8.246679,26.359999,101225.99,1.2027322
103947863,7.7446384,26.359999,101232.0,1.2028036
103959682,7.995659,26.359999,101229.0,1.202768
103971657,7.995659,26.359999,101229.0,1.202768
103995848,8.328591,26.359999,101225.0,1.2027204
104007888,7.7446384,26.359999,101232.0,1.2028036
104019162,8.162125,26.359999,101226.99,1.2027441
104040254,8.080214,26.349998,101228.0,1.202756
104052431,8.746078,26.349998,101219.99,1.2026609
104062649,8.579612,26.349998,101222.0,1.2026848
104086463,8.328591,26.349998,101225.0,1.2027204
104097516,8.579612,26.349998,101222.0,1.2026848
104106939,8.579612,26.349998,101222.0,1.2026848
104130978,8.82799,26.359999,101219.0,1.2026491
104143681,8.579612,26.359999,101222.0,1.2026848
104154245,8.661524,26.359999,101221.0,1.202673
104177639,8.746078,26.349998,101219.99,1.2026609
104189220,8.746078,26.349998,101219.99,1.2026609
104199838,8.997098,26.349998,101217.0,1.2026254
104223471,8.912544,26.349998,101218.0,1.2026373
104235466,8.746078,26.349998,101219.99,1.2026609
104245938,9.496496,26.349998,101211.0,1.2025541
104269707,8.997098,26.349998,101217.0,1.2026254
104281454,8.997098,26.349998,101217.0,1.2026254
104292088,8.495057,26.349998,101223.0,1.2026967
104314030,8.82799,26.34,101219.0,1.2026491
104325151,9.4119425,26.34,101212.0,1.202566
104335662,8.997098,26.34,101217.0,1.2026254
104358321,9.245476,26.349998,101213.99,1.2025896
104370739,8.997098,26.349998,101217.0,1.2026254
104381256,9.4119425,26.349998,101212.0,1.202566
104404887,9.33003,26.34,101213.0,1.2025778
104416065,8.912544,26.34,101218.0,1.2026373
104426320,8.997098,26.34,101217.0,1.2026254
104452643,9.163564,26.349998,101215.0,1.2026017
104464565,8.661524,26.349998,101221.0,1.202673
104475856,8.080214,26.349998,101228.0,1.202756
104498041,8.162125,26.34,101226.99,1.2027441
104509694,7.3297944,26.34,101237.0,1.202863
104520996,7.995659,26.34,101229.0,1.202768
104543373,7.4117064,26.34,101236.0,1.2028512
104553518,7.662727,26.34,101232.99,1.2028154
104564651,7.9111047,26.34,101230.0,1.2027799
104588934,7.9111047,26.34,101230.0,1.2027799
104600893,8.080214,26.34,101228.0,1.202756
104612643,7.9111047,26.34,101230.0,1.2027799
104634934,7.662727,26.33,101232.99,1.2028154
104645744,7.9111047,26.33,101230.0,1.2027799
104656937,8.246679,26.33,101225.99,1.2027322
104680171,8.328591,26.33,101225.0,1.2027204
104690495,8.246679,26.33,101225.99,1.2027322
104700736,8.413145,26.33,101224.0,1.2027086
104722887,8.413145,26.33,101224.0,1.2027086
104733728,8.080214,26.33,101228.0,1.202756
104744938,8.912544,26.33,101218.0,1.2026373
104766880,8.413145,26.33,101224.0,1.2027086
104777874,8.661524,26.33,101221.0,1.202673
104790056,8.746078,26.33,101219.99,1.2026609
104813242,8.495057,26.34,101223.0,1.2026967
104825759,8.912544,26.34,101218.0,1.2026373
104837072,8.912544,26.34,101218.0,1.2026373
104860989,9.07901,26.33,101216.0,1.2026135
104872961,9.07901,26.33,101216.0,1.2026135
104884187,8.997098,26.33,101217.0,1.2026254
104905242,8.82799,26.33,101219.0,1.2026491
104919953,9.245476,26.33,101213.99,1.2025896
104930971,8.82799,26.33,101219.0,1.2026491
104952537,9.163564,26.33,101215.0,1.2026017
104965032,8.82799,26.33,101219.0,1.2026491
104975871,8.661524,26.33,101221.0,1.202673
104998024,8.579612,26.33,101222.0,1.2026848
105009778,8.661524,26.33,101221.0,1.202673
105022838,8.912544,26.33,101218.0,1.2026373
105045548,8.746078,26.32,101219.99,1.2026609
105056689,8.997098,26.32,101217.0,1.2026254
105067640,9.33003,26.32,101213.0,1.2025778
105089347,8.746078,26.32,101219.99,1.2026609
105099469,8.912544,26.32,101218.0,1.2026373
105111068,9.578408,26.32,101210.0,1.2025422
105134878,8.661524,26.32,101221.0,1.202673
105146520,8.82799,26.32,101219.0,1.2026491
105158482,8.82799,26.32,101219.0,1.2026491
105181265,9.07901,26.32,101216.0,1.2026135
105192704,8.579612,26.32,101222.0,1.2026848
105202895,9.245476,26.32,101213.99,1.2025896
105223924,9.07901,26.32,101216.0,1.2026135
105235483,9.245476,26.32,101213.99,1.2025896
105245942,9.33003,26.32,101213.0,1.2025778
105270089,9.07901,26.32,101216.0,1.2026135
105280888,9.163564,26.32,101215.0,1.2026017
105293224,9.245476,26.32,101213.99,1.2025896
105315941,9.163564,26.32,101215.0,1.2026017
105326671,9.578408,26.32,101210.0,1.2025422
105338090,9.163564,26.32,101215.0,1.2026017
105361067,9.07901,26.32,101216.0,1.2026135
105374150,9.4119425,26.32,101212.0,1.202566
105385034,9.33003,26.32,101213.0,1.2025778
105409482,9.245476,26.32,101213.99,1.2025896
105420565,9.4119425,26.32,101212.0,1.202566
105430700,9.829429,26.32,101207.0,1.2025065
105454635,9.4119425,26.32,101212.0,1.202566
105466819,9.662963,26.32,101209.0,1.2025304
105478742,9.911341,26.32,101206.0,1.2024947
105501005,9.995894,26.31,101205.0,1.2024828
105512503,9.496496,26.31,101211.0,1.2025541
105522888,9.07901,26.31,101216.0,1.2026135
105544930,10.077806,26.31,101204.0,1.2024709
105556470,9.662963,26.31,101209.0,1.2025304
105567052,9.4119425,26.31,101212.0,1.202566
105590839,9.829429,26.31,101207.0,1.2025065
105602823,9.662963,26.31,101209.0,1.2025304
105612938,9.911341,26.31,101206.0,1.2024947
105634945,9.496496,26.31,101211.0,1.2025541
105645522,10.246915,26.31,101201.99,1.202447
105656084,10.162361,26.31,101203.0,1.2024591
105678747,9.829429,26.31,101207.0,1.2025065
105689522,9.662963,26.31,101209.0,1.2025304
105700087,9.662963,26.31,101209.0,1.2025304
105721942,10.579847,26.31,101198.0,1.2023996
105732482,9.829429,26.31,101207.0,1.2025065
105743850,10.077806,26.31,101204.0,1.2024709
105768089,9.662963,26.31,101209.0,1.2025304
105779107,10.077806,26.31,101204.0,1.2024709
105789947,10.077806,26.31,101204.0,1.2024709
105811472,10.077806,26.31,101204.0,1.2024709
105821519,10.162361,26.31,101203.0,1.2024591
105833046,10.246915,26.31,101201.99,1.202447
105855931,10.410739,26.31,101200.0,1.2024235
105867918,10.328827,26.31,101200.99,1.2024353
105879839,10.495294,26.31,101199.0,1.2024115
105903852,10.077806,26.31,101204.0,1.2024709
105915153,10.661759,26.31,101197.0,1.2023878
105926028,10.495294,26.31,101199.0,1.2024115
105947356,10.661759,26.3,101197.0,1.2023878
105957694,10.661759,26.3,101197.0,1.2023878
105969260,10.410739,26.3,101200.0,1.2024235
105992654,10.246915,26.31,101201.99,1.202447
106004131,10.579847,26.31,101198.0,1.2023996
106016650,10.746313,26.31,101196.0,1.2023759
106038030,10.495294,26.3,101199.0,1.2024115
106048886,10.828225,26.3,101194.99,1.202364
106059367,10.746313,26.3,101196.0,1.2023759
106081003,10.495294,26.3,101199.0,1.2024115
106092479,10.828225,26.3,101194.99,1.202364
106103735,10.661759,26.3,101197.0,1.2023878
106127744,10.828225,26.3,101194.99,1.202364
106139923,10.661759,26.3,101197.0,1.2023878
106150031,10.328827,26.3,101200.99,1.2024353
106172442,11.1638,26.3,101191.0,1.2023165
106182509,10.246915,26.3,101201.99,1.202447
106193055,10.994692,26.3,101193.0,1.2023402
106214038,10.495294,26.3,101199.0,1.2024115
106225518,10.746313,26.3,101196.0,1.2023759
106234946,10.746313,26.3,101196.0,1.2023759
106257459,10.495294,26.3,101199.0,1.2024115
106268960,10.994692,26.3,101193.0,1.2023402
106280712,10.746313,26.3,101196.0,1.2023759
106302894,10.994692,26.3,101193.0,1.2023402
106314496,10.91278,26.3,101194.0,1.2023522
106324944,10.746313,26.3,101196.0,1.2023759
106346889,10.661759,26.3,101197.0,1.2023878
106358509,10.661759,26.3,101197.0,1.2023878
106369309,10.994692,26.3,101193.0,1.2023402
106390960,10.91278,26.3,101194.0,1.2023522
106402516,10.828225,26.3,101194.99,1.202364
106412938,10.746313,26.3,101196.0,1.2023759
106434882,10.746313,26.289999,101196.0,1.2023759
106445662,10.828225,26.289999,101194.99,1.202364
106456934,11.1638,26.289999,101191.0,1.2023165
106478881,11.1638,26.3,101191.0,1.2023165
106489521,10.91278,26.3,101194.0,1.2023522
106500264,10.746313,26.3,101196.0,1.2023759
106522883,10.828225,26.289999,101194.99,1.202364
106534508,11.496733,26.289999,101187.0,1.202269
106544933,11.245712,26.289999,101190.0,1.2023046
106566882,11.663198,26.289999,101185.0,1.2022452
106578582,10.994692,26.289999,101193.0,1.2023402
106590041,11.079246,26.289999,101192.0,1.2023283
106613064,11.496733,26.289999,101187.0,1.202269
106623472,11.1638,26.289999,101191.0,1.2023165
106634251,11.663198,26.289999,101185.0,1.2022452
106658146,11.412178,26.289999,101188.0,1.2022809
106669662,11.245712,26.289999,101190.0,1.2023046
106681454,11.829664,26.289999,101182.99,1.2022213
106702041,11.245712,26.289999,101190.0,1.2023046
106713214,11.330266,26.289999,101188.99,1.2022926
106722876,11.1638,26.289999,101191.0,1.2023165
106746580,11.1638,26.289999,101191.0,1.2023165
106758538,10.579847,26.289999,101198.0,1.2023996
106770044,11.245712,26.289999,101190.0,1.2023046
106793228,11.330266,26.279999,101188.99,1.2022926
106804742,11.578644,26.279999,101186.0,1.202257
106817067,11.245712,26.279999,101190.0,1.2023046
106836973,11.578644,26.279999,101186.0,1.202257
106849708,11.578644,26.279999,101186.0,1.202257
106861062,11.1638,26.279999,101191.0,1.2023165
106883931,11.578644,26.279999,101186.0,1.202257
106894515,11.330266,26.279999,101188.99,1.2022926
106906657,11.412178,26.279999,101188.0,1.2022809
106930187,11.663198,26.279999,101185.0,1.2022452
106941704,11.496733,26.279999,101187.0,1.202269
106954259,11.996131,26.279999,101181.0,1.2021977
106977103,11.330266,26.279999,101188.99,1.2022926
106987470,12.078043,26.279999,101180.0,1.2021858
106998031,12.162597,26.279999,101179.0,1.202174
107021544,11.829664,26.269999,101182.99,1.2022213
107032643,11.829664,26.269999,101182.99,1.2022213
107043137,11.578644,26.269999,101186.0,1.202257
107064060,10.91278,26.279999,101194.0,1.2023522
107075470,11.7451105,26.279999,101184.0,1.2022333
107085521,11.245712,26.279999,101190.0,1.2023046
107107060,11.578644,26.269999,101186.0,1.202257
107119391,11.578644,26.269999,101186.0,1.202257
107131849,11.7451105,26.269999,101184.0,1.2022333
107155641,11.330266,26.279999,101188.99,1.2022926
107167622,11.663198,26.279999,101185.0,1.2022452
107179743,10.91278,26.279999,101194.0,1.2023522
107203853,10.91278,26.269999,101194.0,1.2023522
107215475,11.079246,26.269999,101192.0,1.2023283
107226523,11.496733,26.269999,101187.0,1.202269
107248630,10.994692,26.269999,101193.0,1.2023402
107258676,10.746313,26.269999,101196.0,1.2023759
107270299,11.330266,26.269999,101188.99,1.2022926
107293492,11.079246,26.269999,101192.0,1.2023283
107304477,11.1638,26.269999,101191.0,1.2023165
107315641,11.7451105,26.269999,101184.0,1.2022333
107339464,11.412178,26.269999,101188.0,1.2022809
107351706,11.245712,26.269999,101190.0,1.2023046
107363940,10.495294,26.269999,101199.0,1.2024115
107387126,10.828225,26.26,101194.99,1.202364
107399697,11.330266,26.26,101188.99,1.2022926
107411142,11.496733,26.26,101187.0,1.202269
107435040,10.91278,26.26,101194.0,1.2023522
107446532,11.1638,26.26,101191.0,1.2023165
107456255,11.330266,26.26,101188.99,1.2022926
107478839,11.412178,26.26,101188.0,1.2022809
107489548,12.162597,26.26,101179.0,1.202174
107500276,11.911576,26.26,101182.0,1.2022096
107523867,11.829664,26.26,101182.99,1.2022213
107535754,11.7451105,26.26,101184.0,1.2022333
107547920,11.7451105,26.26,101184.0,1.2022333
107572724,11.578644,26.26,101186.0,1.202257
107584506,11.1638,26.26,101191.0,1.2023165
107595133,11.911576,26.26,101182.0,1.2022096
107615925,11.245712,26.25,101190.0,1.2023046
107627471,11.412178,26.25,101188.0,1.2022809
107638349,11.7451105,26.25,101184.0,1.2022333
107661059,11.996131,26.26,101181.0,1.2021977
107672485,11.245712,26.26,101190.0,1.2023046
107684071,11.245712,26.26,101190.0,1.2023046
107706929,11.496733,26.26,101187.0,1.202269
107718821,11.578644,26.26,101186.0,1.202257
107732239,11.578644,26.26,101186.0,1.202257
107754844,11.496733,26.26,101187.0,1.202269
107765914,11.330266,26.26,101188.99,1.2022926
107776929,11.496733,26.26,101187.0,1.202269
107798881,11.1638,26.25,101191.0,1.2023165
107810834,11.496733,26.25,101187.0,1.202269
107821013,10.828225,26.25,101194.99,1.202364
107841942,11.1638,26.26,101191.0,1.2023165
107853515,11.245712,26.26,101190.0,1.2023046
107863937,11.663198,26.26,101185.0,1.2022452
107887366,11.245712,26.25,101190.0,1.2023046
107897516,10.994692,26.25,101193.0,1.2023402
107907935,11.330266,26.25,101188.99,1.2022926
107931970,11.578644,26.25,101186.0,1.202257
107943917,11.330266,26.25,101188.99,1.2022926
107955744,11.330266,26.25,101188.99,1.2022926
107979737,11.578644,26.25,101186.0,1.202257
107992107,11.330266,26.25,101188.99,1.2022926
108003931,11.1638,26.25,101191.0,1.2023165
108024933,11.7451105,26.24,101184.0,1.2022333
108037071,11.7451105,26.24,101184.0,1.2022333
108047457,11.1638,26.24,101191.0,1.2023165
108071671,11.330266,26.25,101188.99,1.2022926
108085071,11.7451105,26.25,101184.0,1.2022333
108095940,11.412178,26.25,101188.0,1.2022809
108118038,11.996131,26.24,101181.0,1.2021977
108128479,11.7451105,26.24,101184.0,1.2022333
108139694,11.996131,26.24,101181.0,1.2021977
108163848,11.911576,26.24,101182.0,1.2022096
108175917,12.162597,26.24,101179.0,1.202174
108187666,11.911576,26.24,101182.0,1.2022096
108210120,11.330266,26.24,101188.99,1.2022926
108221084,11.496733,26.24,101187.0,1.202269
108231448,11.245712,26.24,101190.0,1.2023046
108252647,11.911576,26.24,101182.0,1.2022096
108264886,11.663198,26.24,101185.0,1.2022452
108274895,11.1638,26.24,101191.0,1.2023165
108296160,12.413617,26.24,101175.99,1.2021382
108309932,11.496733,26.24,101187.0,1.202269
108321009,11.7451105,26.24,101184.0,1.2022333
108345057,11.829664,26.24,101182.99,1.2022213
108357112,11.911576,26.24,101182.0,1.2022096
108368278,12.247151,26.24,101178.0,1.202162
108388953,11.7451105,26.23,101184.0,1.2022333
108400102,11.911576,26.23,101182.0,1.2022096
108410975,11.829664,26.23,101182.99,1.2022213
108432930,11.578644,26.24,101186.0,1.202257
108445289,11.496733,26.24,101187.0,1.202269
108456262,11.496733,26.24,101187.0,1.202269
108476922,11.829664,26.23,101182.99,1.2022213
108488937,11.911576,26.23,101182.0,1.2022096
108500508,12.162597,26.23,101179.0,1.202174
108522023,11.829664,26.23,101182.99,1.2022213
108533520,12.078043,26.23,101180.0,1.2021858
108544149,12.580083,26.23,101174.0,1.2021145
108568234,11.330266,26.23,101188.99,1.2022926
108578507,11.663198,26.23,101185.0,1.2022452
108588932,12.247151,26.23,101178.0,1.202162
108612649,12.247151,26.23,101178.0,1.202162
108624123,12.580083,26.23,101174.0,1.2021145
108635046,12.413617,26.23,101175.99,1.2021382
108658038,12.580083,26.23,101174.0,1.2021145
108671285,12.078043,26.23,101180.0,1.2021858
108682037,12.913015,26.23,101169.99,1.2020669
108705087,12.828462,26.22,101171.0,1.2020788
108717899,12.329063,26.22,101176.99,1.20215
108729066,12.162597,26.22,101179.0,1.202174
108753085,11.911576,26.22,101182.0,1.2022096
108765817,12.661995,26.22,101173.0,1.2021027
108777080,12.495529,26.22,101175.0,1.2021264
108802042,12.495529,26.22,101175.0,1.2021264
108814607,12.495529,26.22,101175.0,1.2021264
108826032,12.247151,26.22,101178.0,1.202162
108847935,11.911576,26.22,101182.0,1.2022096
108858510,12.329063,26.22,101176.99,1.20215
108869310,12.247151,26.22,101178.0,1.202162
108891932,12.162597,26.22,101179.0,1.202174
108902896,11.911576,26.22,101182.0,1.2022096
108913939,11.663198,26.22,101185.0,1.2022452
108937057,12.078043,26.22,101180.0,1.2021858
108950678,12.162597,26.22,101179.0,1.202174
108962042,11.829664,26.22,101182.99,1.2022213
108986042,11.7451105,26.21,101184.0,1.2022333
108997920,11.663198,26.21,101185.0,1.2022452
109009078,11.412178,26.21,101188.0,1.2022809
109030102,11.911576,26.21,101182.0,1.2022096
109040724,11.996131,26.21,101181.0,1.2021977
109051922,11.7451105,26.21,101184.0,1.2022333
109074024,11.996131,26.21,101181.0,1.2021977
109086722,11.496733,26.21,101187.0,1.202269
109098043,12.162597,26.21,101179.0,1.202174
109118248,11.496733,26.21,101187.0,1.202269
109129712,11.7451105,26.21,101184.0,1.2022333
109142015,11.412178,26.21,101188.0,1.2022809
109165878,11.829664,26.21,101182.99,1.2022213
109177721,11.663198,26.21,101185.0,1.2022452
109190271,11.330266,26.21,101188.99,1.2022926
109211926,11.663198,26.21,101185.0,1.2022452
109223628,12.247151,26.21,101178.0,1.202162
109234033,12.078043,26.21,101180.0,1.2021858
109258042,12.247151,26.21,101178.0,1.202162
109268480,11.829664,26.21,101182.99,1.2022213
109278882,11.7451105,26.21,101184.0,1.2022333
109302091,12.329063,26.199999,101176.99,1.20215
109312484,12.162597,26.199999,101179.0,1.202174
109322888,12.580083,26.199999,101174.0,1.2021145
109345512,12.247151,26.21,101178.0,1.202162
109356491,12.495529,26.21,101175.0,1.2021264
109366887,12.495529,26.21,101175.0,1.2021264
109390370,11.911576,26.199999,101182.0,1.2022096
109401708,12.078043,26.199999,101180.0,1.2021858
109413898,12.078043,26.199999,101180.0,1.2021858
109437889,12.580083,26.199999,101174.0,1.2021145
109449553,11.829664,26.199999,101182.99,1.2022213
109460630,12.580083,26.199999,101174.0,1.2021145
109482044,13.245948,26.199999,101166.0,1.2020195
109494605,12.994927,26.199999,101169.0,1.2020551
109506332,12.74655,26.199999,101172.0,1.2020907
109527062,12.994927,26.189999,101169.0,1.2020551
109537494,13.415056,26.189999,101163.99,1.2019956
109547944,12.913015,26.189999,101169.99,1.2020669
109568934,13.914454,26.199999,101157.99,1.2019243
109579703,13.745346,26.199999,101160.0,1.2019482
109591460,13.9963665,26.199999,101157.0,1.2019125
109612231,13.57888,26.189999,101162.0,1.2019719
109624622,14.244744,26.189999,101154.0,1.2018769
109635288,13.829901,26.189999,101159.0,1.2019362
109658658,13.914454,26.189999,101157.99,1.2019243
109671290,14.244744,26.189999,101154.0,1.2018769
109682371,13.745346,26.189999,101160.0,1.2019482
109703342,13.496968,26.189999,101163.0,1.2019838
109715685,13.079482,26.189999,101168.0,1.2020432
109727058,13.663434,26.189999,101161.0,1.20196
109751433,13.663434,26.189999,101161.0,1.20196
109762498,12.994927,26.189999,101169.0,1.2020551
109772255,13.161393,26.189999,101167.0,1.2020314
109795264,12.078043,26.189999,101180.0,1.2021858
109807757,12.247151,26.189999,101178.0,1.202162
109818633,12.329063,26.189999,101176.99,1.20215
109841003,13.079482,26.189999,101168.0,1.2020432
109852508,13.245948,26.189999,101166.0,1.2020195
109863812,12.828462,26.189999,101171.0,1.2020788
109886698,11.996131,26.18,101181.0,1.2021977
109897457,11.996131,26.18,101181.0,1.2021977
109907940,11.663198,26.18,101185.0,1.2022452
109931851,11.996131,26.18,101181.0,1.2021977
109943412,12.580083,26.18,101174.0,1.2021145
109953451,12.994927,26.18,101169.0,1.2020551
109976877,11.996131,26.18,101181.0,1.2021977
109987682,12.247151,26.18,101178.0,1.202162
109997646,11.245712,26.18,101190.0,1.2023046
110019625,11.412178,26.18,101188.0,1.2022809
110031735,11.578644,26.18,101186.0,1.202257
110043080,11.7451105,26.18,101184.0,1.2022333
110064631,12.078043,26.17,101180.0,1.2021858
110075136,12.74655,26.17,101172.0,1.2020907
110085668,12.828462,26.17,101171.0,1.2020788
110106327,12.580083,26.18,101174.0,1.2021145
110118705,12.413617,26.18,101175.99,1.2021382
110130023,11.911576,26.18,101182.0,1.2022096
110153245,12.74655,26.18,101172.0,1.2020907
110164917,12.413617,26.18,101175.99,1.2021382
110177363,13.161393,26.18,101167.0,1.2020314
110200886,12.580083,26.17,101174.0,1.2021145
110213290,12.413617,26.17,101175.99,1.2021382
110224244,12.828462,26.17,101171.0,1.2020788
110251853,12.74655,26.16,101172.0,1.2020907
110264195,12.661995,26.16,101173.0,1.2021027
110275367,12.580083,26.16,101174.0,1.2021145
110299353,13.496968,26.16,101163.0,1.2019838
110313237,13.415056,26.16,101163.99,1.2019956
110324086,13.415056,26.16,101163.99,1.2019956
110346939,14.162832,26.16,101155.0,1.2018887
110357684,13.914454,26.16,101157.99,1.2019243
110368891,14.498407,26.16,101150.99,1.2018411
110391084,14.329299,26.16,101153.0,1.201865
110402517,14.244744,26.16,101154.0,1.2018769
110412931,13.745346,26.16,101160.0,1.2019482
110436259,14.080921,26.16,101156.0,1.2019006
110446498,14.080921,26.16,101156.0,1.2019006
110456932,14.662231,26.16,101149.0,1.2018174
110478881,14.997806,26.15,101144.99,1.2017698
110489522,15.914691,26.15,101134.0,1.2016392
110500259,15.41265,26.15,101140.0,1.2017105
110524264,15.830136,26.16,101135.0,1.2016511
110534500,16.081156,26.16,101132.0,1.2016155
110544955,15.079718,26.16,101144.0,1.201758
110569309,15.246183,26.15,101142.0,1.2017343
110580125,15.330738,26.15,101141.0,1.2017224
110592338,15.579116,26.15,101138.0,1.2016867
110615048,15.330738,26.15,101141.0,1.2017224
110626523,15.579116,26.15,101138.0,1.2016867
110636443,15.330738,26.15,101141.0,1.2017224
110657063,15.497204,26.15,101138.99,1.2016985
110667966,15.579116,26.15,101138.0,1.2016867
110678038,15.663671,26.15,101137.0,1.2016748
110699051,15.663671,26.15,101137.0,1.2016748
110710516,15.663671,26.15,101137.0,1.2016748
110722041,15.246183,26.15,101142.0,1.2017343
110743046,15.748224,26.15,101136.0,1.201663
110754508,16.329535,26.15,101129.0,1.2015798
110764883,15.914691,26.15,101134.0,1.2016392
110786350,14.746785,26.15,101148.0,1.2018056
110796960,14.244744,26.15,101154.0,1.2018769
110806950,14.997806,26.15,101144.99,1.2017698
110828777,14.913252,26.15,101146.0,1.2017817
110839469,14.413853,26.15,101151.99,1.201853
110849564,13.914454,26.15,101157.99,1.2019243
110874019,14.080921,26.14,101156.0,1.2019006
110885711,13.3305025,26.14,101165.0,1.2020075
110898373,13.57888,26.14,101162.0,1.2019719
110919926,14.244744,26.14,101154.0,1.2018769
110931472,14.580319,26.14,101150.0,1.2018293
110942021,14.746785,26.14,101148.0,1.2018056
110965059,13.3305025,26.14,101165.0,1.2020075
110977215,13.9963665,26.14,101157.0,1.2019125
110987931,13.079482,26.14,101168.0,1.2020432
111010015,14.080921,26.14,101156.0,1.2019006
111020733,13.745346,26.14,101160.0,1.2019482
111031942,12.828462,26.14,101171.0,1.2020788
111054040,12.661995,26.14,101173.0,1.2021027
111065126,12.580083,26.14,101174.0,1.2021145
111074940,12.661995,26.14,101173.0,1.2021027
111098021,12.495529,26.13,101175.0,1.2021264
111108732,12.580083,26.13,101174.0,1.2021145
111118894,12.329063,26.13,101176.99,1.20215
111140693,12.162597,26.13,101179.0,1.202174
111153090,12.162597,26.13,101179.0,1.202174
111163045,11.996131,26.13,101181.0,1.2021977
111186936,12.913015,26.13,101169.99,1.2020669
111199474,12.413617,26.13,101175.99,1.2021382
111211846,13.161393,26.13,101167.0,1.2020314
111235464,12.994927,26.119999,101169.0,1.2020551
111246580,13.3305025,26.119999,101165.0,1.2020075
111258323,13.415056,26.119999,101163.99,1.2019956
111282131,13.415056,26.119999,101163.99,1.2019956
111293555,12.661995,26.119999,101173.0,1.2021027
111303922,13.663434,26.119999,101161.0,1.20196
111326032,13.245948,26.119999,101166.0,1.2020195
111336484,12.74655,26.119999,101172.0,1.2020907
111347047,13.245948,26.119999,101166.0,1.2020195
111367933,12.828462,26.109999,101171.0,1.2020788
111379470,13.663434,26.109999,101161.0,1.20196
111389698,12.828462,26.109999,101171.0,1.2020788
111413534,12.828462,26.109999,101171.0,1.2020788
111423480,13.079482,26.109999,101168.0,1.2020432
111435058,12.913015,26.109999,101169.99,1.2020669
111457892,12.994927,26.109999,101169.0,1.2020551
111469718,12.994927,26.109999,101169.0,1.2020551
111482138,12.828462,26.109999,101171.0,1.2020788
111505843,12.495529,26.109999,101175.0,1.2021264
111517657,12.495529,26.109999,101175.0,1.2021264
111527924,12.913015,26.109999,101169.99,1.2020669
111549511,12.162597,26.099998,101179.0,1.202174
111560480,12.247151,26.099998,101178.0,1.202162
111570490,12.413617,26.099998,101175.99,1.2021382
111594018,12.329063,26.109999,101176.99,1.20215
111605524,12.413617,26.109999,101175.99,1.2021382
111615939,12.413617,26.109999,101175.99,1.2021382
111638891,11.496733,26.099998,101187.0,1.202269
111649494,11.829664,26.099998,101182.99,1.2022213
111659925,11.7451105,26.099998,101184.0,1.2022333
111682633,12.413617,26.099998,101175.99,1.2021382
111693501,11.911576,26.099998,101182.0,1.2022096
111703940,11.996131,26.099998,101181.0,1.2021977
111726356,11.1638,26.099998,101191.0,1.2023165
111736622,11.663198,26.099998,101185.0,1.2022452
111748234,11.496733,26.099998,101187.0,1.202269
111772136,11.1638,26.099998,101191.0,1.2023165
111783486,11.412178,26.099998,101188.0,1.2022809
111792933,11.663198,26.099998,101185.0,1.2022452
111814314,12.162597,26.099998,101179.0,1.202174
111825544,11.911576,26.099998,101182.0,1.2022096
111835928,12.74655,26.099998,101172.0,1.2020907
111858725,14.162832,26.09,101155.0,1.2018887
111870819,12.580083,26.09,101174.0,1.2021145
111883629,12.994927,26.09,101169.0,1.2020551
111906873,13.496968,26.08,101163.0,1.2019838
111917517,14.162832,26.08,101155.0,1.2018887
111928084,13.9963665,26.08,101157.0,1.2019125
111950366,13.57888,26.08,101162.0,1.2019719
111961518,13.245948,26.08,101166.0,1.2020195
111972649,13.57888,26.08,101162.0,1.2019719
111996268,13.3305025,26.08,101165.0,1.2020075
112008420,13.3305025,26.08,101165.0,1.2020075
112019123,12.994927,26.08,101169.0,1.2020551
112041942,13.745346,26.08,101160.0,1.2019482
112053517,13.663434,26.08,101161.0,1.20196
112063936,13.829901,26.08,101159.0,1.2019362
112088088,13.3305025,26.08,101165.0,1.2020075
112100309,13.496968,26.08,101163.0,1.2019838
112111699,13.245948,26.08,101166.0,1.2020195
112134022,13.829901,26.07,101159.0,1.2019362
112145493,13.3305025,26.07,101165.0,1.2020075
112156643,13.079482,26.07,101168.0,1.2020432
112180655,12.994927,26.07,101169.0,1.2020551
112192087,12.828462,26.07,101171.0,1.2020788
112203857,12.580083,26.07,101174.0,1.2021145
112226033,12.913015,26.07,101169.99,1.2020669
112237520,11.996131,26.07,101181.0,1.2021977
112247457,12.495529,26.07,101175.0,1.2021264
112270021,11.496733,26.07,101187.0,1.202269
112281517,11.412178,26.07,101188.0,1.2022809
112292247,11.663198,26.07,101185.0,1.2022452
112315907,11.245712,26.07,101190.0,1.2023046
112328125,11.496733,26.07,101187.0,1.202269
112340664,10.495294,26.07,101199.0,1.2024115
112363941,10.828225,26.06,101194.99,1.202364
112375136,11.245712,26.06,101190.0,1.2023046
112386023,11.079246,26.06,101192.0,1.2023283
112407927,10.91278,26.06,101194.0,1.2023522
112420299,11.1638,26.06,101191.0,1.2023165
112431760,10.994692,26.06,101193.0,1.2023402
112454040,11.496733,26.05,101187.0,1.202269
112465521,11.412178,26.05,101188.0,1.2022809
112474896,11.7451105,26.05,101184.0,1.2022333
112497081,11.578644,26.06,101186.0,1.202257
112509111,10.828225,26.06,101194.99,1.202364
112520452,11.829664,26.06,101182.99,1.2022213
112541075,11.245712,26.05,101190.0,1.2023046
112553071,11.245712,26.05,101190.0,1.2023046
112564748,11.911576,26.05,101182.0,1.2022096
112586894,11.663198,26.05,101185.0,1.2022452
112598500,11.412178,26.05,101188.0,1.2022809
112609104,11.663198,26.05,101185.0,1.2022452
112632949,11.330266,26.05,101188.99,1.2022926
112645067,11.245712,26.05,101190.0,1.2023046
112656260,11.578644,26.05,101186.0,1.202257
112680267,11.7451105,26.039999,101184.0,1.2022333
112693362,11.412178,26.039999,101188.0,1.2022809
112704173,11.245712,26.039999,101190.0,1.2023046
112728271,10.746313,26.039999,101196.0,1.2023759
112738509,11.079246,26.039999,101192.0,1.2023283
112748652,11.1638,26.039999,101191.0,1.2023165
112770967,11.496733,26.039999,101187.0,1.202269
112782510,11.412178,26.039999,101188.0,1.2022809
112792931,11.578644,26.039999,101186.0,1.202257
112816239,10.994692,26.029999,101193.0,1.2023402
112829475,11.412178,26.029999,101188.0,1.2022809
112840233,10.828225,26.029999,101194.99,1.202364
112861447,10.661759,26.029999,101197.0,1.2023878
112871428,10.828225,26.029999,101194.99,1.202364
112882029,10.91278,26.029999,101194.0,1.2023522
112903934,10.328827,26.029999,101200.99,1.2024353
112915620,10.661759,26.029999,101197.0,1.2023878
112926881,10.994692,26.029999,101193.0,1.2023402
112949333,10.661759,26.029999,101197.0,1.2023878
112959467,10.495294,26.029999,101199.0,1.2024115
112970030,10.495294,26.029999,101199.0,1.2024115
112993057,9.995894,26.029999,101205.0,1.2024828
113005121,10.579847,26.029999,101198.0,1.2023996
113015933,10.077806,26.029999,101204.0,1.2024709
113038252,10.495294,26.019999,101199.0,1.2024115
113048753,10.246915,26.019999,101201.99,1.202447
113062076,10.746313,26.019999,101196.0,1.2023759
113085449,10.495294,26.019999,101199.0,1.2024115
113095467,10.246915,26.019999,101201.99,1.202447
113105938,10.994692,26.019999,101193.0,1.2023402
113127923,10.661759,26.019999,101197.0,1.2023878
113139468,10.91278,26.019999,101194.0,1.2023522
113150139,10.994692,26.019999,101193.0,1.2023402
113172620,11.1638,26.019999,101191.0,1.2023165
113183469,10.328827,26.019999,101200.99,1.2024353
113194021,11.1638,26.019999,101191.0,1.2023165
113217033,11.578644,26.019999,101186.0,1.202257
113229116,11.496733,26.019999,101187.0,1.202269
113239941,11.829664,26.019999,101182.99,1.2022213
113262265,12.247151,26.01,101178.0,1.202162
113273023,12.495529,26.01,101175.0,1.2021264
113283925,12.078043,26.01,101180.0,1.2021858
113306041,12.580083,26.01,101174.0,1.2021145
113316477,12.580083,26.01,101174.0,1.2021145
113326918,13.745346,26.01,101160.0,1.2019482
113351078,13.496968,26.01,101163.0,1.2019838
113362596,12.661995,26.01,101173.0,1.2021027
113375047,12.913015,26.01,101169.99,1.2020669
113399273,12.913015,26.01,101169.99,1.2020669
113410580,12.580083,26.01,101174.0,1.2021145
113422513,12.74655,26.01,101172.0,1.2020907
113446077,12.74655,26.0,101172.0,1.2020907
113457702,12.078043,26.0,101180.0,1.2021858
113468087,12.162597,26.0,101179.0,1.202174
113489558,12.329063,26.0,101176.99,1.20215
113500630,12.413617,26.0,101175.99,1.2021382
113512270,12.247151,26.0,101178.0,1.202162
113534321,11.996131,25.99,101181.0,1.2021977
113544480,12.247151,25.99,101178.0,1.202162
113554955,12.162597,25.99,101179.0,1.202174
113578062,11.7451105,25.99,101184.0,1.2022333
113589864,11.829664,25.99,101182.99,1.2022213
113601639,11.996131,25.99,101181.0,1.2021977
113626021,11.663198,25.99,101185.0,1.2022452
113636617,11.578644,25.99,101186.0,1.202257
113647923,12.078043,25.99,101180.0,1.2021858
113670258,11.245712,25.99,101190.0,1.2023046
113681732,11.663198,25.99,101185.0,1.2022452
113693926,11.330266,25.99,101188.99,1.2022926
113715926,11.7451105,25.98,101184.0,1.2022333
113727473,11.079246,25.98,101192.0,1.2023283
113736939,11.1638,25.98,101191.0,1.2023165
113759150,10.828225,25.98,101194.99,1.202364
113770848,11.330266,25.98,101188.99,1.2022926
113782893,10.994692,25.98,101193.0,1.2023402
113804929,10.746313,25.98,101196.0,1.2023759
113816482,10.410739,25.98,101200.0,1.2024235
113826937,10.994692,25.98,101193.0,1.2023402
113850346,10.91278,25.98,101194.0,1.2023522
113860528,11.245712,25.98,101190.0,1.2023046
113871084,10.746313,25.98,101196.0,1.2023759
113891944,10.828225,25.98,101194.99,1.202364
113903482,10.410739,25.98,101200.0,1.2024235
113914368,10.661759,25.98,101197.0,1.2023878
113936259,10.410739,25.97,101200.0,1.2024235
113947483,10.746313,25.97,101196.0,1.2023759
113959927,10.410739,25.97,101200.0,1.2024235
113982746,10.579847,25.97,101198.0,1.2023996
113994824,10.579847,25.97,101198.0,1.2023996
114004956,9.995894,25.97,101205.0,1.2024828
114026894,10.495294,25.97,101199.0,1.2024115
114039522,10.91278,25.97,101194.0,1.2023522
114050306,10.661759,25.97,101197.0,1.2023878
114071928,11.578644,25.96,101186.0,1.202257
114082819,11.496733,25.96,101187.0,1.202269
114095636,11.412178,25.96,101188.0,1.2022809
114118853,11.1638,25.96,101191.0,1.2023165
114131270,11.412178,25.96,101188.0,1.2022809
114141948,10.91278,25.96,101194.0,1.2023522
114163459,10.91278,25.96,101194.0,1.2023522
114173520,11.245712,25.96,101190.0,1.2023046
114183927,11.412178,25.96,101188.0,1.2022809
114207849,11.079246,25.96,101192.0,1.2023283
114219927,10.91278,25.96,101194.0,1.2023522
114232089,11.330266,25.96,101188.99,1.2022926
114254040,11.412178,25.949999,101188.0,1.2022809
114265081,10.994692,25.949999,101193.0,1.2023402
114275941,11.245712,25.949999,101190.0,1.2023046
114300094,11.496733,25.949999,101187.0,1.202269
114313356,11.245712,25.949999,101190.0,1.2023046
114324088,11.079246,25.949999,101192.0,1.2023283
114348063,11.1638,25.949999,101191.0,1.2023165
114360901,10.994692,25.949999,101193.0,1.2023402
114372064,11.330266,25.949999,101188.99,1.2022926
114396064,10.661759,25.949999,101197.0,1.2023878
114409690,10.828225,25.949999,101194.99,1.202364
114420064,10.495294,25.949999,101199.0,1.2024115
114444090,10.579847,25.939999,101198.0,1.2023996
114456275,10.328827,25.939999,101200.99,1.2024353
114467434,10.495294,25.939999,101199.0,1.2024115
114490038,10.246915,25.93,101201.99,1.202447
114500484,10.661759,25.93,101197.0,1.2023878
114512155,11.412178,25.93,101188.0,1.2022809
114535727,10.661759,25.93,101197.0,1.2023878
114547952,10.410739,25.93,101200.0,1.2024235
114558022,10.328827,25.93,101200.99,1.2024353
114581088,10.077806,25.93,101204.0,1.2024709
114593435,10.077806,25.93,101204.0,1.2024709
114604258,10.495294,25.93,101199.0,1.2024115
114628172,9.911341,25.93,101206.0,1.2024947
114641552,9.578408,25.93,101210.0,1.2025422
114652257,9.662963,25.93,101209.0,1.2025304
114674043,9.496496,25.93,101211.0,1.2025541
114684884,9.33003,25.93,101213.0,1.2025778
114694940,9.07901,25.93,101216.0,1.2026135
114716438,9.163564,25.93,101215.0,1.2026017
114729136,9.578408,25.93,101210.0,1.2025422
114740158,9.245476,25.93,101213.99,1.2025896
114760980,9.245476,25.92,101213.99,1.2025896
114772881,9.245476,25.92,101213.99,1.2025896
114784659,8.82799,25.92,101219.0,1.2026491
114806882,9.4119425,25.92,101212.0,1.202566
114818514,9.662963,25.92,101209.0,1.2025304
114828941,9.33003,25.92,101213.0,1.2025778
114852263,9.07901,25.92,101216.0,1.2026135
114865514,9.245476,25.92,101213.99,1.2025896
114876239,8.912544,25.92,101218.0,1.2026373
114900241,9.163564,25.92,101215.0,1.2026017
114913823,9.496496,25.92,101211.0,1.2025541
114924259,8.912544,25.92,101218.0,1.2026373
114944656,8.997098,25.91,101217.0,1.2026254
114955911,9.163564,25.91,101215.0,1.2026017
114966883,9.911341,25.91,101206.0,1.2024947
114990031,8.912544,25.91,101218.0,1.2026373
115002544,9.33003,25.91,101213.0,1.2025778
115013339,9.4119425,25.91,101212.0,1.202566
115034024,8.413145,25.91,101224.0,1.2027086
115045685,9.163564,25.91,101215.0,1.2026017
115057442,9.163564,25.91,101215.0,1.2026017
115078043,9.07901,25.9,101216.0,1.2026135
115090023,8.912544,25.9,101218.0,1.2026373
115101057,8.82799,25.9,101219.0,1.2026491
115126040,8.82799,25.9,101219.0,1.2026491
115138116,9.245476,25.9,101213.99,1.2025896
115149061,8.579612,25.9,101222.0,1.2026848
115173104,8.997098,25.9,101217.0,1.2026254
115183470,8.912544,25.9,101218.0,1.2026373
115193765,8.912544,25.9,101218.0,1.2026373
115217338,9.07901,25.9,101216.0,1.2026135
115227472,8.82799,25.9,101219.0,1.2026491
115237942,9.245476,25.9,101213.99,1.2025896
115260726,8.912544,25.9,101218.0,1.2026373
115273548,8.997098,25.9,101217.0,1.2026254
115284719,8.746078,25.9,101219.99,1.2026609
115309036,8.746078,25.89,101219.99,1.2026609
115321911,9.4119425,25.89,101212.0,1.202566
115333151,9.578408,25.89,101210.0,1.2025422
115357033,8.746078,25.89,101219.99,1.2026609
115370159,8.746078,25.89,101219.99,1.2026609
115381216,8.661524,25.89,101221.0,1.202673
115402246,8.997098,25.89,101217.0,1.2026254
115413943,8.997098,25.89,101217.0,1.2026254
115425782,8.997098,25.89,101217.0,1.2026254
115447937,8.746078,25.89,101219.99,1.2026609
115459470,8.661524,25.89,101221.0,1.202673
115469485,9.07901,25.89,101216.0,1.2026135
115490313,8.82799,25.88,101219.0,1.2026491
115501722,9.33003,25.88,101213.0,1.2025778
115514344,8.746078,25.88,101219.99,1.2026609
