timestamp,magnetometer_ga[0],magnetometer_ga[1],magnetometer_ga[2]
95799632,0.23678857,-0.097069874,0.39250958
95822642,0.24273331,-0.09412949,0.40194994
95843703,0.24867807,-0.10295062,0.3736288
95864666,0.23678857,-0.088248745,0.3830692
95888308,0.24570571,-0.100010246,0.3830692
95910589,0.24273331,-0.100010246,0.38621596
95931957,0.24570571,-0.091189116,0.38621596
95954582,0.23976095,-0.100010246,0.38621596
95975956,0.25165045,-0.09412949,0.39565635
95998600,0.24867807,-0.091189116,0.38936275
96020638,0.25462282,-0.09412949,0.40194994
96044678,0.25165045,-0.097069874,0.38621596
96068761,0.24570571,-0.091189116,0.3736288
96092635,0.2575952,-0.097069874,0.3830692
96116623,0.24570571,-0.09412949,0.3830692
96140631,0.24867807,-0.091189116,0.38936275
96163626,0.25165045,-0.100010246,0.38621596
96185951,0.25165045,-0.091189116,0.38621596
96208645,0.25462282,-0.091189116,0.39250958
96231642,0.25462282,-0.088248745,0.38936275
96253736,0.24867807,-0.097069874,0.38621596
96276637,0.2575952,-0.09412949,0.3830692
96297784,0.24273331,-0.09412949,0.3830692
96319637,0.25462282,-0.100010246,0.39250958
96339629,0.24570571,-0.09412949,0.3830692
96361947,0.25165045,-0.100010246,0.38936275
96386162,0.24570571,-0.09412949,0.37992236
96407957,0.26056758,-0.097069874,0.38621596
96431677,0.24867807,-0.09412949,0.38621596
96455490,0.25165045,-0.100010246,0.38621596
96479499,0.24570571,-0.100010246,0.3830692
96503141,0.24867807,-0.091189116,0.39250958
96524582,0.24867807,-0.100010246,0.3830692
96547501,0.25165045,-0.097069874,0.38621596
96569668,0.25462282,-0.100010246,0.39250958
96592635,0.25462282,-0.097069874,0.38936275
96613661,0.24273331,-0.097069874,0.38621596
96635629,0.24867807,-0.091189116,0.3830692
96657673,0.24570571,-0.09412949,0.38936275
96679625,0.2575952,-0.09412949,0.38621596
96699960,0.25462282,-0.097069874,0.39250958
96722058,0.2575952,-0.097069874,0.37992236
96744294,0.24867807,-0.09412949,0.38936275
96766972,0.24867807,-0.097069874,0.38621596
96789773,0.25462282,-0.091189116,0.3830692
96810738,0.24273331,-0.09412949,0.37992236
96832669,0.24867807,-0.091189116,0.39250958
96854614,0.24273331,-0.09412949,0.3736288
96876665,0.26056758,-0.097069874,0.3830692
96898621,0.25165045,-0.091189116,0.38621596
96920659,0.25165045,-0.100010246,0.38936275
96942628,0.2575952,-0.09412949,0.38936275
96964768,0.25165045,-0.09412949,0.37992236
96986627,0.25462282,-0.100010246,0.38936275
97009663,0.2575952,-0.09412949,0.39250958
97030597,0.24570571,-0.09412949,0.3830692
97052689,0.25462282,-0.097069874,0.39250958
97074928,0.25462282,-0.091189116,0.3830692
97097732,0.24867807,-0.09412949,0.37677556
97120631,0.25165045,-0.09412949,0.3830692
97141280,0.23976095,-0.09412949,0.37992236
97163963,0.25165045,-0.100010246,0.3830692
97186581,0.25165045,-0.100010246,0.38936275
97208297,0.24570571,-0.091189116,0.37677556
97230587,0.24867807,-0.097069874,0.3830692
97251974,0.24867807,-0.091189116,0.37992236
97275630,0.24570571,-0.091189116,0.3736288
97297663,0.25462282,-0.097069874,0.37992236
97318582,0.25165045,-0.088248745,0.38936275
97338914,0.2575952,-0.09412949,0.38936275
97361653,0.24273331,-0.091189116,0.38621596
97383637,0.24273331,-0.09412949,0.3830692
97405670,0.25165045,-0.100010246,0.38936275
97426927,0.23976095,-0.09412949,0.38621596
97448770,0.2575952,-0.097069874,0.3830692
97471973,0.25462282,-0.09412949,0.39565635
97494582,0.24570571,-0.09412949,0.37992236
97515970,0.2575952,-0.097069874,0.39250958
97538582,0.24867807,-0.09412949,0.38936275
97559959,0.24867807,-0.100010246,0.38621596
97581933,0.23976095,-0.09412949,0.3736288
97603956,0.24273331,-0.09412949,0.37992236
97625802,0.25165045,-0.100010246,0.40194994
97647959,0.25462282,-0.088248745,0.37992236
97669834,0.25462282,-0.091189116,0.37677556
97691955,0.2575952,-0.091189116,0.38621596
97714645,0.24273331,-0.088248745,0.37677556
97736690,0.25165045,-0.088248745,0.3830692
97758582,0.25165045,-0.091189116,0.3830692
97780641,0.24867807,-0.097069874,0.3830692
97801712,0.26056758,-0.097069874,0.37992236
97824632,0.25462282,-0.100010246,0.38621596
97846582,0.2575952,-0.09412949,0.3830692
97868635,0.2575952,-0.08530837,0.37992236
97891627,0.26353997,-0.07942762,0.37677556
97913649,0.26056758,-0.07942762,0.3736288
97936630,0.26651233,-0.07942762,0.3736288
97958585,0.2694847,-0.07648724,0.38936275
97980631,0.25462282,-0.0706065,0.370482
98002582,0.25462282,-0.07942762,0.37992236
98023624,0.25165045,-0.07354687,0.37677556
98045892,0.26056758,-0.0706065,0.3830692
98068634,0.2575952,-0.07354687,0.38936275
98088636,0.2575952,-0.07354687,0.37992236
98110682,0.2575952,-0.07648724,0.38621596
98134719,0.24867807,-0.07942762,0.37992236
98158646,0.26056758,-0.08530837,0.3830692
98181090,0.2575952,-0.09412949,0.37677556
98202920,0.2575952,-0.09412949,0.39250958
98224973,0.24867807,-0.10295062,0.36733517
98246749,0.2575952,-0.11471212,0.38936275
98271057,0.25165045,-0.11471212,0.38621596
98294737,0.2575952,-0.12941398,0.38621596
98318868,0.24273331,-0.1382351,0.370482
98341036,0.25165045,-0.15293698,0.37992236
98364635,0.24570571,-0.15293698,0.37992236
98386496,0.24570571,-0.16763885,0.3736288
98407947,0.24867807,-0.1646985,0.37677556
98430035,0.24273331,-0.15881772,0.370482
98451706,0.24273331,-0.1735196,0.37992236
98475677,0.25165045,-0.16175811,0.3830692
98498062,0.24570571,-0.16763885,0.38621596
98519888,0.24570571,-0.15881772,0.38621596
98543887,0.2575952,-0.15881772,0.354748
98567962,0.26353997,-0.16175811,0.3453076
98590070,0.2694847,-0.15881772,0.33272043
98615392,0.27840182,-0.15587737,0.32957363
98639445,0.2902913,-0.14999662,0.3264268
98663537,0.29920843,-0.14705624,0.32328004
98687540,0.30218083,-0.14411585,0.31069285
98708631,0.3081256,-0.14705624,0.31383964
98731140,0.3170427,-0.1411755,0.30125245
98752637,0.32298747,-0.1411755,0.29810566
98773669,0.32595983,-0.1382351,0.29181206
98796639,0.33487695,-0.13529475,0.28866526
98818582,0.34082168,-0.13529475,0.28237167
98841669,0.34082168,-0.13235436,0.27922487
98862582,0.34676644,-0.12941398,0.26978448
98883895,0.3527112,-0.12941398,0.2666377
98904774,0.3497388,-0.12647362,0.2603441
98928753,0.35568357,-0.123533234,0.2540505
98952756,0.35865596,-0.123533234,0.2540505
98976695,0.36460072,-0.123533234,0.2509037
98998925,0.36460072,-0.12059286,0.24775691
99021727,0.37351784,-0.12059286,0.23516974
99044691,0.3764902,-0.11765249,0.23202293
99067967,0.3764902,-0.11471212,0.23516974
99090582,0.3764902,-0.11177175,0.22887613
99112749,0.37946257,-0.10883136,0.22887613
99136419,0.38243496,-0.10589099,0.22258253
99157718,0.37946257,-0.10589099,0.21943575
99180080,0.38243496,-0.10295062,0.21943575
99201663,0.38540733,-0.100010246,0.21943575
99222588,0.38540733,-0.100010246,0.21628895
99244693,0.38540733,-0.09412949,0.21943575
99265824,0.3883797,-0.091189116,0.21628895
99287624,0.38540733,-0.091189116,0.21314214
99309670,0.3883797,-0.088248745,0.21943575
99331624,0.3883797,-0.088248745,0.21314214
99353662,0.3883797,-0.088248745,0.21943575
99375628,0.3883797,-0.088248745,0.20999536
99397662,0.39135206,-0.08530837,0.21314214
99419624,0.39135206,-0.082368,0.21314214
99441647,0.39432445,-0.082368,0.20684855
99463624,0.39432445,-0.07942762,0.20684855
99485865,0.39135206,-0.07942762,0.20370176
99507684,0.39729682,-0.07648724,0.20684855
99529251,0.39432445,-0.07942762,0.20684855
99551965,0.39432445,-0.082368,0.20684855
99574582,0.39135206,-0.08530837,0.21314214
99598072,0.3883797,-0.08530837,0.21628895
99621073,0.38540733,-0.088248745,0.21943575
99645071,0.38243496,-0.091189116,0.22572935
99669671,0.3764902,-0.09412949,0.23516974
99692710,0.3764902,-0.09412949,0.23831652
99713869,0.37351784,-0.097069874,0.24461012
99735631,0.37054545,-0.100010246,0.2509037
99758076,0.36757308,-0.097069874,0.2509037
99781747,0.36757308,-0.10295062,0.2509037
99805718,0.36162832,-0.10295062,0.2666377
99829670,0.36162832,-0.10295062,0.2603441
99852636,0.35568357,-0.100010246,0.26978448
99874582,0.35568357,-0.09412949,0.26978448
99895624,0.3527112,-0.097069874,0.27293128
99916630,0.3497388,-0.097069874,0.27293128
99938582,0.3527112,-0.09412949,0.2760781
99960634,0.35568357,-0.091189116,0.26978448
99981703,0.35865596,-0.088248745,0.26978448
100003684,0.36162832,-0.08530837,0.2603441
100026559,0.36757308,-0.07942762,0.25719732
100050034,0.36757308,-0.0706065,0.25719732
100072966,0.37054545,-0.06766613,0.2509037
100094927,0.37054545,-0.06178537,0.2509037
100118951,0.37351784,-0.058845,0.2509037
100142969,0.37054545,-0.05296425,0.2509037
100167018,0.36757308,-0.0470835,0.24461012
100189895,0.37054545,-0.03826238,0.2509037
100210823,0.36757308,-0.032381628,0.24775691
100234694,0.36460072,-0.02650088,0.2509037
100258684,0.35865596,-0.014739382,0.2540505
100281037,0.35865596,-0.002977884,0.26978448
100302970,0.3497388,0.00584324,0.2666377
100327071,0.3497388,0.017604737,0.26978448
100351098,0.34379408,0.026425863,0.2760781
100373911,0.34082168,0.03818736,0.27922487
100395625,0.33487695,0.047008485,0.2760781
100417876,0.3289322,0.05288923,0.2666377
100440623,0.33487695,0.05876998,0.27293128
100461885,0.33487695,0.06465073,0.2666377
100487127,0.33487695,0.07053148,0.2634909
100511307,0.33784932,0.07347185,0.2634909
100535089,0.34082168,0.07641222,0.2666377
100559065,0.34082168,0.0793526,0.2509037
100583064,0.34676644,0.0793526,0.2509037
100607298,0.3527112,0.0793526,0.24146332
100631146,0.35865596,0.0793526,0.23831652
100653671,0.36162832,0.07641222,0.23202293
100675637,0.36757308,0.07347185,0.22258253
100697665,0.37054545,0.06759111,0.22258253
100719627,0.37351784,0.06759111,0.21628895
100740630,0.37351784,0.06465073,0.21943575
100763445,0.37351784,0.061710354,0.21943575
100785666,0.37351784,0.061710354,0.21943575
100808582,0.37054545,0.061710354,0.21628895
100831247,0.37054545,0.061710354,0.22572935
100852623,0.36460072,0.05876998,0.22887613
100875422,0.36162832,0.061710354,0.23516974
100896635,0.35568357,0.061710354,0.24146332
100919976,0.3497388,0.06465073,0.24775691
100943936,0.34379408,0.06759111,0.25719732
100967932,0.33784932,0.07347185,0.2666377
100991975,0.3289322,0.07347185,0.2666377
101012680,0.32595983,0.07347185,0.2760781
101036225,0.32298747,0.07641222,0.28237167
101057644,0.32298747,0.08523335,0.27922487
101079917,0.32298747,0.0911141,0.26978448
101103863,0.32001507,0.096994855,0.2666377
101126661,0.32595983,0.10581597,0.25719732
101148700,0.3319046,0.11757747,0.2603441
101172256,0.33487695,0.12051784,0.24146332
101194582,0.34082168,0.12933896,0.23831652
101216631,0.34082168,0.13521972,0.23202293
101237661,0.34379408,0.14110047,0.22572935
101260320,0.34676644,0.1499216,0.22258253
101280694,0.3497388,0.1499216,0.20999536
101303890,0.3527112,0.15286197,0.20999536
101325668,0.3527112,0.15580234,0.20370176
101349037,0.3497388,0.15874271,0.19740815
101370582,0.3527112,0.15874271,0.19426137
101392689,0.3527112,0.16168308,0.19426137
101414582,0.3527112,0.16462347,0.20055497
101437006,0.34676644,0.17050421,0.19740815
101459685,0.34676644,0.17050421,0.19426137
101482591,0.34082168,0.16756384,0.20055497
101504775,0.3289322,0.17050421,0.20999536
101526729,0.32595983,0.17344458,0.21628895
101549112,0.32001507,0.17932534,0.23202293
101570582,0.31407034,0.17638496,0.22258253
101593102,0.3081256,0.17932534,0.24146332
101616730,0.30218083,0.17932534,0.24461012
101638595,0.29920843,0.18226571,0.2509037
101661270,0.2932637,0.18520609,0.2540505
101682601,0.2902913,0.18814646,0.24775691
101705148,0.28731894,0.19108683,0.2540505
101728697,0.28434658,0.19402722,0.2634909
101752636,0.27840182,0.19402722,0.2634909
101777670,0.27840182,0.19696759,0.2634909
101798582,0.27542946,0.19990796,0.25719732
101818582,0.27542946,0.19990796,0.2603441
101841817,0.27840182,0.20284833,0.25719732
101865678,0.27840182,0.2057887,0.24775691
101886882,0.27542946,0.20872909,0.2509037
101909931,0.27542946,0.20872909,0.23831652
101932631,0.27542946,0.20872909,0.24146332
101955624,0.2813742,0.2175502,0.24146332
101977718,0.27840182,0.2175502,0.23831652
101999625,0.2813742,0.22049057,0.24146332
102020643,0.2813742,0.22343096,0.23516974
102043626,0.2813742,0.22637132,0.23202293
102065641,0.28434658,0.23225208,0.21943575
102085827,0.2813742,0.23225208,0.21943575
102107624,0.28434658,0.23813283,0.21314214
102129698,0.2813742,0.23813283,0.20999536
102152638,0.28434658,0.24107319,0.20999536
102174731,0.28434658,0.23813283,0.21628895
102197878,0.28434658,0.23519245,0.21628895
102221888,0.28731894,0.22637132,0.22258253
102244630,0.2902913,0.2175502,0.23516974
102265890,0.2902913,0.2057887,0.23831652
102288638,0.2902913,0.19696759,0.24461012
102310817,0.2902913,0.18520609,0.2603441
102333880,0.2902913,0.17638496,0.2666377
102355625,0.28731894,0.16168308,0.27922487
102378639,0.28434658,0.15286197,0.28237167
102402582,0.27542946,0.14698121,0.28866526
102423735,0.2694847,0.14404084,0.30125245
102446680,0.2694847,0.14698121,0.30125245
102466581,0.26056758,0.1499216,0.30754605
102486715,0.2575952,0.15286197,0.31069285
102510748,0.24867807,0.15286197,0.30754605
102534839,0.24273331,0.15874271,0.3169864
102556970,0.23678857,0.16462347,0.31383964
102580630,0.23381619,0.17050421,0.30754605
102603388,0.22489908,0.17050421,0.3169864
102627762,0.2219267,0.18226571,0.3169864
102651501,0.21598195,0.18226571,0.31383964
102675083,0.2100372,0.18520609,0.32328004
102696640,0.20706482,0.18520609,0.3169864
102719672,0.1981477,0.17932534,0.32328004
102743505,0.1981477,0.17638496,0.32957363
102765688,0.19517533,0.16756384,0.34216082
102788631,0.19517533,0.15874271,0.3516012
102811143,0.20112008,0.14698121,0.3484544
102832645,0.20112008,0.13521972,0.3516012
102855448,0.20409246,0.12345822,0.35789478
102875689,0.2100372,0.1146371,0.3641884
102899679,0.2100372,0.096994855,0.3641884
102923627,0.21300957,0.088173725,0.3736288
102947384,0.2219267,0.07641222,0.3610416
102971627,0.21895431,0.061710354,0.36733517
102995082,0.22489908,0.05288923,0.36733517
103017680,0.22787145,0.047008485,0.3641884
103039639,0.22787145,0.035246987,0.36733517
103061748,0.22787145,0.026425863,0.3736288
103083637,0.23084383,0.023485487,0.36733517
103106591,0.23084383,0.014664364,0.370482
103127645,0.23381619,0.011723989,0.37677556
103149655,0.23381619,0.00584324,0.37677556
103170691,0.23084383,-3.7509286e-05,0.37677556
103193306,0.23381619,-0.0059182583,0.370482
103215640,0.23381619,-0.0059182583,0.3736288
103237676,0.23084383,-0.008858632,0.3736288
103258620,0.22787145,-0.014739382,0.38621596
103278927,0.23084383,-0.011799008,0.37677556
103301673,0.2219267,-0.017679755,0.3830692
103324623,0.21895431,-0.02062013,0.39250958
103349732,0.21598195,-0.02062013,0.38936275
103373673,0.21300957,-0.023560505,0.39880314
103394696,0.20706482,-0.02062013,0.39250958
103417969,0.20409246,-0.023560505,0.39880314
103438582,0.20409246,-0.02062013,0.39565635
103460630,0.19517533,-0.02062013,0.39565635
103482585,0.18923058,-0.023560505,0.40194994
103504644,0.1862582,-0.023560505,0.40194994
103527656,0.18328582,-0.02650088,0.40824354
103548658,0.17734107,-0.02650088,0.41139033
103570307,0.17139633,-0.023560505,0.41453713
103591961,0.17139633,-0.023560505,0.40824354
103615630,0.16842394,-0.02062013,0.41139033
103638047,0.16842394,-0.023560505,0.41453713
103662083,0.18031345,-0.02062013,0.41139033
103685706,0.19517533,-0.011799008,0.39880314
103709698,0.21895431,0.0029028652,0.37992236
103732637,0.23976095,0.026425863,0.3610416
103753878,0.25462282,0.049948856,0.34216082
103775626,0.26651233,0.07347185,0.32957363
103797887,0.2694847,0.088173725,0.32013324
103822637,0.2694847,0.099935226,0.31383964
103843624,0.26651233,0.10875634,0.3264268
103864635,0.26056758,0.10581597,0.32328004
103886589,0.25462282,0.099935226,0.3264268
103910638,0.24273331,0.0911141,0.3453076
103933884,0.22489908,0.07641222,0.35789478
103957897,0.21300957,0.06759111,0.370482
103981883,0.19517533,0.055829607,0.37677556
104005877,0.17734107,0.04406811,0.38936275
104028638,0.17139633,0.041127734,0.39565635
104050627,0.16247919,0.035246987,0.39880314
104071627,0.15653445,0.03230661,0.40194994
104094640,0.15356207,0.03230661,0.40194994
104117901,0.14464495,0.029366236,0.40824354
104141884,0.14167257,0.03230661,0.40509674
104164631,0.13572782,0.03230661,0.40824354
104187427,0.13275544,0.03230661,0.41453713
104208623,0.13275544,0.035246987,0.41139033
104231633,0.12383832,0.035246987,0.40509674
104255046,0.12383832,0.03818736,0.41453713
104279696,0.12383832,0.041127734,0.41139033
104300630,0.12086595,0.041127734,0.40824354
104323382,0.12086595,0.04406811,0.40824354
104345669,0.11789358,0.04406811,0.40824354
104368623,0.1268107,0.04406811,0.41453713
104391309,0.14464495,0.03818736,0.40824354
104413662,0.17139633,0.04406811,0.38936275
104436636,0.20112008,0.055829607,0.37992236
104460630,0.22489908,0.061710354,0.3610416
104480631,0.24570571,0.07053148,0.33901402
104503626,0.26056758,0.0793526,0.33272043
104524622,0.2694847,0.08229298,0.3264268
104547446,0.2694847,0.0793526,0.3264268
104570589,0.26651233,0.07641222,0.32957363
104592637,0.2575952,0.06759111,0.33272043
104612675,0.25165045,0.05876998,0.3484544
104634967,0.24273331,0.04406811,0.354748
104656969,0.22787145,0.035246987,0.36733517
104680203,0.21598195,0.023485487,0.3736288
104704064,0.20112008,0.011723989,0.37992236
104728270,0.18923058,0.00584324,0.39880314
104751880,0.1862582,0.0029028652,0.39880314
104776124,0.18031345,0.0029028652,0.40194994
104800700,0.18031345,0.0029028652,0.40509674
104823893,0.18328582,0.00584324,0.40194994
104848291,0.18328582,0.008783614,0.40194994
104870582,0.1862582,0.014664364,0.39250958
104892692,0.19220294,0.017604737,0.38621596
104917521,0.19517533,0.020545112,0.39250958
104940236,0.20409246,0.026425863,0.38621596
104962638,0.20409246,0.029366236,0.38621596
104985662,0.2100372,0.03230661,0.37992236
105006582,0.2100372,0.035246987,0.370482
105027633,0.21598195,0.03818736,0.37677556
105048961,0.21895431,0.04406811,0.3641884
105070595,0.21895431,0.047008485,0.370482
105091629,0.2219267,0.047008485,0.3610416
105115630,0.22489908,0.05288923,0.3610416
105137683,0.2219267,0.05288923,0.3610416
105159635,0.22489908,0.05288923,0.3610416
105181298,0.22787145,0.055829607,0.35789478
105202928,0.22489908,0.055829607,0.35789478
105225640,0.23084383,0.055829607,0.354748
105249046,0.23381619,0.055829607,0.35789478
105270133,0.23678857,0.055829607,0.354748
105293257,0.23678857,0.05876998,0.35789478
105315974,0.23678857,0.05876998,0.3484544
105338131,0.23678857,0.05876998,0.354748
105361108,0.23976095,0.055829607,0.354748
105385067,0.24273331,0.055829607,0.3484544
105409514,0.23976095,0.05876998,0.3516012
105430733,0.24273331,0.055829607,0.354748
105454669,0.24273331,0.05876998,0.3516012
105478843,0.24570571,0.061710354,0.3516012
105501038,0.24867807,0.05876998,0.34216082
105524644,0.24867807,0.05876998,0.3484544
105546600,0.24867807,0.05876998,0.3484544
105569903,0.24867807,0.055829607,0.34216082
105590872,0.25165045,0.055829607,0.3453076
105612971,0.2575952,0.055829607,0.3453076
105636691,0.26056758,0.055829607,0.3358672
105659677,0.26651233,0.05876998,0.33901402
105681887,0.2724571,0.061710354,0.33272043
105705892,0.27840182,0.061710354,0.32328004
105727632,0.28434658,0.05876998,0.32328004
105749640,0.29623607,0.061710354,0.30754605
105773639,0.30218083,0.06465073,0.30125245
105795632,0.31407034,0.061710354,0.29810566
105819717,0.32001507,0.061710354,0.28866526
105843634,0.3289322,0.06465073,0.2760781
105863635,0.33487695,0.061710354,0.2666377
105884626,0.34082168,0.06465073,0.2634909
105905662,0.3497388,0.061710354,0.2540505
105927632,0.3497388,0.06465073,0.24461012
105951512,0.35568357,0.05876998,0.24146332
105972622,0.36162832,0.061710354,0.23516974
105995088,0.37351784,0.061710354,0.22258253
106016687,0.3764902,0.061710354,0.20999536
106038067,0.38540733,0.06465073,0.20370176
106063662,0.3883797,0.061710354,0.17852738
106084630,0.39729682,0.06465073,0.17852738
106105662,0.40026918,0.06465073,0.1596466
106127827,0.40918633,0.061710354,0.153353
106150064,0.41215873,0.06759111,0.13761903
106172479,0.41810346,0.06759111,0.12503184
106195890,0.41810346,0.06465073,0.11559146
106217663,0.4151311,0.06465073,0.11244466
106240325,0.41810346,0.06759111,0.12188505
106262582,0.4151311,0.07053148,0.12503184
106283967,0.4151311,0.07053148,0.13132544
106305639,0.40621397,0.07347185,0.14076583
106328456,0.40621397,0.07053148,0.153353
106349640,0.40324157,0.07641222,0.15649982
106371876,0.39432445,0.07641222,0.1659402
106393662,0.39432445,0.07641222,0.1722338
106414582,0.39135206,0.0793526,0.1722338
106436638,0.3883797,0.0793526,0.1722338
106460685,0.38540733,0.08229298,0.18167418
106484700,0.38243496,0.08229298,0.19111457
106507945,0.37946257,0.08229298,0.19111457
106529663,0.3764902,0.08229298,0.19426137
106552206,0.3764902,0.08523335,0.19426137
106573662,0.37351784,0.08523335,0.20370176
106594582,0.3764902,0.088173725,0.20370176
106615681,0.3764902,0.088173725,0.20370176
106638582,0.3764902,0.088173725,0.20370176
106660675,0.37351784,0.0911141,0.20055497
106684894,0.37351784,0.094054475,0.19426137
106708751,0.3764902,0.094054475,0.19740815
106732882,0.37054545,0.094054475,0.20370176
106756682,0.36757308,0.094054475,0.20055497
106780679,0.36460072,0.1028756,0.20999536
106802588,0.36162832,0.10581597,0.21314214
106823631,0.35865596,0.10581597,0.22258253
106846588,0.3527112,0.10875634,0.22887613
106868710,0.34676644,0.10875634,0.23516974
106892692,0.33784932,0.10581597,0.24775691
106915630,0.3289322,0.10875634,0.2540505
106938639,0.3289322,0.11169673,0.2603441
106959689,0.32298747,0.11169673,0.2666377
106981753,0.3170427,0.11757747,0.2666377
107005697,0.31109795,0.11757747,0.2760781
107025902,0.3081256,0.12345822,0.2760781
107048631,0.3051532,0.12933896,0.27922487
107070590,0.3051532,0.13227934,0.27922487
107093675,0.3051532,0.1381601,0.27293128
107117672,0.3051532,0.14404084,0.26978448
107141716,0.3051532,0.1499216,0.26978448
107165773,0.30218083,0.15286197,0.2634909
107189921,0.29920843,0.15580234,0.2603441
107213717,0.29623607,0.16462347,0.2634909
107234582,0.29623607,0.16462347,0.25719732
107255638,0.2902913,0.17050421,0.25719732
107277698,0.2932637,0.17344458,0.2540505
107301696,0.2932637,0.17344458,0.2603441
107325700,0.29623607,0.17638496,0.2603441
107349909,0.2932637,0.17638496,0.25719732
107374588,0.28731894,0.17638496,0.2666377
107397923,0.2902913,0.17638496,0.2666377
107421891,0.28731894,0.17638496,0.2666377
107444630,0.28434658,0.17344458,0.27293128
107466645,0.2813742,0.17050421,0.27293128
107487677,0.2813742,0.17050421,0.27293128
107510591,0.2813742,0.16756384,0.28237167
107533892,0.27840182,0.16462347,0.28237167
107558595,0.27840182,0.16168308,0.28237167
107579625,0.27840182,0.15874271,0.28551847
107601880,0.27840182,0.15580234,0.28237167
107624623,0.2813742,0.15286197,0.29181206
107646589,0.27542946,0.15286197,0.28866526
107667625,0.2813742,0.1499216,0.28866526
107689910,0.27840182,0.14698121,0.28551847
107710588,0.2813742,0.1499216,0.28866526
107732272,0.28434658,0.14698121,0.28866526
107754877,0.28434658,0.14698121,0.29810566
107776969,0.28434658,0.14404084,0.28866526
107800633,0.2813742,0.14404084,0.29810566
107821046,0.2813742,0.14404084,0.29495886
107843632,0.27542946,0.14698121,0.28866526
107865640,0.27840182,0.1499216,0.28866526
107888696,0.27840182,0.15286197,0.29495886
107911642,0.2724571,0.15286197,0.29810566
107932086,0.2724571,0.15286197,0.28866526
107955828,0.2694847,0.15874271,0.29181206
107979770,0.2694847,0.16462347,0.29181206
108003964,0.2724571,0.16756384,0.28551847
108024966,0.26651233,0.16756384,0.28237167
108047489,0.26651233,0.17050421,0.28237167
108071705,0.26651233,0.17050421,0.28237167
108095973,0.26651233,0.17344458,0.29810566
108118070,0.26353997,0.17638496,0.28866526
108139727,0.26056758,0.17638496,0.28866526
108163881,0.26056758,0.17932534,0.28866526
108187698,0.26056758,0.18226571,0.28551847
108210153,0.26056758,0.18520609,0.28551847
108231482,0.26056758,0.18814646,0.28551847
108252679,0.26056758,0.18814646,0.27293128
108274927,0.26056758,0.18520609,0.27922487
108297669,0.26353997,0.18814646,0.28237167
108321042,0.26353997,0.19108683,0.27922487
108345091,0.26056758,0.19108683,0.2760781
108368319,0.25462282,0.19108683,0.28237167
108391866,0.2575952,0.19402722,0.28237167
108413651,0.2575952,0.19402722,0.28237167
108436188,0.2575952,0.19402722,0.27922487
108458589,0.2575952,0.19696759,0.27922487
108481662,0.25462282,0.19696759,0.2760781
108503897,0.24867807,0.19402722,0.27922487
108527915,0.24867807,0.19696759,0.28237167
108551951,0.24867807,0.19990796,0.28866526
108574584,0.24570571,0.19696759,0.28866526
108597663,0.24273331,0.19696759,0.28866526
108618582,0.24273331,0.19990796,0.29495886
108640625,0.23976095,0.20284833,0.28866526
108661663,0.23084383,0.19990796,0.29495886
108683630,0.23381619,0.19990796,0.29495886
108706582,0.23084383,0.19990796,0.29181206
108729110,0.23381619,0.19990796,0.28551847
108753126,0.23084383,0.19990796,0.29810566
108777122,0.23084383,0.19990796,0.30125245
108802074,0.23084383,0.19696759,0.29810566
108826069,0.23381619,0.19990796,0.29810566
108847972,0.23381619,0.19696759,0.28866526
108870600,0.23381619,0.19696759,0.29181206
108891964,0.23678857,0.19990796,0.28866526
108914033,0.23976095,0.19990796,0.28866526
108937090,0.24273331,0.19990796,0.28866526
108962075,0.24570571,0.19990796,0.28551847
108986074,0.24867807,0.20284833,0.28551847
109009119,0.24867807,0.19990796,0.27922487
109031680,0.25462282,0.19990796,0.2760781
109053662,0.2575952,0.20284833,0.2760781
109075624,0.25462282,0.19990796,0.2760781
109098076,0.2575952,0.20284833,0.27293128
109122597,0.25462282,0.19990796,0.27293128
109144630,0.2575952,0.19990796,0.26978448
109165912,0.2575952,0.19990796,0.2760781
109190303,0.25462282,0.20284833,0.27293128
109211959,0.25462282,0.19990796,0.2760781
109234066,0.25165045,0.20284833,0.27293128
109258075,0.25462282,0.20284833,0.2760781
109281694,0.24867807,0.20284833,0.28866526
109304638,0.24867807,0.19990796,0.28237167
109328635,0.24570571,0.19696759,0.28551847
109352630,0.24570571,0.19402722,0.28551847
109374582,0.24570571,0.19402722,0.29181206
109395624,0.24570571,0.19402722,0.28551847
109416623,0.24570571,0.19402722,0.28551847
109437922,0.24570571,0.20284833,0.2760781
109460664,0.24867807,0.2057887,0.27922487
109482076,0.24570571,0.21166945,0.2760781
109506516,0.24867807,0.2175502,0.2666377
109529897,0.24570571,0.22049057,0.2634909
109553891,0.24867807,0.22637132,0.2634909
109577898,0.25165045,0.2293117,0.25719732
109600630,0.25165045,0.23225208,0.24775691
109622679,0.2575952,0.23519245,0.24146332
109644702,0.26056758,0.23519245,0.23516974
109668640,0.2694847,0.23225208,0.23831652
109690658,0.27840182,0.2293117,0.23516974
109713911,0.27840182,0.22637132,0.22887613
109737889,0.28731894,0.22049057,0.22572935
109760631,0.29623607,0.21460983,0.21943575
109782732,0.3051532,0.21166945,0.20684855
109805884,0.31407034,0.2057887,0.20684855
109827683,0.32001507,0.20284833,0.20684855
109848687,0.3289322,0.19402722,0.20055497
109871629,0.33487695,0.18814646,0.20055497
109893893,0.34676644,0.17932534,0.19740815
109916638,0.3497388,0.16462347,0.19426137
109937647,0.35865596,0.16168308,0.19111457
109959629,0.36162832,0.15286197,0.18482098
109980642,0.36757308,0.14698121,0.18167418
110003269,0.37351784,0.13521972,0.17538059
110027639,0.37946257,0.12345822,0.17538059
110048623,0.38540733,0.1146371,0.1659402
110071706,0.3883797,0.1028756,0.1596466
110093719,0.39135206,0.0911141,0.16279341
110116626,0.39432445,0.0793526,0.1659402
110139119,0.39729682,0.06759111,0.1722338
110163133,0.39729682,0.05876998,0.1722338
110187631,0.40026918,0.047008485,0.18167418
110211525,0.40324157,0.035246987,0.17852738
110235088,0.39729682,0.023485487,0.18167418
110257668,0.39729682,0.011723989,0.19111457
110280636,0.40026918,-0.002977884,0.19740815
110303371,0.39432445,-0.011799008,0.20055497
110325735,0.39432445,-0.023560505,0.20684855
110346972,0.39135206,-0.03826238,0.20370176
110368924,0.3883797,-0.050023876,0.21314214
110391124,0.38243496,-0.06178537,0.22258253
110412964,0.38243496,-0.07354687,0.23831652
110436293,0.37946257,-0.08530837,0.23516974
110459876,0.3764902,-0.097069874,0.22572935
110483964,0.37351784,-0.10589099,0.22887613
110507889,0.37054545,-0.11471212,0.22887613
110530974,0.36460072,-0.12647362,0.24146332
110553663,0.35865596,-0.13529475,0.2540505
110574589,0.3527112,-0.14411585,0.2540505
110596622,0.3497388,-0.15293698,0.2603441
110617666,0.34082168,-0.16175811,0.27293128
110640232,0.33487695,-0.1646985,0.2666377
110662582,0.3289322,-0.1735196,0.26978448
110684638,0.32298747,-0.18528111,0.2760781
110705677,0.3170427,-0.19410223,0.28237167
110728226,0.31109795,-0.20586373,0.26978448
110749662,0.30218083,-0.21762522,0.2760781
110770956,0.29623607,-0.22644635,0.27922487
110793662,0.28731894,-0.23526748,0.28237167
110814594,0.27542946,-0.2440886,0.28866526
110835626,0.26651233,-0.25290972,0.28866526
110859689,0.2575952,-0.26173085,0.29810566
110882595,0.24867807,-0.2646712,0.30439925
110905076,0.23678857,-0.27055195,0.31069285
110927677,0.22787145,-0.27937308,0.31069285
110949725,0.21598195,-0.27937308,0.31383964
110972732,0.20706482,-0.28231347,0.32328004
110994582,0.20112008,-0.28231347,0.3169864
111017026,0.19220294,-0.28231347,0.32957363
111038582,0.18031345,-0.28525385,0.33272043
111060740,0.17734107,-0.28525385,0.3453076
111082582,0.16247919,-0.28525385,0.34216082
111104998,0.15950683,-0.28525385,0.33901402
111127623,0.14464495,-0.28525385,0.3484544
111149668,0.13572782,-0.28231347,0.354748
111172711,0.12383832,-0.27643272,0.35789478
111197737,0.1149212,-0.27349234,0.370482
111221666,0.1030317,-0.27055195,0.37677556
111242581,0.09411457,-0.26173085,0.3736288
111263630,0.0792527,-0.26173085,0.39250958
111284630,0.067363195,-0.2558501,0.38936275
111306581,0.058446072,-0.24996933,0.38621596
111328630,0.04061182,-0.24114822,0.39880314
111352631,0.037639447,-0.22938673,0.40824354
111374582,0.025749944,-0.22350597,0.41453713
111395629,0.022777569,-0.21468486,0.42083073
111416631,0.016832821,-0.20586373,0.42712432
111439624,0.010888069,-0.1970426,0.4334179
111460630,0.0019709445,-0.18822147,0.43027112
111482171,0.0019709445,-0.18234073,0.4334179
111505876,-0.009918556,-0.17057924,0.42397752
111527956,-0.015863307,-0.15881772,0.43027112
111550581,-0.024780432,-0.15587737,0.4365647
111573652,-0.027752806,-0.14411585,0.4397115
111594051,-0.03666993,-0.1382351,0.4334179
111615972,-0.04558706,-0.12647362,0.4334179
111638925,-0.051531807,-0.12059286,0.4365647
111663630,-0.057476558,-0.10883136,0.4365647
111685884,-0.06342131,-0.09412949,0.44285828
111710645,-0.06639368,-0.07942762,0.4365647
111731633,-0.06936605,-0.0706065,0.4334179
111752636,-0.07531081,-0.06178537,0.4365647
111774582,-0.07531081,-0.05296425,0.44285828
111798075,-0.081255555,-0.04120275,0.4397115
111822585,-0.084227934,-0.032381628,0.4334179
111843739,-0.09314506,-0.029441256,0.4334179
111866659,-0.090172686,-0.017679755,0.4365647
111888630,-0.08720031,-0.0059182583,0.4365647
111909897,-0.084227934,0.008783614,0.42397752
111933892,-0.07828318,0.020545112,0.42083073
111958636,-0.07531081,0.029366236,0.41453713
111982636,-0.06936605,0.041127734,0.42083073
112006643,-0.06342131,0.05288923,0.42712432
112027629,-0.054504182,0.05876998,0.41768393
112048630,-0.051531807,0.06465073,0.41768393
112071736,-0.04261468,0.07641222,0.41768393
112095146,-0.033697557,0.08523335,0.42397752
112117693,-0.027752806,0.096994855,0.41768393
112139634,-0.021808056,0.10581597,0.41453713
112159626,-0.015863307,0.1146371,0.41768393
112183126,-0.0010014307,0.1263986,0.41139033
112203896,0.007915694,0.13521972,0.40509674
112226066,0.016832821,0.14404084,0.40194994
112248632,0.02872232,0.15286197,0.38936275
112270054,0.04061182,0.15874271,0.38936275
112292280,0.049528945,0.16462347,0.37992236
112315940,0.064390816,0.17050421,0.3830692
112340702,0.07628032,0.17050421,0.3736288
112363973,0.08816982,0.17344458,0.3736288
112386062,0.100059316,0.17932534,0.36733517
112407960,0.108976446,0.17932534,0.36733517
112431846,0.12383832,0.18520609,0.354748
112454073,0.13275544,0.18520609,0.354748
112476728,0.14464495,0.18520609,0.3484544
112500524,0.15950683,0.18520609,0.34216082
112522586,0.17436871,0.18226571,0.3453076
112545640,0.1862582,0.18226571,0.32957363
112566582,0.20112008,0.17638496,0.3264268
112588632,0.21300957,0.17932534,0.32013324
112610587,0.22489908,0.17344458,0.3264268
112634593,0.23976095,0.17050421,0.31069285
112657662,0.24867807,0.16462347,0.29810566
112680300,0.2575952,0.16462347,0.29810566
112704219,0.27542946,0.15874271,0.29495886
112728304,0.28731894,0.1499216,0.28551847
112750582,0.2932637,0.14698121,0.27922487
112772627,0.3051532,0.1381601,0.27293128
112794582,0.31407034,0.13521972,0.2666377
112817665,0.32298747,0.12345822,0.26978448
112840267,0.3289322,0.1146371,0.2540505
112864737,0.33784932,0.10581597,0.24775691
112888872,0.34082168,0.096994855,0.24461012
112911632,0.3497388,0.088173725,0.23516974
112933669,0.3527112,0.0793526,0.24461012
112955681,0.35568357,0.07347185,0.24461012
112978582,0.35865596,0.06465073,0.24461012
113000872,0.35865596,0.05288923,0.24146332
113022582,0.36460072,0.04406811,0.24146332
113044999,0.36460072,0.035246987,0.24146332
113066582,0.36757308,0.023485487,0.24461012
113088735,0.36460072,0.014664364,0.24461012
113112909,0.36460072,0.0029028652,0.2509037
113136659,0.36460072,-0.008858632,0.2509037
113158582,0.36162832,-0.017679755,0.25719732
113179633,0.36162832,-0.032381628,0.2540505
113202582,0.36162832,-0.04120275,0.2603441
113224747,0.35568357,-0.055904623,0.26978448
113245721,0.3527112,-0.06472575,0.2760781
113268978,0.3497388,-0.07942762,0.27922487
113290582,0.3497388,-0.088248745,0.28551847
113312639,0.34379408,-0.10295062,0.28237167
113337667,0.33784932,-0.11471212,0.27922487
113358639,0.3319046,-0.12941398,0.28551847
113379624,0.3289322,-0.1411755,0.29181206
113401678,0.32298747,-0.14999662,0.29495886
113425674,0.3170427,-0.15881772,0.29810566
113446118,0.3081256,-0.1735196,0.29810566
113468128,0.3051532,-0.18234073,0.29810566
113491624,0.2932637,-0.19410223,0.30754605
113513684,0.28731894,-0.20586373,0.29810566
113536692,0.28434658,-0.21174447,0.30125245
113561665,0.2724571,-0.22644635,0.30125245
113582584,0.26353997,-0.23526748,0.30439925
113603623,0.25165045,-0.2440886,0.30754605
113626053,0.24273331,-0.24996933,0.31383964
113649651,0.23084383,-0.2558501,0.3169864
113673641,0.21598195,-0.26173085,0.3264268
113694022,0.20706482,-0.2676116,0.32957363
113715959,0.19220294,-0.2676116,0.3358672
113738592,0.18328582,-0.2676116,0.34216082
113762582,0.17734107,-0.27055195,0.33901402
113782926,0.17139633,-0.27055195,0.354748
113804962,0.16247919,-0.2676116,0.3484544
113828630,0.15653445,-0.2646712,0.35789478
113850461,0.15653445,-0.26173085,0.35789478
113873887,0.1505897,-0.2558501,0.3610416
113898636,0.14761733,-0.25290972,0.370482
113918620,0.13870019,-0.25290972,0.37677556
113940623,0.13572782,-0.24702896,0.36733517
113961892,0.12978308,-0.2440886,0.370482
113982842,0.12383832,-0.24702896,0.37677556
114004989,0.12086595,-0.24702896,0.37992236
114028628,0.11194882,-0.24702896,0.3736288
114050339,0.108976446,-0.2440886,0.38621596
114074082,0.106004074,-0.2440886,0.3830692
114095669,0.09411457,-0.24114822,0.38936275
114118886,0.0911422,-0.24114822,0.38936275
114142044,0.0911422,-0.23820785,0.38621596
114167905,0.0911422,-0.22938673,0.39565635
114191513,0.09708694,-0.22350597,0.40194994
114213639,0.09708694,-0.2205656,0.40509674
114236688,0.09708694,-0.21468486,0.40824354
114259679,0.1030317,-0.21174447,0.40194994
114280631,0.106004074,-0.2088041,0.39880314
114303502,0.108976446,-0.20292334,0.41139033
114325663,0.11194882,-0.20292334,0.41453713
114348104,0.11194882,-0.20292334,0.41453713
114372105,0.1149212,-0.20586373,0.40194994
114396105,0.11194882,-0.20586373,0.41139033
114420108,0.1149212,-0.20586373,0.40194994
114444134,0.11194882,-0.20586373,0.40194994
114467468,0.1149212,-0.20586373,0.40824354
114490071,0.11194882,-0.20586373,0.40509674
114512187,0.1149212,-0.20292334,0.41139033
114535760,0.11194882,-0.20292334,0.40509674
114558054,0.11789358,-0.20586373,0.40824354
114581130,0.1149212,-0.2088041,0.40824354
114604291,0.11789358,-0.2088041,0.39565635
114628206,0.1149212,-0.2088041,0.40194994
114652295,0.1149212,-0.20586373,0.40194994
114675873,0.11194882,-0.20586373,0.40509674
114697654,0.1149212,-0.20586373,0.40509674
114720221,0.1149212,-0.20292334,0.40194994
114742590,0.1149212,-0.20292334,0.41139033
114765668,0.1149212,-0.20292334,0.40509674
114786582,0.11789358,-0.20292334,0.40509674
114808624,0.1149212,-0.20292334,0.41139033
114830581,0.1149212,-0.20292334,0.40194994
114853674,0.1149212,-0.20292334,0.40824354
114876272,0.1149212,-0.20292334,0.40509674
114900274,0.11789358,-0.19998299,0.41453713
114924293,0.12086595,-0.19998299,0.40824354
114947950,0.12086595,-0.1970426,0.40824354
114969668,0.1149212,-0.1970426,0.40509674
114991623,0.12086595,-0.1970426,0.40824354
115013372,0.12086595,-0.19998299,0.40509674
115037680,0.12086595,-0.1970426,0.40824354
115060737,0.12086595,-0.1970426,0.41139033
115085678,0.12383832,-0.1970426,0.40509674
115108918,0.12086595,-0.1970426,0.41139033
115131623,0.12383832,-0.1970426,0.40824354
115154582,0.12383832,-0.19410223,0.40824354
115175627,0.12383832,-0.19410223,0.40824354
115197640,0.1268107,-0.19410223,0.41139033
115218597,0.1268107,-0.19410223,0.40509674
115241112,0.1268107,-0.19410223,0.41139033
115262598,0.13275544,-0.19410223,0.41453713
115284752,0.13275544,-0.19116186,0.41139033
115309072,0.13275544,-0.19410223,0.40509674
115333247,0.13275544,-0.19116186,0.40509674
115357066,0.13870019,-0.19116186,0.40194994
115381249,0.13572782,-0.18822147,0.40194994
115404630,0.13870019,-0.18822147,0.40824354
115425815,0.13870019,-0.18822147,0.39880314
115447970,0.14167257,-0.18822147,0.40194994
115472639,0.14464495,-0.18822147,0.40509674
115495632,0.14761733,-0.18822147,0.40509674
115516630,0.14761733,-0.19116186,0.40194994
115537912,0.14464495,-0.19410223,0.40194994
115559969,0.1505897,-0.19116186,0.39565635
115582066,0.14761733,-0.18822147,0.39880314
115606075,0.1505897,-0.18822147,0.39565635
115630071,0.1505897,-0.19116186,0.40194994
115654279,0.1505897,-0.18822147,0.39880314
115677722,0.15356207,-0.18822147,0.39880314
115700686,0.15356207,-0.18822147,0.39565635
115724696,0.15356207,-0.18822147,0.39565635
115748675,0.15356207,-0.18822147,0.40194994
115770582,0.15653445,-0.18822147,0.40194994
115792695,0.15653445,-0.19116186,0.40194994
115815624,0.15950683,-0.18822147,0.40194994
115837875,0.16247919,-0.18528111,0.40194994
115862590,0.16247919,-0.18528111,0.39880314
115883738,0.16545157,-0.18528111,0.39250958
115905874,0.16545157,-0.18234073,0.39250958
115927624,0.16842394,-0.18234073,0.38936275
115950582,0.16842394,-0.18234073,0.39565635
115973890,0.16842394,-0.18528111,0.40194994
115997888,0.17139633,-0.18528111,0.38936275
116020634,0.17436871,-0.17940035,0.39565635
116045885,0.17436871,-0.18234073,0.39250958
116069892,0.17436871,-0.17940035,0.38936275
116093892,0.17734107,-0.17940035,0.38936275
116116637,0.17139633,-0.18234073,0.39880314
116139926,0.17139633,-0.18234073,0.39880314
116163955,0.16545157,-0.18234073,0.39565635
116188094,0.16545157,-0.18234073,0.39565635
116212121,0.15950683,-0.18528111,0.39565635
116236324,0.15356207,-0.18822147,0.39565635
116257642,0.1505897,-0.19116186,0.39565635
116284284,0.14464495,-0.19116186,0.40194994
116308283,0.14167257,-0.19410223,0.39880314
116332354,0.13572782,-0.19410223,0.40194994
116356262,0.13275544,-0.1970426,0.40509674
116380319,0.1268107,-0.1970426,0.40509674
116404278,0.12086595,-0.19998299,0.40509674
116428274,0.11789358,-0.19998299,0.40824354
116452902,0.1149212,-0.19998299,0.41139033
116476862,0.11194882,-0.20292334,0.40194994
116500885,0.108976446,-0.20292334,0.40509674
116525015,0.106004074,-0.20586373,0.40509674
116548877,0.1030317,-0.20586373,0.40824354
116572943,0.100059316,-0.20292334,0.41768393
116596483,0.1030317,-0.20586373,0.41139033
116620245,0.09708694,-0.2088041,0.40824354
116644183,0.09411457,-0.2088041,0.40509674
116665680,0.09411457,-0.2088041,0.40509674
116687881,0.0911422,-0.2088041,0.41453713
116712092,0.09411457,-0.2088041,0.41139033
116734582,0.0911422,-0.20586373,0.40824354
116757644,0.08816982,-0.2088041,0.41139033
116780173,0.08816982,-0.20586373,0.41453713
116802589,0.08519745,-0.21174447,0.41139033
116824690,0.08222507,-0.21174447,0.40824354
116848631,0.08519745,-0.21468486,0.41139033
116870582,0.08222507,-0.21174447,0.40509674
116893848,0.08222507,-0.21174447,0.40509674
116916264,0.08222507,-0.21468486,0.40824354
116938582,0.08222507,-0.21468486,0.41139033
116961662,0.0792527,-0.21468486,0.41139033
116983871,0.0792527,-0.21762522,0.41453713
117005662,0.08222507,-0.21468486,0.40824354
117028184,0.07628032,-0.21762522,0.40509674
117050582,0.0792527,-0.21468486,0.41139033
117072751,0.07628032,-0.21468486,0.40509674
117095625,0.07330795,-0.21762522,0.40509674
117118582,0.07628032,-0.2205656,0.41139033
117139631,0.07330795,-0.2205656,0.41139033
117161722,0.07330795,-0.22350597,0.40824354
117184705,0.07330795,-0.2205656,0.40509674
117206582,0.070335574,-0.22350597,0.41139033
117228970,0.070335574,-0.22350597,0.41139033
117250585,0.067363195,-0.22938673,0.40509674
117272734,0.070335574,-0.22938673,0.39880314
117294582,0.067363195,-0.23526748,0.39250958
117317123,0.070335574,-0.24114822,0.38936275
117339678,0.067363195,-0.24114822,0.39565635
117361640,0.067363195,-0.24702896,0.38936275
117384692,0.067363195,-0.24996933,0.39250958
117408677,0.067363195,-0.25290972,0.38621596
117431686,0.067363195,-0.26173085,0.3830692
117454595,0.070335574,-0.2676116,0.3830692
117475631,0.067363195,-0.27349234,0.3830692
117498654,0.070335574,-0.28231347,0.37992236
117521742,0.067363195,-0.2911346,0.370482
117545711,0.061418444,-0.29701534,0.3641884
117566582,0.061418444,-0.30289608,0.36733517
117587637,0.067363195,-0.30877683,0.3610416
117609683,0.061418444,-0.31759796,0.3516012
117633664,0.061418444,-0.3205383,0.34216082
117657714,0.058446072,-0.3264191,0.3453076
117681790,0.058446072,-0.3264191,0.33901402
117705726,0.055473696,-0.3264191,0.3453076
117729665,0.055473696,-0.3264191,0.3484544
117750685,0.055473696,-0.3234787,0.34216082
117772632,0.058446072,-0.3234787,0.3453076
117794582,0.061418444,-0.3205383,0.3484544
117817641,0.064390816,-0.3205383,0.34216082
117841654,0.067363195,-0.3234787,0.34216082
117865757,0.07330795,-0.3234787,0.3453076
117889696,0.08222507,-0.3234787,0.33901402
117910582,0.08519745,-0.3264191,0.33901402
117931624,0.100059316,-0.32935944,0.33901402
117953876,0.1030317,-0.32935944,0.3264268
117978634,0.106004074,-0.33229983,0.3264268
117998614,0.11789358,-0.33524022,0.32957363
118019630,0.12086595,-0.33818057,0.32328004
118041905,0.1268107,-0.34112096,0.31069285
118063652,0.1268107,-0.3470017,0.30439925
118086858,0.1268107,-0.35288244,0.29810566
118109090,0.12383832,-0.35582283,0.29810566
118131055,0.1268107,-0.3587632,0.29810566
118154726,0.12086595,-0.3587632,0.29495886
118178557,0.12383832,-0.36170357,0.29495886
118200630,0.12086595,-0.36170357,0.29495886
118222727,0.12086595,-0.36464396,0.28866526
118246708,0.12086595,-0.3587632,0.29810566
118268982,0.11789358,-0.35582283,0.29495886
118291053,0.1149212,-0.35288244,0.30125245
118315082,0.1149212,-0.34406134,0.31069285
118339504,0.1149212,-0.33818057,0.31383964
118363499,0.11194882,-0.33524022,0.32328004
118384962,0.108976446,-0.33229983,0.3264268
118407886,0.106004074,-0.3264191,0.3264268
118431881,0.108976446,-0.3205383,0.33901402
118456082,0.106004074,-0.31759796,0.34216082
118478077,0.106004074,-0.3146576,0.3484544
118501669,0.108976446,-0.30583647,0.3453076
118523412,0.1030317,-0.30289608,0.3484544
118547490,0.100059316,-0.29701534,0.3641884
118570065,0.106004074,-0.28525385,0.3641884
118591904,0.1030317,-0.27349234,0.370482
118616546,0.1030317,-0.2646712,0.3736288
118638071,0.1030317,-0.2558501,0.37677556
118659962,0.100059316,-0.2440886,0.37677556
118683635,0.09708694,-0.23526748,0.39565635
118707653,0.09411457,-0.22350597,0.40194994
118731736,0.09411457,-0.21468486,0.40509674
118755905,0.08816982,-0.2088041,0.40824354
118780293,0.08816982,-0.1970426,0.41453713
118802582,0.08519745,-0.19116186,0.42083073
118824632,0.08519745,-0.18528111,0.41768393
118846589,0.08519745,-0.17940035,0.41768393
118869639,0.08519745,-0.1735196,0.42083073
118891900,0.08222507,-0.16763885,0.41768393
118912704,0.08519745,-0.16175811,0.42397752
118936469,0.08222507,-0.15587737,0.42397752
118958927,0.08519745,-0.14999662,0.43027112
118981720,0.08519745,-0.14705624,0.42712432
119004623,0.08222507,-0.1411755,0.4334179
119026582,0.08222507,-0.13529475,0.42712432
119048631,0.08222507,-0.12941398,0.42397752
119070581,0.08519745,-0.12647362,0.4334179
119093723,0.0792527,-0.123533234,0.43027112
119116639,0.08222507,-0.11765249,0.4365647
119136684,0.08519745,-0.11765249,0.4334179
119160539,0.0792527,-0.11471212,0.4365647
119182072,0.0792527,-0.11177175,0.42712432
119205090,0.0792527,-0.11177175,0.43027112
119229272,0.0792527,-0.10883136,0.4397115
119253669,0.07628032,-0.10883136,0.4365647
119276869,0.07628032,-0.11177175,0.4397115
119300775,0.07628032,-0.11177175,0.43027112
119323635,0.0792527,-0.11765249,0.4334179
119346582,0.07628032,-0.123533234,0.4334179
119369707,0.08222507,-0.12647362,0.4397115
119393112,0.08519745,-0.13529475,0.42397752
119415632,0.08816982,-0.14411585,0.42712432
119439624,0.08816982,-0.15587737,0.42083073
119462582,0.08519745,-0.1646985,0.42712432
119483624,0.08816982,-0.17645998,0.42712432
119506589,0.0911422,-0.18528111,0.42083073
119527628,0.08519745,-0.19410223,0.41768393
119550636,0.08519745,-0.20292334,0.40824354
119571627,0.08222507,-0.21174447,0.40509674
119594582,0.08222507,-0.2205656,0.40824354
119616637,0.0792527,-0.22350597,0.40194994
119638582,0.07628032,-0.23526748,0.39880314
119661795,0.07628032,-0.2440886,0.38621596
119685703,0.07628032,-0.25290972,0.38936275
119706585,0.07628032,-0.25879046,0.38621596
119727623,0.07330795,-0.2646712,0.37992236
119749664,0.07330795,-0.27055195,0.37992236
119769914,0.07628032,-0.27643272,0.3736288
119793932,0.070335574,-0.28231347,0.37992236
119815960,0.07330795,-0.2911346,0.3641884
119839628,0.07330795,-0.29407495,0.36733517
119860065,0.07330795,-0.30289608,0.370482
119885690,0.07330795,-0.30583647,0.35789478
119906589,0.07330795,-0.3117172,0.3516012
119928637,0.070335574,-0.3205383,0.3453076
119950582,0.07330795,-0.3234787,0.3453076
119973710,0.07628032,-0.32935944,0.34216082
119994039,0.0792527,-0.33229983,0.33272043
120015974,0.08222507,-0.33818057,0.3264268
120038860,0.08519745,-0.34406134,0.32328004
120061015,0.0911422,-0.3470017,0.3169864
120084688,0.09411457,-0.35288244,0.31383964
120107631,0.100059316,-0.3587632,0.30754605
120129891,0.1030317,-0.36170357,0.30754605
120153889,0.108976446,-0.36758432,0.29181206
120176625,0.1149212,-0.3734651,0.28551847
120198721,0.12086595,-0.37640545,0.2760781
120220687,0.12383832,-0.3793458,0.26978448
120244630,0.12978308,-0.3793458,0.2603441
120266635,0.13870019,-0.3822862,0.2634909
120290639,0.1505897,-0.3793458,0.25719732
120311625,0.15653445,-0.3822862,0.24775691
120331625,0.16247919,-0.3793458,0.24146332
120352631,0.17139633,-0.37640545,0.24775691
120374730,0.17436871,-0.37640545,0.24146332
120396986,0.18031345,-0.3734651,0.23831652
120420686,0.18923058,-0.3705247,0.23202293
120443629,0.1981477,-0.36758432,0.23516974
120464918,0.20112008,-0.36758432,0.21943575
120487664,0.2100372,-0.36758432,0.22258253
120509672,0.21300957,-0.36170357,0.22572935
120535852,0.22489908,-0.36170357,0.21943575
120559447,0.23084383,-0.3587632,0.21628895
120583381,0.23381619,-0.35288244,0.21628895
120604631,0.24273331,-0.34994206,0.21314214
120627686,0.24570571,-0.34406134,0.22258253
120651177,0.25165045,-0.33524022,0.22258253
120675159,0.25462282,-0.32935944,0.21943575
120699108,0.26353997,-0.3234787,0.22572935
120723111,0.26353997,-0.3146576,0.22572935
120747289,0.2724571,-0.30877683,0.22887613
120771153,0.27840182,-0.30583647,0.23202293
120793662,0.27840182,-0.2999557,0.23202293
120816630,0.28434658,-0.29407495,0.23516974
120839409,0.28434658,-0.2911346,0.22572935
120860697,0.2932637,-0.28525385,0.24146332
120883866,0.2932637,-0.28231347,0.23202293
120908633,0.29623607,-0.28231347,0.22258253
120929666,0.29920843,-0.27937308,0.23202293
120950582,0.29920843,-0.27643272,0.22887613
120972119,0.30218083,-0.27349234,0.22887613
120993696,0.3051532,-0.27643272,0.22887613
121016566,0.3051532,-0.27349234,0.22887613
121038582,0.3081256,-0.27349234,0.22258253
121060205,0.3051532,-0.27643272,0.21943575
121082073,0.3081256,-0.27349234,0.21943575
121104951,0.3081256,-0.27349234,0.21628895
121128846,0.3081256,-0.27349234,0.22887613
121152691,0.31109795,-0.27349234,0.21943575
121177277,0.31407034,-0.27055195,0.22258253
121198927,0.31407034,-0.2676116,0.22258253
121221664,0.32001507,-0.2646712,0.21628895
121244204,0.32001507,-0.2646712,0.21628895
121268266,0.32595983,-0.26173085,0.20684855
121290985,0.32595983,-0.25879046,0.20999536
121313367,0.3319046,-0.2558501,0.21943575
121335630,0.33487695,-0.24702896,0.20684855
121358582,0.33784932,-0.24114822,0.20684855
121381247,0.34676644,-0.23232709,0.20055497
121404742,0.3527112,-0.22644635,0.20370176
121428700,0.35568357,-0.21468486,0.20684855
121452701,0.36460072,-0.20586373,0.19111457
121474589,0.37054545,-0.19116186,0.18167418
121497230,0.3764902,-0.17940035,0.19111457
121519627,0.38540733,-0.16763885,0.18482098
121541639,0.38540733,-0.15587737,0.18796778
121564769,0.3883797,-0.1411755,0.18796778
121587628,0.39432445,-0.12941398,0.18482098
121612665,0.40026918,-0.11471212,0.18482098
121634582,0.40026918,-0.100010246,0.17852738
121657042,0.40324157,-0.091189116,0.18796778
121678584,0.40621397,-0.07648724,0.17852738
121700758,0.40621397,-0.06178537,0.17538059
121722031,0.40621397,-0.0470835,0.17852738
121742638,0.40621397,-0.03826238,0.17852738
121765730,0.40026918,-0.02650088,0.18167418
121789671,0.40026918,-0.011799008,0.17852738
121810582,0.40026918,-3.7509286e-05,0.18167418
121832684,0.40026918,0.014664364,0.17538059
121854582,0.39729682,0.029366236,0.18167418
121877665,0.39135206,0.03818736,0.17852738
121898582,0.39135206,0.049948856,0.18796778
121920692,0.3883797,0.06465073,0.19111457
121944636,0.38540733,0.07347185,0.19111457
121967682,0.38243496,0.08523335,0.18796778
121988623,0.3764902,0.094054475,0.18482098
122010582,0.37351784,0.10581597,0.19111457
122032691,0.37054545,0.1146371,0.19111457
122055681,0.36460072,0.12051784,0.18796778
122077702,0.36162832,0.13521972,0.20370176
122098585,0.35568357,0.14110047,0.20684855
122120642,0.35568357,0.1499216,0.20684855
122143625,0.34676644,0.15874271,0.21314214
122165888,0.34082168,0.16168308,0.20684855
122188638,0.3319046,0.17050421,0.21314214
122210605,0.32298747,0.17638496,0.21943575
122231645,0.32298747,0.18520609,0.21628895
122252631,0.31407034,0.18814646,0.22572935
122274595,0.31109795,0.19402722,0.22572935
122297895,0.30218083,0.20284833,0.22258253
122322636,0.29623607,0.20872909,0.22572935
122346707,0.28434658,0.21166945,0.23516974
122370638,0.27542946,0.22049057,0.23516974
122394638,0.2724571,0.22637132,0.23516974
122415624,0.26056758,0.2293117,0.24775691
122435627,0.2575952,0.23519245,0.24461012
122456624,0.24867807,0.24107319,0.23831652
122478724,0.24273331,0.24107319,0.24461012
122501041,0.23381619,0.24695395,0.2509037
122524678,0.2219267,0.24989432,0.24775691
122547677,0.21598195,0.25283468,0.2509037
122571289,0.20706482,0.2557751,0.2540505
122595313,0.1981477,0.2616558,0.2603441
122616909,0.18923058,0.2616558,0.2666377
122639444,0.18328582,0.26753658,0.2634909
122660635,0.17436871,0.26753658,0.27293128
122683633,0.16545157,0.27047694,0.27293128
122703884,0.15356207,0.27047694,0.26978448
122727888,0.14761733,0.2734173,0.27293128
122750054,0.13870019,0.2763577,0.27922487
122773661,0.12978308,0.2763577,0.28237167
122795496,0.12383832,0.2763577,0.28866526
122820103,0.1149212,0.2763577,0.29181206
122844104,0.106004074,0.2763577,0.29181206
122868107,0.09708694,0.2763577,0.30125245
122891496,0.08519745,0.2763577,0.30439925
122913662,0.07628032,0.2734173,0.30125245
122935628,0.070335574,0.2734173,0.31069285
122957679,0.064390816,0.27047694,0.30439925
122981682,0.058446072,0.26753658,0.32013324
123004304,0.04655657,0.26459622,0.32013324
123028472,0.037639447,0.2616558,0.32328004
123051894,0.02872232,0.2557751,0.32328004
123073662,0.019805195,0.25283468,0.3264268
123094581,0.013860445,0.24695395,0.32957363
123118589,0.0049433196,0.24401358,0.33901402
123141646,-0.006946181,0.23813283,0.34216082
123164196,-0.012890931,0.23225208,0.3453076
123188292,-0.01883568,0.22637132,0.354748
123212319,-0.021808056,0.22049057,0.35789478
123234921,-0.027752806,0.2175502,0.35789478
123256894,-0.033697557,0.20872909,0.3610416
123280630,-0.03666993,0.2057887,0.3641884
123302927,-0.04261468,0.19990796,0.370482
123324978,-0.04558706,0.19108683,0.3736288
123349091,-0.054504182,0.18226571,0.3736288
123372280,-0.057476558,0.17638496,0.37992236
123396266,-0.057476558,0.16756384,0.3830692
123417894,-0.06342131,0.16168308,0.38936275
123441484,-0.06342131,0.15286197,0.38936275
123463634,-0.06936605,0.14404084,0.39880314
123486581,-0.06936605,0.13521972,0.40194994
123509665,-0.06936605,0.12345822,0.40194994
123531633,-0.06936605,0.11757747,0.40509674
123553670,-0.06936605,0.10875634,0.41139033
123575585,-0.06936605,0.1028756,0.41768393
123599697,-0.06936605,0.0911141,0.42083073
123621047,-0.07531081,0.08523335,0.42712432
123645091,-0.07531081,0.07053148,0.41453713
123668709,-0.07828318,0.061710354,0.41453713
123690582,-0.07531081,0.049948856,0.42712432
123711625,-0.07233843,0.04406811,0.41768393
123735624,-0.07233843,0.03230661,0.42083073
123759641,-0.06936605,0.029366236,0.42397752
123782641,-0.06639368,0.017604737,0.42397752
123803624,-0.06342131,0.011723989,0.4334179
123826650,-0.06936605,-3.7509286e-05,0.4334179
123849934,-0.06639368,-0.008858632,0.44285828
123872700,-0.06044893,-0.017679755,0.44285828
123895690,-0.057476558,-0.02650088,0.4397115
123917893,-0.051531807,-0.035322007,0.44285828
123941673,-0.04855943,-0.04414313,0.4397115
123962582,-0.04261468,-0.05296425,0.4334179
123983624,-0.03666993,-0.058845,0.4397115
124004637,-0.027752806,-0.06766613,0.4397115
124025884,-0.021808056,-0.07648724,0.44285828
124049856,-0.015863307,-0.07942762,0.4397115
124071956,-0.009918556,-0.088248745,0.4397115
124094064,0.0019709445,-0.09412949,0.4460051
124115958,0.0049433196,-0.10295062,0.4397115
124138244,0.013860445,-0.11177175,0.4397115
124160674,0.022777569,-0.11765249,0.4365647
124182090,0.031694695,-0.12941398,0.4365647
124206042,0.037639447,-0.13529475,0.4397115
124229641,0.049528945,-0.14411585,0.4334179
124253900,0.055473696,-0.14999662,0.42712432
124276643,0.070335574,-0.15587737,0.42712432
124297881,0.07628032,-0.15881772,0.42397752
124321880,0.08519745,-0.16175811,0.42083073
124344630,0.100059316,-0.16763885,0.42083073
124366920,0.1030317,-0.17057924,0.41768393
124388699,0.11194882,-0.1735196,0.41139033
124411629,0.11789358,-0.17057924,0.41768393
124434636,0.12978308,-0.1735196,0.41453713
124455625,0.13870019,-0.17057924,0.40509674
124477892,0.14761733,-0.17057924,0.40509674
124500633,0.15653445,-0.1735196,0.40194994
124522589,0.16545157,-0.17057924,0.39880314
124545884,0.17139633,-0.1735196,0.39250958
124569887,0.1862582,-0.17057924,0.3830692
124594633,0.19517533,-0.16763885,0.38621596
124618638,0.21300957,-0.1646985,0.3830692
124639626,0.2219267,-0.1646985,0.37677556
124660631,0.23084383,-0.15881772,0.370482
124683072,0.23976095,-0.15587737,0.3610416
124707639,0.24867807,-0.15587737,0.354748
124728635,0.2575952,-0.14705624,0.3516012
124749640,0.26651233,-0.14705624,0.3484544
124771626,0.27542946,-0.1411755,0.33901402
124795140,0.28434658,-0.13235436,0.32957363
124815886,0.2902913,-0.12647362,0.3264268
124838088,0.29920843,-0.11765249,0.32013324
124860637,0.3051532,-0.10883136,0.3169864
124883395,0.3081256,-0.10295062,0.31069285
124903974,0.31407034,-0.097069874,0.31069285
124926074,0.32298747,-0.08530837,0.31069285
124948105,0.32595983,-0.07942762,0.30754605
124971696,0.3319046,-0.0706065,0.30125245
124995626,0.33784932,-0.058845,0.30125245
125019071,0.34379408,-0.0470835,0.29495886
125040623,0.34379408,-0.035322007,0.27922487
125063443,0.34676644,-0.023560505,0.27922487
125084630,0.34676644,-0.008858632,0.27293128
125106584,0.3497388,-3.7509286e-05,0.2666377
125127677,0.3497388,0.011723989,0.2634909
125148778,0.3497388,0.026425863,0.2634909
125170998,0.34676644,0.03818736,0.2666377
125194025,0.34676644,0.049948856,0.25719732
125217240,0.34379408,0.061710354,0.2634909
125239624,0.34082168,0.07347185,0.2509037
125261640,0.33784932,0.08523335,0.2509037
125283626,0.33487695,0.099935226,0.2540505
125305672,0.3319046,0.10875634,0.2509037
125327623,0.32595983,0.12345822,0.2603441
125351624,0.32298747,0.13521972,0.2603441
125374588,0.31407034,0.14698121,0.25719732
125395641,0.3051532,0.16168308,0.2603441
125418070,0.29920843,0.16756384,0.2603441
125440641,0.2902913,0.17932534,0.25719732
125463636,0.2813742,0.18814646,0.25719732
125486077,0.2724571,0.19696759,0.25719732
125510590,0.26353997,0.20872909,0.2603441
125533715,0.25165045,0.21460983,0.2634909
125553906,0.24273331,0.22343096,0.26978448
125575956,0.23381619,0.23225208,0.2634909
125598925,0.2219267,0.23813283,0.2666377
125622081,0.21300957,0.24401358,0.27293128
125646118,0.19517533,0.24989432,0.27293128
125669717,0.18328582,0.25283468,0.27293128
125693719,0.17436871,0.25871545,0.27293128
125716636,0.16247919,0.26459622,0.28237167
125741722,0.1505897,0.26459622,0.28551847
125763633,0.13572782,0.26753658,0.29181206
125785885,0.12383832,0.27047694,0.28551847
125808636,0.11194882,0.27047694,0.29181206
125830622,0.09708694,0.26753658,0.30439925
125851632,0.08816982,0.26459622,0.30439925
125874644,0.0792527,0.26459622,0.31383964
125898338,0.070335574,0.26459622,0.31069285
125922634,0.049528945,0.25871545,0.32013324
125943624,0.04061182,0.2557751,0.3264268
125963651,0.031694695,0.25283468,0.3358672
125984630,0.019805195,0.24695395,0.3358672
126006735,0.010888069,0.24401358,0.33901402
126030748,-0.009918556,0.23519245,0.34216082
126053090,-0.01883568,0.23225208,0.3484544
126076687,-0.024780432,0.22343096,0.354748
126098717,-0.033697557,0.2175502,0.35789478
126122589,-0.04261468,0.2057887,0.36733517
126145884,-0.051531807,0.19990796,0.36733517
126167157,-0.06044893,0.19108683,0.36733517
126190823,-0.06639368,0.18520609,0.3736288
126214732,-0.06936605,0.17638496,0.3830692
126236980,-0.07531081,0.16462347,0.3830692
126259495,-0.084227934,0.15286197,0.39250958
126283491,-0.08720031,0.14110047,0.39565635
126307690,-0.08720031,0.1263986,0.39565635
126331674,-0.090172686,0.11757747,0.40194994
126354033,-0.090172686,0.10581597,0.41453713
126376493,-0.09314506,0.094054475,0.41453713
126398245,-0.09611743,0.08523335,0.42083073
126421662,-0.09611743,0.07053148,0.41139033
126444622,-0.09908981,0.05876998,0.41768393
126467638,-0.09611743,0.047008485,0.42397752
126488631,-0.09611743,0.035246987,0.41768393
126511522,-0.090172686,0.023485487,0.42397752
126533664,-0.090172686,0.011723989,0.43027112
126556917,-0.084227934,0.0029028652,0.4334179
126581036,-0.084227934,-0.014739382,0.4365647
126604978,-0.081255555,-0.029441256,0.4397115
126628140,-0.07233843,-0.03826238,0.44285828
126651968,-0.06936605,-0.050023876,0.4365647
126675401,-0.07233843,-0.0706065,0.4397115
126697723,-0.07828318,-0.091189116,0.4365647
126720692,-0.09314506,-0.11471212,0.4397115
126742582,-0.09611743,-0.13529475,0.4334179
126765719,-0.10206218,-0.16175811,0.42397752
126788640,-0.10800693,-0.17940035,0.41768393
126811962,-0.10503455,-0.19410223,0.41139033
126835946,-0.10206218,-0.20292334,0.41453713
126858585,-0.09314506,-0.2088041,0.41453713
126880645,-0.081255555,-0.20586373,0.41768393
126901663,-0.07233843,-0.20586373,0.41453713
126924154,-0.06044893,-0.20586373,0.42397752
126944749,-0.051531807,-0.2088041,0.42083073
126968280,-0.039642308,-0.20586373,0.42397752
126989720,-0.030725181,-0.2088041,0.41768393
127012635,-0.021808056,-0.21174447,0.40824354
127033720,-0.012890931,-0.21468486,0.41768393
127056636,-0.006946181,-0.2205656,0.41453713
127077720,-0.0010014307,-0.22350597,0.41453713
127099637,0.007915694,-0.22644635,0.40509674
127122588,0.019805195,-0.22644635,0.40824354
127143623,0.02872232,-0.23526748,0.39565635
127164630,0.03466707,-0.23526748,0.39880314
