timestamp,time_utc_usec,lat,lon,alt,alt_ellipsoid,s_variance_m_s,c_variance_rad,eph,epv,hdop,vdop,noise_per_ms,jamming_indicator,vel_m_s,vel_n_m_s,vel_e_m_s,vel_d_m_s,cog_rad,timestamp_time_relative,heading,heading_offset,fix_type,vel_ned_valid,satellites_used
86358756,1548265883000431,323874018,-1170763119,19567,-14877,0.17500001,1.7628438,0.71300006,1.016,0.55,0.95,70,1,0.10300001,-0.018000001,-0.102000006,-0.011000001,0.0,0,nan,0.0,3,1,20
86554874,1548265883200431,323874018,-1170763121,19557,-14888,0.282,1.7628484,0.71400005,1.0170001,0.55,0.95,70,1,0.086,0.047000002,-0.071,0.065000005,0.0,0,nan,0.0,3,1,20
86754898,1548265883400431,323874019,-1170763123,19544,-14900,0.289,1.7628529,0.716,1.019,0.55,0.95,70,1,0.147,0.1,-0.10700001,0.081,0.0,0,nan,0.0,3,1,20
86956759,1548265883600431,323874020,-1170763124,19516,-14928,0.28300002,1.7628571,0.71800005,1.0220001,0.55,0.95,70,1,0.1,0.098000005,-0.019000001,0.064,0.0,0,nan,0.0,3,1,20
87163760,1548265883800431,323874020,-1170763124,19554,-14890,0.26000002,1.7628614,0.72,1.023,0.55,0.95,70,1,0.072000004,-0.071,0.012,-0.001,0.0,0,nan,0.0,3,1,20
87371717,1548265884000431,323874019,-1170763123,19566,-14878,0.256,1.7628652,0.721,1.0250001,0.55,0.95,70,1,0.034,-0.023000002,0.025,0.038000003,0.0,0,nan,0.0,3,1,20
87560843,1548265884200431,323874018,-1170763122,19650,-14794,0.277,1.7628739,0.72300005,1.028,0.55,0.95,70,1,0.058000002,0.057000004,0.009000001,-0.544,0.0,0,nan,0.0,3,1,20
87758173,1548265884400431,323874018,-1170763121,19922,-14522,0.28500003,1.762899,0.725,1.029,0.55,0.95,70,1,0.081,-0.07700001,0.026,-1.616,0.0,0,nan,0.0,3,1,20
87962738,1548265884600431,323874015,-1170763121,20315,-14129,0.275,1.7629298,0.726,1.029,0.55,0.95,70,1,0.193,-0.148,-0.123,-1.9740001,0.0,0,nan,0.0,3,1,20
88161701,1548265884800431,323874014,-1170763128,20713,-13731,0.268,0.7135387,0.72700006,1.031,0.55,0.95,70,1,0.37800002,-0.022000002,-0.37800002,-2.016,4.882472,0,nan,0.0,3,1,20
88361722,1548265885000431,323874013,-1170763138,21113,-13331,0.25,0.3969716,0.72800004,1.029,0.55,0.95,70,2,0.509,0.0,-0.509,-2.0140002,4.7522955,0,nan,0.0,3,1,20
88565709,1548265885200431,323874013,-1170763149,21535,-12909,0.24700001,0.5417044,0.72800004,1.0270001,0.55,0.95,70,2,0.455,-0.075,-0.44900003,-2.066,4.680638,0,nan,0.0,3,1,20
88755698,1548265885400431,323874013,-1170763163,21915,-12529,0.24200001,0.26074135,0.72400004,1.026,0.55,0.95,70,2,0.58900005,0.112,-0.578,-1.843,4.861618,0,nan,0.0,3,1,20
88954736,1548265885600431,323874013,-1170763173,22286,-12158,0.25100002,0.4996207,0.72200006,1.026,0.55,0.95,70,2,0.439,-0.081,-0.43100002,-1.9160001,4.789896,0,nan,0.0,3,1,20
89157699,1548265885800431,323874011,-1170763181,22688,-11756,0.24900001,0.41950977,0.71800005,1.0220001,0.55,0.95,70,2,0.39600003,-0.039,-0.39400002,-2.045,4.686789,0,nan,0.0,3,1,20
89351710,1548265886000431,323874011,-1170763187,23089,-11355,0.31300002,0.41964605,0.72,1.0250001,0.55,0.95,70,4,0.178,-0.040000003,-0.17400001,-2.078,4.686789,0,nan,0.0,3,1,20
89565695,1548265886200431,323874007,-1170763190,23472,-10972,0.36200002,0.41977382,0.72800004,1.033,0.55,0.95,70,4,0.28300002,-0.266,-0.098000005,-1.9350001,4.686789,0,nan,0.0,3,1,20
89765766,1548265886400431,323874004,-1170763193,23856,-10588,0.259,0.41989985,0.72800004,1.029,0.55,0.95,70,4,0.158,0.025,-0.156,-1.9230001,4.686789,0,nan,0.0,3,1,20
89963709,1548265886600431,323874002,-1170763195,24227,-10217,0.23200001,0.42001852,0.72300005,1.0220001,0.55,0.95,70,4,0.134,-0.126,-0.045,-1.8130001,4.686789,0,nan,0.0,3,1,20
90162738,1548265886800431,323873999,-1170763195,24604,-9840,0.231,0.42013335,0.72,1.018,0.55,0.95,70,4,0.19000001,-0.18900001,0.021000002,-1.748,4.686789,0,nan,0.0,3,1,20
90358738,1548265887000431,323873998,-1170763196,24890,-9554,0.223,0.4202344,0.71500003,1.011,0.57,1.0,70,3,0.031000001,0.025,-0.018000001,-1.549,4.686789,0,nan,0.0,3,1,19
90561708,1548265887200431,323874001,-1170763199,25080,-9364,0.21900001,0.5130631,0.708,1.003,0.55,0.95,70,3,0.21000001,0.18300001,-0.10300001,-1.294,5.1225786,0,nan,0.0,3,1,20
90747709,1548265887400431,323874008,-1170763200,25298,-9146,0.215,0.51313025,0.70100003,0.99500006,0.55,0.95,70,3,0.13900001,0.13700001,-0.023000002,-1.25,5.1225786,0,nan,0.0,3,1,20
90954808,1548265887600431,323874012,-1170763199,25518,-8926,0.21000001,0.7113892,0.697,0.98800004,0.55,0.95,70,3,0.17,0.16800001,-0.029000001,-1.1520001,5.462204,0,nan,0.0,3,1,20
91163006,1548265887800431,323874015,-1170763199,25772,-8672,0.23900001,0.71143645,0.69500005,0.9850001,0.55,0.95,70,3,0.192,0.128,0.142,-1.2140001,5.462204,0,nan,0.0,3,1,20
91355257,1548265888000431,323874019,-1170763196,25996,-8448,0.246,0.71148115,0.69500005,0.98300004,0.55,0.95,70,1,0.275,0.22700001,0.156,-1.1270001,5.462204,0,nan,0.0,3,1,20
91555699,1548265888200431,323874020,-1170763193,26212,-8233,0.261,0.7115218,0.69500005,0.98300004,0.55,0.95,70,1,0.13800001,-0.082,0.11100001,-1.0480001,5.462204,0,nan,0.0,3,1,20
91754912,1548265888400431,323874020,-1170763190,26408,-8036,0.259,0.7115639,0.69500005,0.98200005,0.55,0.95,70,1,0.1,0.045,0.09,-1.085,5.462204,0,nan,0.0,3,1,20
91958794,1548265888600431,323874019,-1170763186,26643,-7802,0.27,0.7116084,0.69600004,0.98200005,0.55,0.95,70,1,0.187,-0.047000002,0.18100001,-1.139,5.462204,0,nan,0.0,3,1,20
92158763,1548265888800431,323874018,-1170763182,26856,-7588,0.277,0.71165395,0.69600004,0.984,0.55,0.95,70,1,0.10300001,-0.047000002,0.09200001,-1.1810001,5.462204,0,nan,0.0,3,1,20
92356741,1548265889000431,323874018,-1170763181,27097,-7347,0.24400002,0.7116991,0.693,0.98,0.55,0.95,70,2,0.134,-0.07700001,0.11000001,-1.1650001,5.462204,0,nan,0.0,3,1,20
92558796,1548265889200431,323874017,-1170763179,27251,-7193,0.25,0.7117356,0.689,0.97800004,0.55,0.95,70,2,0.15200001,-0.066,0.13700001,-0.93700004,5.462204,0,nan,0.0,3,1,20
92758737,1548265889400431,323874018,-1170763178,27451,-6993,0.24300002,0.71176845,0.684,0.97300005,0.55,0.95,70,2,0.039,0.032,0.023000002,-0.85,5.462204,0,nan,0.0,3,1,20
92955724,1548265889600431,323874016,-1170763175,27694,-6750,0.22900002,0.333623,0.679,0.96700007,0.55,0.95,70,2,0.33200002,-0.287,0.16800001,-1.0960001,3.124868,0,nan,0.0,3,1,20
93158736,1548265889800431,323874013,-1170763174,27914,-6530,0.23900001,0.54162884,0.675,0.96400005,0.55,0.95,70,2,0.20600002,-0.18900001,0.08400001,-1.131,3.0146706,0,nan,0.0,3,1,20
93362911,1548265890000431,323874009,-1170763173,28096,-6348,0.231,0.5830862,0.67200005,0.96000004,0.55,0.95,70,16,0.23300001,-0.23200001,-0.009000001,-0.777,3.0905266,0,nan,0.0,3,1,20
93554914,1548265890200431,323874006,-1170763174,28323,-6121,0.22100002,0.36370093,0.66800004,0.95500004,0.55,0.95,70,16,0.314,-0.303,0.082,-1.01,2.93805,0,nan,0.0,3,1,20
93756774,1548265890400431,323874002,-1170763172,28488,-5957,0.22700001,0.37799814,0.66400003,0.95100003,0.55,0.95,70,16,0.298,-0.254,0.155,-0.91300005,2.772267,0,nan,0.0,3,1,20
93958747,1548265890600431,323873998,-1170763169,28687,-5757,0.24300002,0.47573048,0.66300005,0.94900006,0.55,0.95,70,16,0.275,-0.224,0.15900001,-1.021,2.676053,0,nan,0.0,3,1,20
94158087,1548265890800431,323873997,-1170763168,28900,-5544,0.23,0.48600906,0.66,0.94500005,0.55,0.95,70,16,0.238,-0.172,0.164,-1.0630001,2.530712,0,nan,0.0,3,1,20
94358151,1548265891000430,323873996,-1170763165,29056,-5388,0.24000001,0.73071784,0.656,0.94200003,0.55,0.95,70,4,0.19100001,-0.072000004,0.17600001,-0.845,2.355055,0,nan,0.0,3,1,20
94558735,1548265891200430,323873995,-1170763160,29248,-5196,0.22200002,0.35708508,0.652,0.93600005,0.55,0.95,70,4,0.36900002,-0.163,0.33100003,-1.031,2.0916834,0,nan,0.0,3,1,20
94758697,1548265891400430,323873994,-1170763154,29447,-4997,0.252,0.50290227,0.65000004,0.93500006,0.55,0.95,70,4,0.305,-0.14,0.27100003,-0.94200003,2.0772748,0,nan,0.0,3,1,20
94961703,1548265891600430,323873994,-1170763148,29667,-4777,0.25300002,0.70621586,0.64900005,0.934,0.55,0.95,70,4,0.29700002,0.106000006,0.27800003,-1.042,1.7841703,0,nan,0.0,3,1,20
95159728,1548265891800430,323873995,-1170763141,29966,-4479,0.252,0.61176354,0.647,0.933,0.55,0.95,70,4,0.29900002,-0.035,0.29700002,-1.4870001,1.7294902,0,nan,0.0,3,1,20
95358796,1548265892000430,323873995,-1170763135,30367,-4078,0.25500003,0.5593708,0.64500004,0.93100005,0.55,0.95,70,2,0.33,-0.019000001,0.32900003,-2.012,1.674029,0,nan,0.0,3,1,20
95570952,1548265892200430,323873996,-1170763132,30765,-3679,0.27100003,0.5594813,0.64400005,0.93200004,0.59999996,1.0,70,2,0.062000003,-0.007,0.061000004,-2.2540002,1.674029,0,nan,0.0,3,1,19
95764778,1548265892400430,323873995,-1170763128,31238,-3206,0.282,0.42974925,0.643,0.933,0.55,0.95,70,2,0.38000003,-0.149,0.35000002,-2.4050002,1.8619769,0,nan,0.0,3,1,20
95951753,1548265892600430,323873995,-1170763123,31717,-2727,0.28,0.42991245,0.642,0.934,0.55,0.95,70,2,0.16600001,0.07700001,0.147,-2.5500002,1.8619769,0,nan,0.0,3,1,20
96158737,1548265892800430,323873998,-1170763121,32216,-2228,0.279,0.737781,0.642,0.93600005,0.55,0.95,70,2,0.245,0.24000001,0.048,-2.5960002,1.4398447,0,nan,0.0,3,1,20
96358738,1548265893000430,323874002,-1170763120,32775,-1669,0.28,0.7486547,0.64100003,0.938,0.55,0.95,70,3,0.254,0.23900001,0.087000005,-2.743,0.90210795,0,nan,0.0,3,1,20
96555770,1548265893200430,323874006,-1170763118,33362,-1082,0.279,0.7487591,0.64000005,0.93900007,0.55,0.95,70,3,0.21200001,0.20700002,0.045,-2.8430002,0.90210795,0,nan,0.0,3,1,20
96754737,1548265893400430,323874009,-1170763116,33992,-452,0.28100002,0.74886996,0.64000005,0.94100004,0.55,0.95,70,3,0.142,0.135,0.041,-3.022,0.90210795,0,nan,0.0,3,1,20
96958741,1548265893600430,323874012,-1170763115,34660,216,0.28300002,0.7489902,0.63900006,0.943,0.55,0.95,70,3,0.2,0.19700001,0.033,-3.279,0.90210795,0,nan,0.0,3,1,20
97157807,1548265893800430,323874016,-1170763115,35328,884,0.284,0.6096623,0.638,0.94500005,0.55,0.95,70,3,0.21700001,0.21200001,-0.047000002,-3.3650002,0.22694619,0,nan,0.0,3,1,20
97362763,1548265894000430,323874020,-1170763116,36004,1560,0.273,0.4787595,0.637,0.94400007,0.55,0.95,70,4,0.25300002,0.246,-0.059000004,-3.2960002,6.2250514,0,nan,0.0,3,1,20
97561699,1548265894200430,323874025,-1170763116,36692,2248,0.28300002,0.647131,0.637,0.94600004,0.55,0.95,70,4,0.246,0.246,-0.017,-3.403,6.221001,0,nan,0.0,3,1,20
97761700,1548265894400430,323874030,-1170763116,37398,2954,0.275,0.64727485,0.637,0.9480001,0.55,0.95,70,4,0.185,0.17300001,0.065000005,-3.3850002,6.221001,0,nan,0.0,3,1,20
97956911,1548265894600430,323874033,-1170763114,38086,3642,0.28,0.6474166,0.63600004,0.94900006,0.55,0.95,70,4,0.11800001,0.071,0.094000004,-3.344,6.221001,0,nan,0.0,3,1,20
98160760,1548265894800430,323874035,-1170763112,38742,4298,0.259,0.64755744,0.634,0.947,0.55,0.95,70,4,0.136,0.053000003,0.126,-3.3260002,6.221001,0,nan,0.0,3,1,20
98358771,1548265895000430,323874036,-1170763110,39418,4974,0.259,0.64769685,0.632,0.94600004,0.55,0.95,70,2,0.17500001,-0.016,0.17400001,-3.288,6.221001,0,nan,0.0,3,1,20
98552767,1548265895200430,323874036,-1170763105,40097,5653,0.25300002,0.5629358,0.629,0.943,0.55,0.95,70,2,0.28300002,-0.048,0.27800003,-3.3860002,0.9662425,0,nan,0.0,3,1,20
98758746,1548265895400430,323874037,-1170763101,40765,6321,0.257,0.56310076,0.628,0.94200003,0.55,0.95,70,2,0.186,0.029000001,0.18400002,-3.381,0.9662425,0,nan,0.0,3,1,20
98958737,1548265895600430,323874038,-1170763098,41453,7008,0.25,0.56326294,0.62700003,0.94000006,0.55,0.95,70,2,0.18400002,-0.030000001,0.18200001,-3.325,0.9662425,0,nan,0.0,3,1,20
99157707,1548265895800430,323874037,-1170763094,42092,7648,0.257,0.5634238,0.625,0.93900007,0.55,0.95,70,2,0.187,-0.032,0.185,-3.3000002,0.9662425,0,nan,0.0,3,1,20
99374736,1548265896000430,323874037,-1170763092,42804,8360,0.24200001,0.7171652,0.624,0.93600005,0.55,0.95,70,2,0.16100001,-0.13700001,0.085,-3.384,1.5849121,0,nan,0.0,3,1,20
99561711,1548265896200430,323874035,-1170763090,43451,9007,0.259,0.7172919,0.623,0.93500006,0.55,0.95,70,2,0.171,-0.11400001,0.127,-3.3100002,1.5849121,0,nan,0.0,3,1,20
99763697,1548265896400430,323874033,-1170763087,44170,9726,0.24300002,0.41512042,0.62200004,0.93200004,0.55,0.95,70,2,0.28,-0.25100002,0.123,-3.4490001,2.409021,0,nan,0.0,3,1,20
99951717,1548265896600430,323874031,-1170763086,44843,10399,0.246,0.41533893,0.62100005,0.929,0.55,0.95,70,2,0.128,-0.124000005,0.030000001,-3.3060002,2.409021,0,nan,0.0,3,1,20
100151708,1548265896800430,323874029,-1170763086,45512,11068,0.31800002,0.41556042,0.624,0.933,0.55,0.95,70,2,0.108,-0.10700001,0.011000001,-3.3530002,2.409021,0,nan,0.0,3,1,20
100355727,1548265897000430,323874027,-1170763086,46162,11718,0.25300002,0.41577372,0.629,0.93100005,0.55,0.95,55,0,0.208,-0.20300001,-0.048,-3.2280002,2.409021,0,nan,0.0,3,1,20
100552775,1548265897200430,323874025,-1170763088,46745,12301,0.22800002,0.6543684,0.62700003,0.9250001,0.55,0.95,55,0,0.19100001,-0.19100001,0.0050000004,-3.006,2.6117227,0,nan,0.0,3,1,20
100755729,1548265897400430,323874024,-1170763086,47408,12964,0.22100002,0.4251395,0.625,0.92,0.55,0.95,55,0,0.275,-0.21800001,0.16800001,-2.953,2.522588,0,nan,0.0,3,1,20
100952011,1548265897600430,323874021,-1170763085,47951,13507,0.245,0.4253128,0.623,0.91800004,0.55,0.95,55,0,0.143,-0.135,-0.046000004,-2.683,2.522588,0,nan,0.0,3,1,20
101148764,1548265897800430,323874020,-1170763085,48488,14044,0.23900001,0.42548418,0.62100005,0.915,0.55,0.95,55,0,0.132,-0.132,0.010000001,-2.6560001,2.522588,0,nan,0.0,3,1,20
101355694,1548265898000430,323874020,-1170763086,48992,14548,0.23600002,0.42563778,0.619,0.9110001,0.55,0.95,56,2,0.025,0.012,-0.022000002,-2.384,2.522588,0,nan,0.0,3,1,20
101552841,1548265898200430,323874021,-1170763087,49415,14971,0.238,0.4257652,0.61700004,0.90700006,0.55,0.95,56,2,0.051000003,0.028,-0.043,-1.9760001,2.522588,0,nan,0.0,3,1,20
101752744,1548265898400430,323874022,-1170763088,49784,15340,0.23200001,0.42587793,0.614,0.90300006,0.55,0.95,56,2,0.043,-0.031000001,-0.031000001,-1.751,2.522588,0,nan,0.0,3,1,20
101951764,1548265898600430,323874022,-1170763088,50131,15687,0.22700001,0.42598075,0.61200005,0.89900005,0.55,0.95,56,2,0.135,-0.07700001,0.11100001,-1.59,2.522588,0,nan,0.0,3,1,20
102151711,1548265898800430,323874021,-1170763085,50452,16008,0.22800002,0.4260797,0.609,0.89400005,0.55,0.95,56,2,0.155,-0.081,0.133,-1.5320001,2.522588,0,nan,0.0,3,1,20
102353697,1548265899000430,323874019,-1170763083,50717,16273,0.24400002,0.4261654,0.60800004,0.892,0.55,0.95,56,2,0.020000001,-0.013,0.015000001,-1.3310001,2.522588,0,nan,0.0,3,1,20
102553698,1548265899200430,323874018,-1170763081,50987,16543,0.23900001,0.614274,0.60700005,0.88900006,0.55,0.95,56,2,0.19000001,-0.172,0.081,-1.0320001,2.581019,0,nan,0.0,3,1,20
102755697,1548265899400430,323874017,-1170763083,51136,16692,0.238,0.5499715,0.606,0.887,0.55,0.95,56,2,0.26200002,0.1,-0.24200001,-0.62,3.981836,0,nan,0.0,3,1,20
102954752,1548265899600430,323874018,-1170763084,51293,16849,0.23500001,0.54999423,0.60400003,0.88400006,0.55,0.95,56,2,0.029000001,-0.017,-0.023000002,-0.455,3.981836,0,nan,0.0,3,1,20
103151707,1548265899800430,323874017,-1170763087,51382,16938,0.177,0.65463877,0.60300004,0.882,0.55,0.95,56,2,0.27600002,-0.07700001,-0.26500002,-0.26000002,4.167889,0,nan,0.0,3,1,20
103354737,1548265900000430,323874017,-1170763091,51437,16993,0.21800001,0.6546478,0.60300004,0.88100004,0.55,0.95,56,3,0.14,0.095000006,-0.10300001,-0.13700001,4.167889,0,nan,0.0,3,1,20
103555218,1548265900200430,323874018,-1170763095,51447,17003,0.202,0.66402847,0.60300004,0.87900007,0.55,0.95,56,3,0.21900001,0.089,-0.201,0.019000001,4.641804,0,nan,0.0,3,1,20
103755702,1548265900400430,323874019,-1170763099,51433,16989,0.15900001,0.6640351,0.60200006,0.878,0.55,0.95,56,3,0.13700001,0.004,-0.13700001,0.003,4.641804,0,nan,0.0,3,1,20
103951829,1548265900600430,323874019,-1170763100,51420,16976,0.216,0.6640452,0.6,0.873,0.55,0.95,56,3,0.086,-0.019000001,-0.08400001,0.23,4.641804,0,nan,0.0,3,1,20
104151805,1548265900800430,323874020,-1170763102,51390,16946,0.21800001,0.6640558,0.597,0.87000006,0.55,0.95,56,3,0.071,0.061000004,-0.038000003,0.25,4.641804,0,nan,0.0,3,1,20
104352769,1548265901000429,323874021,-1170763102,51340,16896,0.263,0.66406775,0.59800005,0.87100005,0.55,0.95,64,2,0.158,0.158,0.006,0.23600002,4.641804,0,nan,0.0,3,1,20
104555697,1548265901200429,323874025,-1170763102,51314,16870,0.24100001,0.66407764,0.59900004,0.87000006,0.55,0.95,64,2,0.155,0.14,-0.067,0.16700001,4.641804,0,nan,0.0,3,1,20
104755699,1548265901400429,323874026,-1170763103,51276,16832,0.25,0.66408795,0.6,0.87000006,0.55,0.95,64,2,0.019000001,0.012,-0.015000001,0.19800001,4.641804,0,nan,0.0,3,1,20
104955718,1548265901600429,323874027,-1170763100,51274,16830,0.224,0.6640972,0.59900004,0.86600006,0.55,0.95,64,2,0.019000001,-0.0050000004,-0.019000001,0.141,4.641804,0,nan,0.0,3,1,20
105155696,1548265901800429,323874027,-1170763096,51339,16894,0.136,0.6641028,0.596,0.86100006,0.55,0.95,64,2,0.079,-0.07300001,-0.031000001,0.016,4.641804,0,nan,0.0,3,1,20
105366464,1548265902000429,323874025,-1170763092,51425,16981,0.155,0.6641091,0.59300005,0.85700005,0.55,0.95,64,8,0.14,-0.13900001,0.013,-0.056,4.641804,0,nan,0.0,3,1,20
105554752,1548265902200429,323874024,-1170763089,51487,17043,0.20600002,0.66411763,0.591,0.85400003,0.55,0.95,64,8,0.067,-0.035,-0.057000004,-0.187,4.641804,0,nan,0.0,3,1,20
105756766,1548265902400429,323874021,-1170763090,51566,17122,0.21700001,0.49677548,0.591,0.85300004,0.55,0.95,64,8,0.33,-0.32900003,-0.023000002,-0.42700002,3.7252235,0,nan,0.0,3,1,20
105951702,1548265902600429,323874019,-1170763090,51671,17227,0.24800001,0.49680394,0.592,0.85400003,0.57,0.95,64,8,0.09,0.038000003,-0.081,-0.508,3.7252235,0,nan,0.0,3,1,19
106151708,1548265902800429,323874019,-1170763091,51771,17327,0.23,0.49683413,0.59400004,0.85300004,0.55,0.95,64,8,0.079,-0.033,-0.072000004,-0.53900003,3.7252235,0,nan,0.0,3,1,20
106352760,1548265903000429,323874018,-1170763092,51891,17447,0.22800002,0.7470456,0.59400004,0.85200006,0.55,0.95,64,3,0.20600002,-0.20600002,0.001,-0.588,3.5450351,0,nan,0.0,3,1,20
106560769,1548265903200429,323874015,-1170763092,52023,17578,0.209,0.77735335,0.592,0.84900004,0.55,0.95,64,3,0.186,-0.17400001,-0.067,-0.65800005,3.5291717,0,nan,0.0,3,1,20
106747735,1548265903400429,323874014,-1170763094,52135,17690,0.20700002,0.7773745,0.59000003,0.84700006,0.55,0.95,64,3,0.17600001,-0.022000002,-0.17500001,-0.57600003,3.5291717,0,nan,0.0,3,1,20
106952766,1548265903600429,323874013,-1170763097,52199,17755,0.256,0.77738845,0.592,0.84800005,0.55,0.95,64,3,0.108,-0.025,-0.105000004,-0.37800002,3.5291717,0,nan,0.0,3,1,20
107152839,1548265903800429,323874011,-1170763096,52340,17896,0.246,0.5017652,0.59300005,0.84800005,0.55,0.95,64,3,0.25800002,-0.216,0.141,-0.56200004,2.8480947,0,nan,0.0,3,1,20
107351699,1548265904000429,323874009,-1170763094,52432,17988,0.273,0.50179505,0.595,0.851,0.55,0.95,64,5,0.07300001,-0.045,0.057000004,-0.54300004,2.8480947,0,nan,0.0,3,1,20
107552827,1548265904200429,323874008,-1170763093,52590,18146,0.261,0.50183606,0.59800005,0.851,0.55,0.95,64,5,0.079,-0.062000003,0.049000002,-0.74600005,2.8480947,0,nan,0.0,3,1,20
107754735,1548265904400429,323874008,-1170763092,52664,18220,0.254,0.50186294,0.59800005,0.85200006,0.55,0.95,64,5,0.029000001,0.009000001,-0.028,-0.492,2.8480947,0,nan,0.0,3,1,20
107954747,1548265904600429,323874006,-1170763089,52799,18355,0.256,0.50073093,0.59900004,0.85300004,0.55,0.95,64,5,0.33,-0.17500001,0.28,-0.52400005,2.4879987,0,nan,0.0,3,1,20
108150932,1548265904800429,323874004,-1170763084,52896,18452,0.34,0.5007515,0.60400003,0.859,0.55,0.95,64,5,0.171,-0.060000002,0.16000001,-0.337,2.4879987,0,nan,0.0,3,1,20
108355697,1548265905000429,323874003,-1170763081,52954,18510,0.28800002,0.50076896,0.61,0.86200005,0.55,0.95,64,4,0.108,-0.049000002,0.096,-0.298,2.4879987,0,nan,0.0,3,1,20
108555703,1548265905200429,323874002,-1170763076,53098,18654,0.22900002,0.50078744,0.609,0.85800004,0.55,0.95,64,4,0.113000005,-0.034,0.108,-0.319,2.4879987,0,nan,0.0,3,1,20
108754732,1548265905400429,323874001,-1170763072,53197,18753,0.23500001,0.50080717,0.60800004,0.855,0.55,0.95,64,4,0.045,-0.014,0.043,-0.35700002,2.4879987,0,nan,0.0,3,1,20
108954739,1548265905600429,323874001,-1170763071,53267,18823,0.33100003,0.5008276,0.61200005,0.86,0.55,0.95,64,4,0.091000006,-0.046000004,0.079,-0.363,2.4879987,0,nan,0.0,3,1,20
109154741,1548265905800429,323874002,-1170763074,53319,18875,0.29200003,0.48576647,0.619,0.864,0.55,0.95,64,4,0.43500003,0.216,-0.37800002,-0.40800002,3.9021301,0,nan,0.0,3,1,20
109355721,1548265906000429,323874002,-1170763079,53384,18940,0.23700002,0.48578358,0.624,0.86700004,0.55,0.95,69,1,0.202,-0.080000006,-0.185,-0.22800002,3.9021301,0,nan,0.0,3,1,20
109550902,1548265906200429,323874003,-1170763082,53466,19022,0.24300002,0.73820007,0.628,0.87000006,0.55,0.95,69,1,0.282,0.11800001,-0.256,-0.30100003,4.2779164,0,nan,0.0,3,1,20
109754741,1548265906400429,323874008,-1170763089,53509,19064,0.24200001,0.32674864,0.632,0.87500006,0.55,0.95,69,1,0.57900006,0.46300003,-0.347,-0.279,5.417057,0,nan,0.0,3,1,20
109952760,1548265906600429,323874020,-1170763098,53575,19130,0.266,0.19205898,0.63500005,0.88000005,0.55,0.95,69,1,1.085,0.91400003,-0.58400005,-0.349,5.638284,0,nan,0.0,3,1,20
110154737,1548265906800429,323874045,-1170763114,53632,19188,0.319,0.11444926,0.64000005,0.88500005,0.55,0.95,69,1,2.1000001,1.8770001,-0.94100004,-0.326,5.771347,0,nan,0.0,3,1,20
110352822,1548265907000429,323874082,-1170763132,53738,19294,0.238,0.10165809,0.64500004,0.89100003,0.55,0.95,69,1,2.398,2.2770002,-0.754,-0.44000003,5.8791866,0,nan,0.0,3,1,20
110552756,1548265907200429,323874131,-1170763149,53880,19436,0.264,0.086097084,0.64900005,0.90000004,0.55,0.95,69,1,3.2170002,3.0830002,-0.919,-0.71400005,5.946176,0,nan,0.0,3,1,20
110755700,1548265907400429,323874193,-1170763169,54021,19577,0.25300002,0.059435964,0.65300006,0.906,0.55,0.95,69,1,3.8650002,3.7330003,-1.0040001,-0.79300004,5.9968987,0,nan,0.0,3,1,20
110954750,1548265907600429,323874265,-1170763189,54216,19772,0.25,0.05341126,0.657,0.91200006,0.55,0.95,69,1,4.3320003,4.228,-0.94200003,-0.81500006,6.035093,0,nan,0.0,3,1,20
111150832,1548265907800429,323874345,-1170763212,54361,19917,0.27600002,0.052508924,0.661,0.919,0.55,0.95,69,1,4.7570004,4.618,-1.1400001,-1.039,6.038339,0,nan,0.0,3,1,20
111370763,1548265908000429,323874429,-1170763237,54627,20183,0.24100001,0.04592118,0.66400003,0.924,0.55,0.95,69,4,4.947,4.7860003,-1.253,-1.182,6.0317445,0,nan,0.0,3,1,20
111549756,1548265908200429,323874517,-1170763265,54851,20407,0.24700001,0.04813164,0.66700006,0.93000007,0.55,0.95,69,4,5.1130004,4.926,-1.3690001,-1.107,6.021718,0,nan,0.0,3,1,20
111749708,1548265908400429,323874607,-1170763295,54997,20553,0.27,0.049152832,0.671,0.938,0.55,0.95,69,4,5.255,5.056,-1.4330001,-0.87200004,6.0141096,0,nan,0.0,3,1,20
111953943,1548265908600429,323874696,-1170763321,55195,20751,0.18100001,0.03238371,0.67300004,0.94100004,0.55,0.95,69,4,5.059,4.9150004,-1.199,-0.809,6.0356126,0,nan,0.0,3,1,20
112151720,1548265908800429,323874784,-1170763347,55390,20946,0.172,0.032241464,0.671,0.94200003,0.55,0.95,69,4,4.918,4.7520003,-1.2700001,-0.887,6.0280123,0,nan,0.0,3,1,20
112347759,1548265909000429,323874873,-1170763376,55582,21138,0.32700002,0.059561625,0.67300004,0.95100003,0.55,0.95,69,2,5.2190003,5.013,-1.452,-0.58400005,6.0207124,0,nan,0.0,3,1,20
112555726,1548265909200429,323874960,-1170763405,55723,21279,0.324,0.0704263,0.68200004,0.96300006,0.55,0.95,69,2,4.7990003,4.635,-1.2420001,-0.69600004,6.0209756,0,nan,0.0,3,1,20
112755763,1548265909400429,323875045,-1170763433,55871,21427,0.25500003,0.060142122,0.689,0.97400004,0.55,0.95,69,2,4.899,4.704,-1.3700001,-0.62600005,6.008422,0,nan,0.0,3,1,20
112954746,1548265909600429,323875130,-1170763464,55950,21506,0.4,0.07150666,0.697,0.98800004,0.55,0.95,69,2,5.0030003,4.767,-1.519,-0.39100003,5.993853,0,nan,0.0,3,1,20
113155701,1548265909800429,323875211,-1170763496,55999,21555,0.328,0.06850941,0.707,1.0,0.55,0.95,69,2,4.546,4.2850003,-1.519,-0.23600002,5.966481,0,nan,0.0,3,1,20
113356827,1548265910000429,323875286,-1170763528,56033,21589,0.29200003,0.060412124,0.71400005,1.01,0.55,0.95,69,1,4.392,4.103,-1.565,0.022000002,5.9391155,0,nan,0.0,3,1,20
113556763,1548265910200429,323875357,-1170763559,56044,21600,0.282,0.06091635,0.71900004,1.0170001,0.55,0.95,69,1,4.051,3.7920003,-1.4280001,0.07700001,5.9309134,0,nan,0.0,3,1,20
113755704,1548265910400429,323875421,-1170763586,56050,21606,0.24300002,0.06288962,0.72200006,1.0220001,0.55,0.95,69,1,3.68,3.4620001,-1.2490001,0.157,5.9339237,0,nan,0.0,3,1,20
113960768,1548265910600428,323875481,-1170763612,56031,21587,0.27600002,0.065784946,0.72400004,1.0270001,0.55,0.95,69,1,3.3750002,3.0970001,-1.342,0.19800001,5.904715,0,nan,0.0,3,1,20
114159692,1548265910800428,323875534,-1170763639,56008,21564,0.27400002,0.08410444,0.72700006,1.034,0.55,0.95,69,1,2.966,2.7220001,-1.1780001,0.22600001,5.893069,0,nan,0.0,3,1,20
114360745,1548265911000428,323875580,-1170763662,55936,21492,0.27100003,0.09088959,0.731,1.041,0.55,0.95,64,3,2.654,2.421,-1.09,0.31500003,5.8777423,0,nan,0.0,3,1,20
114555708,1548265911200428,323875622,-1170763682,55879,21435,0.273,0.10050059,0.734,1.047,0.55,0.95,64,3,2.5570002,2.384,-0.9250001,0.321,5.8938565,0,nan,0.0,3,1,20
114754081,1548265911400428,323875663,-1170763699,55859,21415,0.27600002,0.114412606,0.73800004,1.0530001,0.55,0.95,64,3,2.3170002,2.1910002,-0.753,0.372,5.9193816,0,nan,0.0,3,1,20
114953709,1548265911600428,323875701,-1170763716,55821,21377,0.26500002,0.12713064,0.74100006,1.059,0.55,0.95,64,3,2.066,1.9020001,-0.80600005,0.24800001,5.902663,0,nan,0.0,3,1,20
115153698,1548265911800428,323875734,-1170763732,55802,21358,0.273,0.13765323,0.74500006,1.0660001,0.55,0.95,64,3,1.8130001,1.641,-0.77000004,0.22800002,5.8758,0,nan,0.0,3,1,20
115354778,1548265912000428,323875763,-1170763747,55811,21367,0.256,0.14773706,0.748,1.0730001,0.55,0.95,64,4,1.6830001,1.5530001,-0.648,0.15300001,5.8814764,0,nan,0.0,3,1,20
115554744,1548265912200428,323875790,-1170763759,55821,21377,0.25800002,0.14950106,0.75100005,1.08,0.55,0.95,64,4,1.6530001,1.531,-0.623,0.067,5.8890996,0,nan,0.0,3,1,20
115754219,1548265912400428,323875813,-1170763768,55733,21289,0.26500002,0.19859158,0.754,1.087,0.55,0.95,64,4,1.3050001,1.202,-0.507,0.09200001,5.887354,0,nan,0.0,3,1,20
115955720,1548265912600428,323875837,-1170763780,55739,21295,0.30400002,0.18459666,0.757,1.0940001,0.55,0.95,64,4,1.4000001,1.279,-0.569,0.074,5.875145,0,nan,0.0,3,1,20
116157696,1548265912800428,323875860,-1170763790,55748,21305,0.263,0.19190888,0.76100004,1.1,0.55,0.95,64,4,1.276,1.213,-0.39600003,0.076000005,5.9197116,0,nan,0.0,3,1,20
116352633,1548265913000428,323875882,-1170763800,55785,21341,0.24400002,0.16918226,0.763,1.102,0.55,0.95,60,8,1.297,1.22,-0.44000003,0.053000003,5.9293375,0,nan,0.0,3,1,20
116555754,1548265913200428,323875904,-1170763809,55808,21364,0.259,0.19767667,0.76400006,1.105,0.55,0.95,60,8,1.1350001,1.0680001,-0.386,-0.017,5.9323516,0,nan,0.0,3,1,20
116759705,1548265913400428,323875922,-1170763817,55832,21388,0.24700001,0.2468323,0.76500005,1.1090001,0.55,0.95,60,8,0.933,0.88900006,-0.282,0.002,5.9495897,0,nan,0.0,3,1,20
116960901,1548265913600428,323875939,-1170763822,55828,21384,0.231,0.23540807,0.76600003,1.113,0.55,0.95,60,8,1.0400001,1.006,-0.264,-0.062000003,5.9900327,0,nan,0.0,3,1,20
117160953,1548265913800428,323875957,-1170763828,55849,21405,0.266,0.24087061,0.768,1.1170001,0.55,0.95,60,8,0.94900006,0.896,-0.31300002,-0.136,5.9691386,0,nan,0.0,3,1,20
117368906,1548265914000428,323875972,-1170763835,55847,21404,0.28800002,0.2728714,0.772,1.1220001,0.55,0.95,60,1,0.85600007,0.77800006,-0.356,0.05,5.9186864,0,nan,0.0,3,1,20
117560745,1548265914200428,323875988,-1170763845,55892,21448,0.25300002,0.21822844,0.77400005,1.1270001,0.55,0.95,60,1,1.056,0.95600003,-0.44900003,-0.087000005,5.873367,0,nan,0.0,3,1,20
117755707,1548265914400428,323876004,-1170763853,55917,21473,0.27800003,0.26020554,0.776,1.131,0.55,0.95,60,1,0.91600007,0.86300004,-0.30800003,-0.096,5.90099,0,nan,0.0,3,1,20
117959714,1548265914600428,323876018,-1170763860,55901,21457,0.24700001,0.268137,0.77800006,1.1350001,0.55,0.95,60,1,0.851,0.791,-0.314,0.19600001,5.9029245,0,nan,0.0,3,1,20
118155760,1548265914800428,323876032,-1170763866,55861,21418,0.30400002,0.3188322,0.781,1.1400001,0.55,0.95,60,1,0.77800006,0.76100004,-0.16100001,0.11400001,5.97421,0,nan,0.0,3,1,20
118364757,1548265915000428,323876046,-1170763870,55872,21428,0.26000002,0.26575515,0.78300005,1.143,0.55,0.95,59,1,0.86500007,0.823,-0.266,0.1,5.9720707,0,nan,0.0,3,1,20
118561710,1548265915200428,323876059,-1170763876,55842,21399,0.231,0.36212194,0.785,1.146,0.55,0.95,59,1,0.642,0.61,-0.201,0.097,5.9695096,0,nan,0.0,3,1,20
118761697,1548265915400428,323876070,-1170763878,55786,21342,0.24800001,0.46069428,0.786,1.151,0.55,0.95,59,1,0.56700003,0.56600004,-0.024,0.21900001,6.0732565,0,nan,0.0,3,1,20
118955703,1548265915600428,323876080,-1170763878,55765,21321,0.24800001,0.5215328,0.78700006,1.1550001,0.55,0.95,59,1,0.48400003,0.47400004,-0.094000004,0.17,6.079189,0,nan,0.0,3,1,20
119163712,1548265915800428,323876090,-1170763879,55738,21294,0.27600002,0.4353008,0.78800005,1.1580001,0.55,0.95,59,1,0.564,0.564,0.014,0.35900003,6.2145677,0,nan,0.0,3,1,20
119359841,1548265916000428,323876100,-1170763878,55702,21259,0.29000002,0.43991563,0.791,1.1620001,0.55,0.95,59,3,0.582,0.58100003,0.036000002,0.38700002,6.2795167,0,nan,0.0,3,1,20
119560759,1548265916200428,323876112,-1170763877,55617,21173,0.26200002,0.30885118,0.79200006,1.1650001,0.55,0.95,59,3,0.777,0.776,-0.038000003,0.437,6.249521,0,nan,0.0,3,1,20
119758935,1548265916400428,323876125,-1170763872,55513,21069,0.24200001,0.40680218,0.794,1.166,0.55,0.95,59,3,0.72300005,0.62600005,0.36,0.53800005,0.16956449,0,nan,0.0,3,1,20
119953727,1548265916600428,323876137,-1170763860,55468,21024,0.26900002,0.3748454,0.79800004,1.171,0.57,0.95,59,3,0.966,0.66200006,0.70400006,0.40100002,0.5195309,0,nan,0.0,3,1,19
120155699,1548265916800428,323876149,-1170763836,55374,20930,0.272,0.2616128,0.804,1.1780001,0.55,0.95,59,3,1.5500001,0.69000006,1.388,0.467,0.9165249,0,nan,0.0,3,1,20
120357216,1548265917000428,323876158,-1170763795,55301,20857,0.28300002,0.16330783,0.81100005,1.1830001,0.55,0.95,56,2,2.3070002,0.34800002,2.2810001,0.44300002,1.2785941,0,nan,0.0,3,1,20
120581697,1548265917200428,323876164,-1170763739,55217,20773,0.32200003,0.12950289,0.81900007,1.1910001,0.55,0.95,56,2,2.969,0.29500002,2.9540002,0.33400002,1.3970836,0,nan,0.0,3,1,20
120761743,1548265917400428,323876167,-1170763665,55210,20766,0.307,0.099527396,0.82600003,1.199,0.55,0.95,56,2,3.8070002,-0.039,3.8070002,0.38000003,1.5132309,0,nan,0.0,3,1,20
120958736,1548265917600428,323876170,-1170763584,55105,20661,0.305,0.10194048,0.83400005,1.205,0.55,0.95,56,2,4.085,0.272,4.076,0.587,1.5087748,0,nan,0.0,3,1,20
121157697,1548265917800428,323876172,-1170763494,55074,20630,0.328,0.09277489,0.84200007,1.212,0.55,0.95,56,2,4.3360004,-0.08800001,4.335,0.404,1.5542151,0,nan,0.0,3,1,20
121370760,1548265918000428,323876172,-1170763396,55101,20657,0.28300002,0.08318518,0.85,1.2190001,0.55,0.95,53,1,4.9690003,-0.065000005,4.9690003,0.19800001,1.5709265,0,nan,0.0,3,1,20
121558735,1548265918200428,323876175,-1170763290,55104,20660,0.32200003,0.08123181,0.85700005,1.2260001,0.55,0.95,53,1,4.9410005,0.33800003,4.9290004,0.124000005,1.5351518,0,nan,0.0,3,1,20
121761696,1548265918400428,323876178,-1170763184,55092,20648,0.31500003,0.073716946,0.86500007,1.23,0.55,0.95,53,1,5.0550003,0.048,5.0550003,0.18900001,1.5497965,0,nan,0.0,3,1,20
121958755,1548265918600428,323876179,-1170763077,55088,20644,0.282,0.07103158,0.87100005,1.2320001,0.55,0.95,53,1,5.1600003,0.025,5.1600003,0.095000006,1.558388,0,nan,0.0,3,1,20
122161726,1548265918800428,323876181,-1170762969,55047,20603,0.323,0.07925889,0.87700003,1.2360001,0.55,0.95,53,1,4.9410005,0.11100001,4.94,0.33,1.5538124,0,nan,0.0,3,1,20
122358739,1548265919000428,323876188,-1170762867,54960,20517,0.194,0.065759465,0.88000005,1.228,0.55,0.95,52,4,4.9680004,0.526,4.94,0.517,1.5000964,0,nan,0.0,3,1,20
122558737,1548265919200428,323876197,-1170762765,54875,20431,0.20700002,0.0571796,0.88000005,1.223,0.55,0.95,52,4,4.875,0.46600002,4.852,0.69100004,1.4854542,0,nan,0.0,3,1,20
122758774,1548265919400428,323876206,-1170762661,54763,20319,0.209,0.05476354,0.87900007,1.2210001,0.55,0.95,52,4,4.9620004,0.555,4.931,0.615,1.4709865,0,nan,0.0,3,1,20
122955698,1548265919600428,323876216,-1170762553,54704,20260,0.18,0.051985502,0.87700003,1.2160001,0.55,0.95,52,4,5.0290003,0.638,4.9880004,0.526,1.4559273,0,nan,0.0,3,1,20
123153729,1548265919800428,323876225,-1170762446,54612,20168,0.19000001,0.05086256,0.87500006,1.2110001,0.55,0.95,52,4,4.9160004,0.47800002,4.893,0.485,1.4653171,0,nan,0.0,3,1,20
123365233,1548265920000428,323876233,-1170762336,54553,20110,0.21000001,0.049652867,0.873,1.2080001,0.55,0.95,49,1,5.117,0.43300003,5.098,0.24700001,1.4765203,0,nan,0.0,3,1,20
123558754,1548265920200427,323876241,-1170762228,54455,20011,0.18,0.046739567,0.87000006,1.1980001,0.55,0.95,49,1,5.0490003,0.53900003,5.0200005,0.29000002,1.4694523,0,nan,0.0,3,1,20
123761702,1548265920400427,323876248,-1170762119,54358,19914,0.177,0.042800184,0.86600006,1.189,0.55,0.95,49,1,4.815,0.317,4.8040004,0.35500002,1.4897512,0,nan,0.0,3,1,20
123958752,1548265920600427,323876252,-1170762011,54313,19869,0.179,0.037411306,0.86300004,1.1800001,0.55,0.95,49,1,5.155,0.23900001,5.15,0.20400001,1.5106676,0,nan,0.0,3,1,20
124155696,1548265920800427,323876255,-1170761902,54267,19824,0.177,0.044227164,0.859,1.172,0.55,0.95,49,1,4.913,0.24000001,4.907,0.192,1.5158622,0,nan,0.0,3,1,20
124359771,1548265921000427,323876257,-1170761797,54217,19774,0.18,0.04249283,0.85600007,1.164,0.55,0.95,49,2,5.039,0.18300001,5.0360003,0.018000001,1.5261523,0,nan,0.0,3,1,20
124559694,1548265921200427,323876256,-1170761690,54135,19692,0.149,0.035539612,0.851,1.151,0.55,0.95,49,2,5.03,0.006,5.03,0.089,1.5531627,0,nan,0.0,3,1,20
124758754,1548265921400427,323876257,-1170761584,54064,19621,0.164,0.041890867,0.84700006,1.141,0.55,0.95,49,2,5.031,0.142,5.0290003,0.09,1.5482519,0,nan,0.0,3,1,20
124957698,1548265921600427,323876262,-1170761479,54108,19664,0.158,0.04045638,0.84300005,1.13,0.55,0.95,49,2,5.089,0.066,5.089,0.011000001,1.5535707,0,nan,0.0,3,1,20
125157229,1548265921800427,323876262,-1170761371,54169,19726,0.172,0.04426521,0.83900005,1.121,0.57,0.95,49,2,4.986,-0.036000002,4.986,0.014,1.5656301,0,nan,0.0,3,1,19
125358767,1548265922000427,323876261,-1170761263,54275,19832,0.171,0.041089237,0.836,1.1110001,0.57,0.95,53,3,5.0280004,0.095000006,5.0270004,-0.16800001,1.5577862,0,nan,0.0,3,1,19
125560763,1548265922200427,323876262,-1170761159,54305,19862,0.192,0.043857154,0.83400005,1.1040001,0.55,0.95,53,3,5.006,0.231,5.0010004,-0.124000005,1.5410876,0,nan,0.0,3,1,20
125765729,1548265922400427,323876266,-1170761057,54331,19887,0.171,0.039484754,0.83100003,1.097,0.55,0.95,53,3,4.801,0.120000005,4.8,-0.035,1.5438339,0,nan,0.0,3,1,20
125958994,1548265922600427,323876268,-1170760953,54383,19940,0.158,0.04383813,0.82800007,1.087,0.55,0.95,53,3,4.9870005,0.10700001,4.986,-0.013,1.546517,0,nan,0.0,3,1,20
126159697,1548265922800427,323876271,-1170760847,54410,19967,0.178,0.044451788,0.82500005,1.0780001,0.55,0.95,53,3,4.953,0.177,4.9500003,0.053000003,1.5404484,0,nan,0.0,3,1,20
126359700,1548265923000427,323876276,-1170760742,54396,19952,0.19100001,0.044671874,0.82400006,1.072,0.55,0.95,53,2,4.965,0.18400002,4.9620004,0.098000005,1.5368747,0,nan,0.0,3,1,20
126558791,1548265923200427,323876279,-1170760635,54394,19950,0.16900001,0.041379835,0.82100004,1.0660001,0.55,0.95,53,2,5.1000004,0.147,5.098,0.071,1.5397655,0,nan,0.0,3,1,20
126755699,1548265923400427,323876280,-1170760527,54375,19931,0.19500001,0.04007485,0.81900007,1.062,0.55,0.95,53,2,5.214,-0.031000001,5.214,0.05,1.5603015,0,nan,0.0,3,1,20
126954747,1548265923600427,323876279,-1170760417,54379,19936,0.178,0.038655374,0.818,1.057,0.55,0.95,53,2,5.2850003,0.056,5.2850003,0.028,1.5601963,0,nan,0.0,3,1,20
127154750,1548265923800427,323876281,-1170760313,54323,19880,0.201,0.048799753,0.81700003,1.056,0.55,0.95,53,2,4.964,0.263,4.9570003,0.17400001,1.5421346,0,nan,0.0,3,1,20
127355702,1548265924000427,323876281,-1170760207,54373,19929,0.193,0.043185204,0.81600004,1.054,0.55,0.95,53,4,5.2120004,-0.082,5.2110004,0.029000001,1.5683088,0,nan,0.0,3,1,20
127558875,1548265924200427,323876279,-1170760098,54372,19929,0.201,0.043384343,0.81600004,1.0530001,0.55,0.95,53,4,5.333,0.020000001,5.333,0.031000001,1.567638,0,nan,0.0,3,1,20
127758741,1548265924400427,323876279,-1170759987,54382,19938,0.16900001,0.038126715,0.814,1.052,0.55,0.95,53,4,5.309,-0.002,5.309,0.055000003,1.5697759,0,nan,0.0,3,1,20
127955706,1548265924600427,323876277,-1170759876,54386,19943,0.21900001,0.048917387,0.814,1.054,0.55,0.95,53,4,5.2390003,-0.066,5.2390003,0.08800001,1.575551,0,nan,0.0,3,1,20
128155708,1548265924800427,323876277,-1170759768,54400,19957,0.20700002,0.051724225,0.814,1.056,0.55,0.95,53,4,5.2370005,0.035,5.2370005,-0.033,1.5698178,0,nan,0.0,3,1,20
128358932,1548265925000427,323876275,-1170759659,54463,20020,0.18800001,0.049586546,0.814,1.057,0.55,0.95,53,5,5.1580005,0.126,5.156,-0.025,1.5569605,0,nan,0.0,3,1,20
128555754,1548265925200427,323876277,-1170759551,54528,20084,0.21700001,0.050676852,0.814,1.0580001,0.55,0.95,53,5,5.19,0.257,5.184,-0.148,1.538563,0,nan,0.0,3,1,20
128758101,1548265925400427,323876281,-1170759445,54539,20096,0.21300001,0.05290145,0.814,1.0600001,0.55,0.95,53,5,4.921,0.19100001,4.9170003,-0.157,1.5352424,0,nan,0.0,3,1,20
128955703,1548265925600427,323876284,-1170759340,54575,20131,0.22800002,0.05216876,0.81600004,1.0610001,0.55,0.95,53,5,5.0480003,0.202,5.044,-0.287,1.5328177,0,nan,0.0,3,1,20
129161762,1548265925800427,323876288,-1170759234,54609,20165,0.20300001,0.04280699,0.81600004,1.0600001,0.55,0.95,53,5,5.1070004,0.20500001,5.103,-0.09200001,1.5314413,0,nan,0.0,3,1,20
129361698,1548265926000427,323876291,-1170759129,54616,20173,0.21700001,0.047471557,0.81600004,1.059,0.55,0.95,53,3,5.0220003,0.29200003,5.013,-0.115,1.5223098,0,nan,0.0,3,1,20
129558735,1548265926200427,323876293,-1170759020,54694,20251,0.23300001,0.05016547,0.81600004,1.059,0.55,0.95,53,3,5.116,0.091000006,5.1150002,-0.192,1.537753,0,nan,0.0,3,1,20
129757731,1548265926400427,323876293,-1170758910,54705,20262,0.21100001,0.04736073,0.81600004,1.0580001,0.55,0.95,53,3,5.0350003,0.20700002,5.031,-0.07700001,1.5332179,0,nan,0.0,3,1,20
129957701,1548265926600427,323876297,-1170758801,54747,20304,0.18800001,0.046920206,0.81600004,1.0550001,0.55,0.95,53,3,5.0800004,0.29000002,5.072,-0.128,1.5227935,0,nan,0.0,3,1,20
130157700,1548265926800427,323876300,-1170758691,54807,20363,0.186,0.045247834,0.81600004,1.052,0.55,0.95,53,3,5.294,0.21300001,5.289,-0.19100001,1.5269998,0,nan,0.0,3,1,20
130360816,1548265927000427,323876304,-1170758581,54859,20416,0.216,0.048097957,0.81600004,1.0500001,0.55,0.95,56,26,5.1200004,0.29500002,5.1120005,-0.162,1.5200884,0,nan,0.0,3,1,20
130561772,1548265927200427,323876309,-1170758473,54889,20446,0.23200001,0.042880468,0.81700003,1.0500001,0.55,0.95,56,26,5.1120005,0.252,5.1060004,-0.156,1.5208743,0,nan,0.0,3,1,20
130765752,1548265927400427,323876314,-1170758365,54880,20437,0.223,0.044392098,0.81700003,1.0500001,0.55,0.95,56,26,5.1210003,0.29900002,5.1130004,-0.113000005,1.5164957,0,nan,0.0,3,1,20
130959699,1548265927600427,323876317,-1170758255,54876,20433,0.21400002,0.04393168,0.81700003,1.049,0.55,0.95,56,26,5.162,0.208,5.1580005,-0.16600001,1.5240034,0,nan,0.0,3,1,20
131158805,1548265927800427,323876320,-1170758149,54876,20433,0.20400001,0.049451806,0.818,1.049,0.55,0.95,56,26,4.899,0.15100001,4.8970003,-0.08400001,1.5315542,0,nan,0.0,3,1,20
131362799,1548265928000427,323876322,-1170758044,54864,20421,0.224,0.0462692,0.81900007,1.049,0.55,0.95,56,4,5.01,0.24700001,5.004,-0.004,1.525934,0,nan,0.0,3,1,20
131558956,1548265928200427,323876325,-1170757937,54862,20418,0.24000001,0.051493317,0.82000005,1.049,0.56,0.96999997,56,4,5.032,0.115,5.031,-0.07700001,1.5364643,0,nan,0.0,3,1,19
131772851,1548265928400427,323876326,-1170757831,54855,20411,0.23700002,0.0510706,0.822,1.0480001,0.56,0.96999997,56,4,5.109,0.15400001,5.1070004,-0.001,1.538723,0,nan,0.0,3,1,19
131955704,1548265928600427,323876325,-1170757727,54897,20454,0.20700002,0.047377307,0.822,1.047,0.56,0.96999997,56,4,5.1410003,-0.093,5.1400003,-0.30200002,1.5669922,0,nan,0.0,3,1,19
132162740,1548265928800427,323876324,-1170757625,54982,20539,0.17600001,0.05103639,0.822,1.042,0.55,0.95,56,4,4.887,0.082,4.886,-0.216,1.560584,0,nan,0.0,3,1,20
132364746,1548265929000427,323876326,-1170757523,55069,20626,0.185,0.05074178,0.82000005,1.0380001,0.55,0.95,56,1,4.9880004,0.065000005,4.9880004,-0.287,1.5590652,0,nan,0.0,3,1,20
132562741,1548265929200427,323876327,-1170757418,55213,20770,0.18800001,0.04759722,0.81900007,1.034,0.55,0.95,56,1,4.999,-0.044000003,4.999,-0.17,1.5704921,0,nan,0.0,3,1,20
132760766,1548265929400426,323876328,-1170757316,55264,20821,0.22700001,0.05563289,0.81900007,1.0350001,0.55,0.95,56,1,4.8310003,0.14600001,4.829,-0.18300001,1.5569905,0,nan,0.0,3,1,20
132960744,1548265929600426,323876329,-1170757214,55291,20848,0.22900002,0.05275746,0.81900007,1.036,0.55,0.95,56,1,4.8770003,0.05,4.8770003,-0.106000006,1.5589088,0,nan,0.0,3,1,20
133159719,1548265929800426,323876329,-1170757111,55338,20895,0.21800001,0.05057004,0.82000005,1.036,0.55,0.95,56,1,4.9150004,0.082,4.914,-0.15200001,1.5562903,0,nan,0.0,3,1,20
133358996,1548265930000426,323876328,-1170757010,55378,20935,0.19600001,0.05095628,0.82000005,1.036,0.55,0.95,56,4,4.9350004,0.18800001,4.931,-0.124000005,1.5439825,0,nan,0.0,3,1,20
133562842,1548265930200426,323876328,-1170756908,55468,21025,0.21700001,0.05173714,0.82100004,1.036,0.55,0.95,56,4,5.0340004,0.094000004,5.0330005,-0.172,1.5482231,0,nan,0.0,3,1,20
133764758,1548265930400426,323876328,-1170756805,55516,21072,0.20700002,0.053524185,0.822,1.036,0.55,0.95,56,4,4.8960004,0.034,4.8960004,-0.34,1.5561552,0,nan,0.0,3,1,20
133962743,1548265930600426,323876329,-1170756703,55600,21157,0.192,0.05414657,0.823,1.0350001,0.55,0.95,56,4,4.9300003,0.15300001,4.927,-0.23900001,1.5477092,0,nan,0.0,3,1,20
134161708,1548265930800426,323876331,-1170756600,55642,21199,0.209,0.052198257,0.823,1.0350001,0.55,0.95,56,4,4.892,0.09,4.8910003,-0.097,1.5502944,0,nan,0.0,3,1,20
134358736,1548265931000426,323876334,-1170756496,55672,21229,0.22600001,0.05387447,0.82400006,1.0370001,0.55,0.95,56,4,4.8760004,0.14600001,4.874,-0.19500001,1.5455081,0,nan,0.0,3,1,20
134553705,1548265931200426,323876337,-1170756393,55710,21267,0.23400001,0.05161462,0.82500005,1.0380001,0.55,0.95,56,4,4.8820004,0.12900001,4.88,-0.125,1.5449375,0,nan,0.0,3,1,20
134761811,1548265931400426,323876339,-1170756287,55781,21338,0.21400002,0.05007402,0.82500005,1.0380001,0.55,0.95,56,4,4.9280005,0.135,4.926,-0.15900001,1.5440903,0,nan,0.0,3,1,20
134961699,1548265931600426,323876341,-1170756178,55832,21389,0.224,0.05233509,0.82600003,1.0380001,0.55,0.95,56,4,5.0550003,0.13100001,5.0540004,-0.16000001,1.5445216,0,nan,0.0,3,1,20
135161756,1548265931800426,323876343,-1170756069,55897,21454,0.187,0.047564235,0.82600003,1.0370001,0.55,0.95,56,4,5.1130004,0.007,5.1130004,-0.105000004,1.5587528,0,nan,0.0,3,1,20
135374746,1548265932000426,323876345,-1170755959,55963,21520,0.178,0.04830722,0.82500005,1.0350001,0.55,0.95,56,1,5.122,0.049000002,5.122,0.020000001,1.5600785,0,nan,0.0,3,1,20
135560781,1548265932200426,323876345,-1170755851,56011,21568,0.17500001,0.045315377,0.823,1.033,0.55,0.95,56,1,5.097,-0.027,5.096,-0.044000003,1.5690527,0,nan,0.0,3,1,20
135772761,1548265932400426,323876345,-1170755743,56029,21586,0.20700002,0.04704203,0.823,1.0320001,0.55,0.95,56,1,5.1200004,-0.022000002,5.1200004,-0.020000001,1.5721841,0,nan,0.0,3,1,20
135964846,1548265932600426,323876345,-1170755633,56036,21593,0.192,0.04646869,0.822,1.028,0.55,0.95,56,1,5.09,-0.075,5.089,0.046000004,1.5792956,0,nan,0.0,3,1,20
136164743,1548265932800426,323876345,-1170755523,56073,21630,0.19000001,0.04830251,0.82100004,1.0250001,0.55,0.95,56,1,5.17,-0.093,5.169,0.013,1.5841868,0,nan,0.0,3,1,20
136365715,1548265933000426,323876345,-1170755415,56092,21649,0.19000001,0.054392833,0.82000005,1.0250001,0.55,0.95,56,1,5.1330004,0.072000004,5.1320004,0.003,1.5713307,0,nan,0.0,3,1,20
136567744,1548265933200426,323876347,-1170755305,56122,21679,0.18100001,0.048031457,0.82000005,1.0250001,0.55,0.95,56,1,5.176,-0.045,5.176,0.068,1.5760951,0,nan,0.0,3,1,20
136767698,1548265933400426,323876347,-1170755196,56159,21716,0.20600002,0.0496417,0.82000005,1.024,0.55,0.95,56,1,5.004,-0.119,5.0030003,0.030000001,1.5855787,0,nan,0.0,3,1,20
136966935,1548265933600426,323876347,-1170755089,56134,21691,0.193,0.049062073,0.81900007,1.024,0.55,0.95,56,1,4.907,-0.032,4.907,0.24100001,1.5811914,0,nan,0.0,3,1,20
137158956,1548265933800426,323876348,-1170754983,56200,21757,0.19900002,0.051650923,0.81900007,1.0250001,0.55,0.95,56,1,4.985,0.086,4.984,-0.05,1.5672864,0,nan,0.0,3,1,20
137370736,1548265934000426,323876348,-1170754881,56277,21834,0.21100001,0.047550097,0.81900007,1.026,0.55,0.95,56,3,4.754,-0.029000001,4.754,-0.29900002,1.5726845,0,nan,0.0,3,1,20
137568905,1548265934200426,323876347,-1170754785,56361,21918,0.238,0.058284916,0.82000005,1.028,0.55,0.95,56,3,4.3560004,0.028,4.3560004,-0.21000001,1.5691829,0,nan,0.0,3,1,20
137769696,1548265934400426,323876348,-1170754695,56352,21909,0.24900001,0.06249465,0.82100004,1.0300001,0.55,0.95,56,3,4.143,0.086,4.142,0.17500001,1.5600129,0,nan,0.0,3,1,20
137965708,1548265934600426,323876350,-1170754609,56280,21837,0.224,0.05970317,0.822,1.0300001,0.55,0.95,56,3,4.031,0.096,4.03,0.26500002,1.5530308,0,nan,0.0,3,1,20
138165706,1548265934800426,323876353,-1170754530,56170,21727,0.21000001,0.06699725,0.822,1.0300001,0.55,0.95,56,3,3.65,0.15400001,3.6460001,0.43400002,1.5419161,0,nan,0.0,3,1,20
138364765,1548265935000426,323876355,-1170754455,56123,21680,0.23300001,0.07237165,0.823,1.029,0.55,0.95,56,2,3.3620002,0.091000006,3.361,0.49100003,1.5428312,0,nan,0.0,3,1,20
138567722,1548265935200426,323876358,-1170754387,56030,21587,0.20600002,0.083800755,0.823,1.028,0.55,0.95,56,2,3.081,0.128,3.0790002,0.56100005,1.536961,0,nan,0.0,3,1,20
138764733,1548265935400426,323876360,-1170754323,55916,21473,0.21100001,0.08602116,0.823,1.0270001,0.55,0.95,56,2,2.904,0.127,2.901,0.54800004,1.5321287,0,nan,0.0,3,1,20
138963710,1548265935600426,323876363,-1170754267,55804,21361,0.178,0.09147742,0.822,1.0250001,0.55,0.95,56,2,2.5340002,0.22000001,2.525,0.57500005,1.5092038,0,nan,0.0,3,1,20
139164941,1548265935800426,323876366,-1170754215,55688,21245,0.20600002,0.10086868,0.82100004,1.026,0.55,0.95,56,2,2.443,0.18800001,2.436,0.49500003,1.5022348,0,nan,0.0,3,1,20
139365740,1548265936000426,323876368,-1170754166,55575,21132,0.20400001,0.09119502,0.82000005,1.0270001,0.55,0.95,56,5,2.305,0.091000006,2.3030002,0.51600003,1.5183758,0,nan,0.0,3,1,20
139565699,1548265936200426,323876370,-1170754120,55490,21047,0.19700001,0.10436021,0.81900007,1.0270001,0.55,0.95,56,5,2.088,0.19500001,2.079,0.374,1.500397,0,nan,0.0,3,1,20
139755701,1548265936400426,323876372,-1170754079,55403,20960,0.202,0.12477166,0.818,1.0270001,0.55,0.95,56,5,1.8880001,-0.027,1.8880001,0.48800004,1.5353811,0,nan,0.0,3,1,20
139964746,1548265936600426,323876373,-1170754042,55325,20882,0.20600002,0.15014787,0.81700003,1.028,0.55,0.95,56,5,1.6200001,0.035,1.6200001,0.23500001,1.5409352,0,nan,0.0,3,1,20
140163739,1548265936800426,323876373,-1170754007,55330,20887,0.20300001,0.14338385,0.81700003,1.028,0.55,0.95,56,5,1.6560001,-0.036000002,1.6560001,0.028,1.5678269,0,nan,0.0,3,1,20
140359720,1548265937000426,323876371,-1170753974,55219,20776,0.19900002,0.14126956,0.81600004,1.026,0.55,0.95,56,2,1.6090001,-0.18400002,1.598,0.31800002,1.6277136,0,nan,0.0,3,1,20
140556442,1548265937200426,323876369,-1170753945,55131,20689,0.20300001,0.19002359,0.81500006,1.026,0.55,0.95,56,2,1.21,0.024,1.2090001,0.39400002,1.6002777,0,nan,0.0,3,1,20
140759703,1548265937400426,323876368,-1170753919,55066,20624,0.215,0.1930402,0.81500006,1.0250001,0.55,0.95,56,2,1.238,-0.069000006,1.2360001,0.324,1.6132017,0,nan,0.0,3,1,20
140957706,1548265937600426,323876367,-1170753895,54988,20545,0.20300001,0.19572155,0.814,1.024,0.55,0.95,56,2,1.1320001,-0.052,1.131,0.312,1.6150692,0,nan,0.0,3,1,20
141156998,1548265937800426,323876367,-1170753874,54915,20473,0.2,0.22669783,0.81200004,1.023,0.55,0.95,56,2,0.90800005,-0.043,0.90700006,0.45600003,1.6165526,0,nan,0.0,3,1,20
141372859,1548265938000426,323876366,-1170753855,54825,20383,0.215,0.23228009,0.81100005,1.0220001,0.57,0.95,56,3,0.966,-0.091000006,0.961,0.252,1.6402227,0,nan,0.0,4,1,19
141556520,1548265938200426,323876364,-1170753838,54764,20321,0.18400002,0.26446483,0.81000006,1.021,0.57,0.95,56,3,0.794,-0.112,0.786,0.067,1.671507,0,nan,0.0,4,1,19
141760758,1548265938400426,323876361,-1170753821,54793,20351,0.202,0.28769186,0.808,1.018,0.57,0.95,56,3,0.74300003,-0.162,0.725,-0.037,1.725908,0,nan,0.0,4,1,19
141956423,1548265938600426,323876358,-1170753806,54797,20354,0.224,0.32307822,0.808,1.0170001,0.57,0.95,56,3,0.684,-0.125,0.67200005,-0.21000001,1.7389594,0,nan,0.0,4,1,19
142159697,1548265938800425,323876356,-1170753793,54812,20369,0.252,0.38516533,0.808,1.016,0.57,0.95,56,3,0.614,-0.044000003,0.61200005,-0.43600002,1.6990291,0,nan,0.0,4,1,19
142353707,1548265939000425,323876354,-1170753778,54858,20415,0.23300001,0.33176664,0.808,1.0150001,0.57,0.95,56,5,0.68200004,-0.126,0.67,-0.296,1.7317554,0,nan,0.0,4,1,19
142556869,1548265939200425,323876353,-1170753767,54922,20479,0.26200002,0.63581836,0.808,1.013,0.57,0.95,56,5,0.377,0.020000001,0.37600002,-0.51600003,1.6856498,0,nan,0.0,4,1,19
142759703,1548265939400425,323876355,-1170753759,55002,20560,0.26000002,0.56984526,0.808,1.0120001,0.57,0.95,56,5,0.41500002,0.078,0.40800002,-0.545,1.5175446,0,nan,0.0,4,1,19
142959703,1548265939600425,323876356,-1170753752,55089,20646,0.25100002,0.5969155,0.808,1.014,0.57,0.95,56,5,0.43,0.13800001,0.407,-0.425,1.3866246,0,nan,0.0,4,1,19
143159727,1548265939800425,323876358,-1170753739,55227,20784,0.24800001,0.4845999,0.80700004,1.013,0.57,0.95,56,5,0.518,0.117000006,0.505,-0.54700005,1.3606598,0,nan,0.0,4,1,19
143356502,1548265940000425,323876360,-1170753727,55328,20885,0.25800002,0.47660995,0.80700004,1.0150001,0.57,0.95,56,4,0.544,0.14500001,0.52400005,-0.58500004,1.3301601,0,nan,0.0,4,1,19
143559698,1548265940200425,323876362,-1170753714,55470,21027,0.25100002,0.45818365,0.809,1.0170001,0.57,0.95,56,4,0.592,0.18800001,0.56100005,-0.582,1.287217,0,nan,0.0,4,1,19
143759698,1548265940400425,323876363,-1170753704,55558,21116,0.27400002,0.62096435,0.81000006,1.0200001,0.57,0.95,56,4,0.416,0.043,0.41400003,-0.628,1.350654,0,nan,0.0,4,1,19
143959722,1548265940600425,323876363,-1170753694,55777,21334,0.27600002,0.5937088,0.81000006,1.0200001,0.57,0.95,56,4,0.41500002,0.033,0.41300002,-0.75900006,1.4235641,0,nan,0.0,4,1,19
144157706,1548265940800425,323876362,-1170753685,55952,21510,0.282,0.43470126,0.809,1.0220001,0.57,0.95,56,4,0.535,-0.074,0.52900004,-0.859,1.6103841,0,nan,0.0,4,1,19
144359708,1548265941000425,323876362,-1170753672,56173,21730,0.24900001,0.42174324,0.808,1.018,0.57,0.95,56,2,0.592,0.10300001,0.583,-0.808,1.5000416,0,nan,0.0,4,1,19
144559698,1548265941200425,323876366,-1170753661,56322,21880,0.25,0.5103236,0.809,1.019,0.57,0.95,56,2,0.555,0.273,0.483,-0.59900004,1.3201526,0,nan,0.0,4,1,19
144759699,1548265941400425,323876372,-1170753651,56433,21991,0.231,0.495833,0.81000006,1.019,0.57,0.95,56,2,0.633,0.35000002,0.527,-0.582,1.1472945,0,nan,0.0,4,1,19
144952760,1548265941600425,323876387,-1170753640,56528,22085,0.257,0.24133976,0.81200004,1.021,0.57,0.95,56,2,1.1910001,1.042,0.57600003,-0.499,0.6282497,0,nan,0.0,4,1,19
145156856,1548265941800425,323876416,-1170753630,56623,22180,0.28,0.14784735,0.81500006,1.0220001,0.57,0.95,56,2,1.9350001,1.843,0.58900005,-0.54200006,0.39637524,0,nan,0.0,4,1,19
145356629,1548265942000425,323876457,-1170753620,56705,22262,0.307,0.106968954,0.81700003,1.023,0.57,0.95,56,3,2.4090002,2.3690002,0.44200003,-0.39100003,0.25696254,0,nan,0.0,4,1,19
145557697,1548265942200425,323876511,-1170753610,56758,22315,0.279,0.062028475,0.818,1.0200001,0.57,0.95,56,3,3.239,3.2010002,0.499,-0.132,0.1800279,0,nan,0.0,4,1,19
145757702,1548265942400425,323876579,-1170753599,56766,22323,0.26500002,0.04889976,0.81700003,1.018,0.59,0.96,56,3,3.923,3.9,0.423,-0.164,0.13475285,0,nan,0.0,4,1,18
145956470,1548265942600425,323876654,-1170753590,56725,22282,0.279,0.053581256,0.818,1.016,0.59,0.96,56,3,4.249,4.2310004,0.386,-0.106000006,0.1138562,0,nan,0.0,4,1,18
146159702,1548265942800425,323876737,-1170753583,56669,22226,0.305,0.052831985,0.82100004,1.016,0.57,0.95,56,3,4.689,4.682,0.26700002,0.047000002,0.083793424,0,nan,0.0,4,1,19
146355701,1548265943000425,323876829,-1170753578,56660,22217,0.27800003,0.045137703,0.823,1.014,0.57,0.95,56,3,5.1990004,5.195,0.18800001,-0.041,0.055191495,0,nan,0.0,4,1,19
146557730,1548265943200425,323876925,-1170753574,56657,22214,0.252,0.041244395,0.823,1.0150001,0.57,0.95,56,3,5.1710005,5.1600003,0.33400002,-0.26000002,0.060608126,0,nan,0.0,4,1,19
146759737,1548265943400425,323877016,-1170753565,56717,22275,0.24100001,0.038305264,0.822,1.016,0.57,0.95,56,3,5.2200003,5.2170005,0.2,-0.312,0.047744527,0,nan,0.0,4,1,19
146957703,1548265943600425,323877109,-1170753559,56694,22251,0.25100002,0.046228882,0.82100004,1.018,0.57,0.95,56,3,5.026,5.0140004,0.34600002,0.032,0.057228643,0,nan,0.0,4,1,19
147157699,1548265943800425,323877205,-1170753554,56653,22211,0.23600002,0.040931284,0.82100004,1.019,0.57,0.95,56,3,5.3240004,5.3230004,0.115,0.185,0.036197953,0,nan,0.0,4,1,19
147367726,1548265944000425,323877295,-1170753549,56545,22103,0.21700001,0.036838837,0.81900007,1.019,0.57,0.95,56,6,5.018,5.0140004,0.19600001,0.34800002,0.037915878,0,nan,0.0,4,1,19
147552795,1548265944200425,323877384,-1170753543,56451,22008,0.25,0.046529077,0.81900007,1.0220001,0.57,0.95,56,6,5.004,4.992,0.344,0.51500005,0.05116764,0,nan,0.0,4,1,19
147759697,1548265944400425,323877474,-1170753537,56153,21711,0.202,0.03803945,0.81700003,1.0250001,0.57,0.95,56,6,5.1410003,5.135,0.23700002,0.924,0.04800493,0,nan,0.0,4,1,19
147959694,1548265944600425,323877562,-1170753533,56005,21562,0.24700001,0.04948968,0.81700003,1.033,0.57,0.95,56,6,4.684,4.676,0.263,0.81700003,0.05133397,0,nan,0.0,4,1,19
148158733,1548265944800425,323877649,-1170753529,55873,21431,0.245,0.050718218,0.818,1.039,0.57,0.95,56,6,4.8640003,4.8620005,0.13800001,0.65900004,0.03955509,0,nan,0.0,4,1,19
148357694,1548265945000425,323877739,-1170753527,55698,21256,0.22900002,0.03916955,0.81600004,1.042,0.57,0.95,56,5,5.0550003,5.0550003,-0.044000003,0.836,0.008143008,0,nan,0.0,4,1,19
148561696,1548265945200425,323877828,-1170753529,55612,21169,0.24000001,0.049984656,0.81600004,1.046,0.55,0.95,56,5,4.7790003,4.7790003,-0.076000005,0.625,6.281276,0,nan,0.0,4,1,20
148766039,1548265945400425,323877914,-1170753528,55563,21120,0.21800001,0.044361033,0.814,1.049,0.55,0.95,56,5,4.6860003,4.6860003,-0.054,0.582,6.2756367,0,nan,0.0,4,1,20
148949711,1548265945600425,323877998,-1170753528,55501,21058,0.21900001,0.039377593,0.81200004,1.052,0.55,0.95,56,5,4.873,4.872,-0.13700001,0.514,6.2634935,0,nan,0.0,4,1,20
149153739,1548265945800425,323878087,-1170753530,55419,20977,0.397,0.082129605,0.81600004,1.0630001,0.55,0.95,56,5,4.892,4.892,-0.049000002,0.578,6.2655363,0,nan,0.0,4,1,20
149359724,1548265946000425,323878174,-1170753530,55307,20865,0.41000003,0.08790996,0.82800007,1.0780001,0.57,0.96,46,1,4.755,4.754,-0.063,0.648,6.267647,0,nan,0.0,4,1,19
149561700,1548265946200425,323878258,-1170753530,55265,20822,0.272,0.052135427,0.83500004,1.0860001,0.57,0.96,46,1,4.571,4.571,-0.001,0.423,6.2790127,0,nan,0.0,4,1,19
149758760,1548265946400425,323878340,-1170753528,55196,20754,0.25300002,0.051439214,0.836,1.0910001,0.59,0.96999997,46,1,4.565,4.564,0.12100001,0.42700002,0.012038408,0,nan,0.0,4,1,18
149958006,1548265946600425,323878422,-1170753525,55231,20788,0.24800001,0.047741733,0.836,1.093,0.59,0.96999997,46,1,4.6930003,4.69,0.157,0.156,0.02402306,0,nan,0.0,4,1,18
150161743,1548265946800425,323878505,-1170753520,55153,20711,0.22900002,0.0417481,0.83500004,1.0940001,0.59,0.96999997,46,1,4.815,4.815,0.036000002,0.142,0.014257943,0,nan,0.0,4,1,18
150358235,1548265947000425,323878596,-1170753516,55087,20644,0.21700001,0.047529675,0.83100003,1.095,0.59,0.96999997,56,3,4.7000003,4.7000003,0.07300001,0.15900001,0.014906158,0,nan,0.0,4,1,18
150553741,1548265947200425,323878694,-1170753512,55135,20693,0.2,0.047820795,0.82900006,1.0940001,0.57,0.96,56,3,4.703,4.702,0.087000005,0.049000002,0.01676092,0,nan,0.0,4,1,19
150758745,1548265947400425,323878786,-1170753508,55089,20647,0.208,0.0473897,0.827,1.092,0.57,0.96,56,3,4.7770004,4.774,0.18200001,0.052,0.028149541,0,nan,0.0,4,1,19
150962734,1548265947600425,323878874,-1170753503,55042,20600,0.231,0.045384668,0.82600003,1.0910001,0.57,0.96,56,3,4.7700005,4.769,0.079,-0.059000004,0.021789737,0,nan,0.0,4,1,19
151155759,1548265947800425,323878961,-1170753500,55009,20567,0.22800002,0.044422466,0.82500005,1.0910001,0.59,0.96999997,56,3,4.9170003,4.9170003,0.023000002,-0.036000002,0.012526402,0,nan,0.0,4,1,18
151357196,1548265948000424,323879047,-1170753499,54956,20514,0.245,0.044340435,0.82500005,1.0910001,0.59,0.96999997,56,8,4.919,4.919,-0.040000003,-0.12100001,0.0014892893,0,nan,0.0,4,1,18
151561753,1548265948200424,323879135,-1170753499,54911,20469,0.245,0.045578223,0.82400006,1.09,0.57,0.96,56,8,4.8570004,4.8570004,0.037,-0.043,0.00469319,0,nan,0.0,4,1,19
151758743,1548265948400424,323879223,-1170753498,54956,20514,0.23600002,0.04739895,0.82500005,1.0890001,0.57,0.96,56,8,4.7840004,4.783,0.09200001,-0.24900001,0.012091815,0,nan,0.0,4,1,19
151961729,1548265948600424,323879310,-1170753495,55051,20608,0.238,0.046773076,0.82500005,1.088,0.57,0.96,56,8,4.747,4.7440004,0.15900001,-0.33600003,0.023549551,0,nan,0.0,4,1,19
152159700,1548265948800424,323879395,-1170753491,55133,20691,0.24000001,0.046037942,0.82400006,1.087,0.57,0.96,56,8,4.723,4.7200003,0.18400002,-0.439,0.03181962,0,nan,0.0,4,1,19
152356753,1548265949000424,323879479,-1170753485,55215,20773,0.224,0.049189657,0.823,1.087,0.57,0.96,56,5,4.7860003,4.776,0.30600002,-0.24200001,0.04776128,0,nan,0.0,4,1,19
152556902,1548265949200424,323879563,-1170753483,55223,20781,0.23600002,0.047199808,0.822,1.0860001,0.57,0.96,56,5,4.671,4.671,0.023000002,-0.202,0.024384517,0,nan,0.0,4,1,19
152755699,1548265949400424,323879647,-1170753482,55289,20846,0.286,0.050603375,0.823,1.087,0.57,0.96,56,5,4.75,4.749,0.089,-0.20400001,0.021620614,0,nan,0.0,4,1,19
152956756,1548265949600424,323879734,-1170753479,55388,20945,0.20500001,0.042692844,0.82100004,1.0860001,0.57,0.96,56,5,4.749,4.748,0.086,-0.18100001,0.019485902,0,nan,0.0,4,1,19
153151701,1548265949800424,323879823,-1170753477,55459,21017,0.18,0.03650984,0.81700003,1.087,0.57,0.96,56,5,4.8910003,4.8910003,-0.008,-0.24200001,0.0065833814,0,nan,0.0,4,1,19
153366118,1548265950000424,323879913,-1170753476,55491,21049,0.22600001,0.040867753,0.81500006,1.09,0.57,0.96,56,4,5.064,5.064,-0.056,-0.31500003,6.281144,0,nan,0.0,4,1,19
153626754,1548265950200424,323880007,-1170753475,55511,21069,0.18100001,0.035964776,0.94100004,1.1140001,0.57,0.96,56,4,4.945,4.9440002,-0.086,-0.157,6.2719836,0,nan,0.0,4,1,19
153765726,1548265950400424,323880097,-1170753477,55619,21177,0.21100001,0.038221486,0.933,1.113,0.57,0.96,56,4,5.105,5.104,-0.09,-0.351,6.268612,0,nan,0.0,4,1,19
153965731,1548265950600424,323880186,-1170753475,55628,21185,0.202,0.03628871,0.92100006,1.1090001,0.57,0.96,56,4,5.092,5.092,-0.068,-0.171,6.2692714,0,nan,0.0,4,1,19
154165320,1548265950800424,323880273,-1170753472,55673,21231,0.17500001,0.036535498,0.90900004,1.1040001,0.57,0.96,56,4,4.88,4.88,0.047000002,-0.384,6.282056,0,nan,0.0,4,1,19
154364772,1548265951000424,323880369,-1170753470,55777,21335,0.18200001,0.03601923,0.89800006,1.1,0.57,0.96,56,4,5.1990004,5.1990004,-0.045,-0.27400002,6.2778554,0,nan,0.0,4,1,19
