timestamp,states[0],states[1],states[2],states[3],states[4],states[5],states[6],states[7],states[8],states[9],states[10],states[11],states[12],states[13],states[14],states[15],states[16],states[17],states[18],states[19],states[20],states[21],states[22],states[23],vibe[0],vibe[1],vibe[2],covariances[0],covariances[1],covariances[2],covariances[3],covariances[4],covariances[5],covariances[6],covariances[7],covariances[8],covariances[9],covariances[10],covariances[11],covariances[12],covariances[13],covariances[14],covariances[15],covariances[16],covariances[17],covariances[18],covariances[19],covariances[20],covariances[21],covariances[22],covariances[23],control_mode_flags,pos_horiz_accuracy,pos_vert_accuracy,mag_test_ratio,vel_test_ratio,pos_test_ratio,hgt_test_ratio,tas_test_ratio,hagl_test_ratio,beta_test_ratio,time_slip,gps_check_fail_flags,filter_fault_flags,innovation_check_flags,solution_status_flags,n_states,pre_flt_fail,health_flags,timeout_flags
86530123,0.9445003,-0.023295803,-0.0022758767,0.3276756,-0.010028593,0.0070934556,-0.002250631,0.22285719,-0.26770714,-0.20293763,8.499265e-06,-4.50711e-06,1.8698582e-07,-5.8220237e-05,5.3526776e-07,-0.00062313775,0.25925115,0.04327901,0.38010594,0.0,0.0,0.0,0.0,0.0,2.5290622e-10,2.5613486e-05,0.0028763541,3.9125966e-06,9.948986e-05,9.958668e-05,3.22881e-05,0.012959385,0.012966504,0.010476139,0.05800652,0.058013123,0.0560786,1.0431826e-11,1.0438436e-11,1.8151427e-11,2.412299e-06,2.4066344e-06,5.000007e-08,0.0,0.0,0.0,0.0,0.0,0.0,0.0,0.0,535,0.34061655,0.23680921,0.011713463,0.046071053,0.017913029,0.005916327,0.0,0.0,0.0,-0.007032,0,0,0,831,24,0,0,0
86738152,0.9445195,-0.023444705,-0.002287586,0.32760966,-0.01609297,0.028538113,-0.004977264,0.22639823,-0.2789275,-0.20706885,8.569809e-06,-4.519637e-06,1.9491458e-07,-5.800989e-05,1.8385567e-06,-0.0006227146,0.25925115,0.04327901,0.38010594,0.0,0.0,0.0,0.0,0.0,8.698562e-09,8.025362e-05,0.0043690843,3.905705e-06,9.953539e-05,9.963238e-05,3.223838e-05,0.01303395,0.013040981,0.010490674,0.05833375,0.05834039,0.056117624,1.04363514e-11,1.0442944e-11,1.8137894e-11,2.4122464e-06,2.4065796e-06,5.0000025e-08,0.0,0.0,0.0,0.0,0.0,0.0,0.0,0.0,535,0.34157598,0.23689158,0.04410929,0.034970846,0.018887248,0.0055001564,0.0,0.0,0.0,-0.007001,0,0,0,831,24,0,0,0
86938128,0.9443401,-0.02352483,-0.0023011996,0.3281204,-0.010202097,0.045460198,-0.012256806,0.23519601,-0.29182503,-0.207304,8.681454e-06,-4.5267584e-06,1.7524525e-07,-5.7857673e-05,3.7973334e-06,-0.00062418816,0.25925115,0.04327901,0.38010594,0.0,0.0,0.0,0.0,0.0,1.23616015e-08,9.73091e-05,0.0051966025,3.9144606e-06,9.9573284e-05,9.967034e-05,3.221031e-05,0.013037421,0.013044135,0.010471843,0.05837256,0.05837915,0.055882573,1.0436726e-11,1.0443356e-11,1.8132341e-11,2.4121996e-06,2.406527e-06,5.000006e-08,0.0,0.0,0.0,0.0,0.0,0.0,0.0,0.0,535,0.3416895,0.23639496,0.06617052,0.055641487,0.021209065,0.014999915,0.0,0.0,0.0,-0.007028,0,0,0,831,24,0,0,0
87138127,0.9444673,-0.02356959,-0.002411429,0.3277502,-0.00885456,0.07318022,-0.017712802,0.24458389,-0.29451826,-0.21087286,8.763732e-06,-4.5154998e-06,1.570654e-07,-5.7869656e-05,5.4987904e-06,-0.00062497926,0.25925115,0.04327901,0.38010594,0.0,0.0,0.0,0.0,0.0,1.565864e-08,0.00013435868,0.006491031,3.9027045e-06,9.9610836e-05,9.9708406e-05,3.2203174e-05,0.013069129,0.013075287,0.010458557,0.05840571,0.058412228,0.05567986,1.043623e-11,1.044293e-11,1.8126877e-11,2.4121518e-06,2.4064695e-06,5.000006e-08,0.0,0.0,0.0,0.0,0.0,0.0,0.0,0.0,663,0.34178638,0.2359658,0.044589013,0.04085251,0.020666292,0.009132921,0.0,0.0,0.0,-0.007026,0,0,0,831,24,0,0,0
87346125,0.94458413,-0.023442486,-0.0023391931,0.32742316,0.0010221918,0.10970148,-0.023820827,0.24040416,-0.28952584,-0.20914844,8.790433e-06,-4.574138e-06,1.2680819e-07,-5.742935e-05,6.2493586e-06,-0.00062677567,0.25925115,0.04327901,0.38010594,0.0,0.0,0.0,0.0,0.0,5.26471e-07,0.0004738225,0.012349852,3.8928342e-06,9.9643294e-05,9.9741475e-05,3.221303e-05,0.013168456,0.013173638,0.010405723,0.058803752,0.05881026,0.055042304,1.0439678e-11,1.0446488e-11,1.8125581e-11,2.4121161e-06,2.4064175e-06,5e-08,0.0,0.0,0.0,0.0,0.0,0.0,0.0,0.0,663,0.342949,0.23461096,0.013264948,0.02945227,0.020542013,0.013800237,0.0,0.0,0.0,-0.007029,0,0,0,831,24,0,0,0
87546134,0.9469625,0.021375729,0.0031785173,0.32061672,-0.04947468,0.13913678,-0.3404039,0.2357249,-0.27910194,-0.23707697,8.845461e-06,-4.616162e-06,7.6838376e-08,-5.770728e-05,6.3112852e-06,-0.00062860444,0.25925115,0.04327901,0.38010594,0.0,0.0,0.0,0.0,0.0,9.404511e-07,0.00077123824,0.02097208,3.6914332e-06,9.966841e-05,9.971323e-05,3.2403383e-05,0.013427499,0.01343272,0.010394924,0.05885742,0.058863744,0.054896887,1.0437287e-11,1.0444254e-11,1.8120177e-11,2.412033e-06,2.4063024e-06,5e-08,0.0,0.0,0.0,0.0,0.0,0.0,0.0,0.0,663,0.34310517,0.23430085,0.031272158,0.038798835,0.020126145,0.06499961,0.0,0.0,0.0,-0.007019,0,0,0,831,24,0,0,0
87749315,0.95003927,-0.0137055665,0.0020896983,0.3118227,-0.068181366,0.12506738,-1.1699117,0.23209506,-0.27141282,-0.39220002,8.960629e-06,-4.6185837e-06,4.7453018e-08,-5.7130386e-05,-8.929534e-06,-0.0006292345,0.25925115,0.04327901,0.38010594,0.0,0.0,0.0,0.0,0.0,7.7103994e-07,0.0010373334,0.027396748,3.4829961e-06,9.947079e-05,9.9545e-05,3.25273e-05,0.014442057,0.01445219,0.010384951,0.05903271,0.059038866,0.05478197,1.043236e-11,1.0439598e-11,1.8114819e-11,2.4103451e-06,2.404563e-06,5e-08,0.0,0.0,0.0,0.0,0.0,0.0,0.0,0.0,663,0.34361544,0.23405549,0.015046171,0.054229405,0.020663721,0.000640254,0.0,0.0,0.0,-0.007039,0,0,0,831,24,0,0,0
87952511,0.95084375,-0.011190623,0.0022343656,0.30946088,-0.07657523,-0.02984852,-1.7953346,0.21749145,-0.27435267,-0.6907834,8.986561e-06,-4.6480736e-06,2.8063967e-08,-6.3335174e-05,-1.0600264e-05,-0.0006343068,0.25925115,0.04327901,0.38010594,0.0,0.0,0.0,0.0,0.0,6.1117794e-07,0.0010125409,0.029135767,3.4150921e-06,9.875974e-05,9.883449e-05,3.2514807e-05,0.015521381,0.0155345,0.01048211,0.05945786,0.059464276,0.05552888,1.043475e-11,1.0442156e-11,1.8109573e-11,2.4022456e-06,2.396421e-06,5.0000025e-08,0.0,0.0,0.0,0.0,0.0,0.0,0.0,0.0,663,0.3448509,0.23564567,0.010029107,0.037807852,0.019100301,0.03764629,0.0,0.0,0.0,-0.007042,0,0,0,831,24,0,0,0
88152546,0.950329,-0.0056592487,-0.009587049,0.3110482,-0.106042236,-0.12497587,-1.905744,0.18980709,-0.30229378,-1.0612828,8.9925725e-06,-4.70261e-06,-6.4795934e-08,-8.0728874e-05,-6.677992e-06,-0.00064032595,0.25925115,0.04327901,0.38010594,0.0,0.0,0.0,0.0,0.0,5.067611e-07,0.00084687106,0.026543671,3.4480934e-06,9.776146e-05,9.78548e-05,3.24955e-05,0.015623975,0.015635775,0.0105039105,0.059877314,0.05988425,0.055477407,1.0435035e-11,1.0442512e-11,1.8116562e-11,2.3904731e-06,2.3845291e-06,5e-08,0.0,0.0,0.0,0.0,0.0,0.0,0.0,0.0,663,0.34606585,0.23553643,0.043807548,0.029138781,0.015545427,4.6974827e-05,0.0,0.0,0.0,-0.007009,0,0,0,831,24,0,0,0
88360540,0.9498241,0.009323984,-0.014696409,0.31229994,-0.07009127,-0.22987472,-1.9161854,0.17971602,-0.37099552,-1.4538478,9.135988e-06,-4.751252e-06,-1.3692026e-07,-0.00010195563,-5.291752e-05,-0.0006436504,0.25925115,0.04327901,0.38010594,0.0,0.0,0.0,0.0,0.0,4.7835607e-07,0.000819971,0.026274655,3.4864704e-06,9.674987e-05,9.6847616e-05,3.251107e-05,0.015443866,0.015453032,0.01050976,0.060523175,0.060530707,0.054870497,1.0430205e-11,1.0437707e-11,1.8116194e-11,2.3786984e-06,2.37264e-06,5e-08,0.0,0.0,0.0,0.0,0.0,0.0,0.0,0.0,663,0.347928,0.23424453,0.024349233,0.08766051,0.024017492,0.024529409,0.0,0.0,0.0,-0.007015,0,0,0,831,24,0,0,0
88560536,0.94915867,0.024561057,-0.018874945,0.31327054,-0.058703825,-0.2754946,-1.8794734,0.1727773,-0.4590398,-1.8065696,9.283432e-06,-4.830546e-06,-2.0764593e-07,-0.00013260578,-9.427155e-05,-0.00065625383,0.25925115,0.04327901,0.38010594,0.0,0.0,0.0,0.0,0.0,3.8102155e-07,0.00078442483,0.025707668,3.5646326e-06,9.576155e-05,9.589182e-05,3.2541375e-05,0.015167647,0.015182581,0.010585469,0.060796067,0.060804103,0.054772414,1.0423614e-11,1.0430933e-11,1.8111936e-11,2.3684026e-06,2.3621196e-06,5e-08,0.0,0.0,0.0,0.0,0.0,0.0,0.0,0.0,663,0.34871215,0.23403507,0.03687485,0.100591026,0.02955565,0.051531035,0.0,0.0,0.0,-0.007018,0,0,0,831,24,0,0,0
88760526,0.9482418,0.029752944,-0.017216181,0.31568342,-0.05771271,-0.25347352,-1.8222638,0.16126534,-0.54299855,-2.1560261,9.382785e-06,-4.9152773e-06,-2.5613022e-07,-0.00015788958,-0.00011176771,-0.000660444,0.25925115,0.04327901,0.38010594,0.0,0.0,0.0,0.0,0.0,3.0506877e-07,0.0007477079,0.023920292,3.6337626e-06,9.4882846e-05,9.5058014e-05,3.2487333e-05,0.014764335,0.014790733,0.010748984,0.060969554,0.06097848,0.055444583,1.0418194e-11,1.0425328e-11,1.8107835e-11,2.359278e-06,2.3527866e-06,5.0000036e-08,0.0,0.0,0.0,0.0,0.0,0.0,0.0,0.0,663,0.3492106,0.23546673,0.03191814,0.07446252,0.03243257,0.022238132,0.0,0.0,0.0,-0.007027,0,0,0,831,24,0,0,0
88968529,0.9471169,0.03482665,-0.021875702,0.31824237,-0.08404534,-0.24125901,-1.8495998,0.16637774,-0.6427541,-2.542219,9.623565e-06,-4.9535033e-06,-3.3505225e-07,-0.00018062716,-0.00017577536,-0.0006608036,0.25925115,0.04327901,0.38010594,0.0,0.0,0.0,0.0,0.0,2.5925246e-07,0.00072740414,0.02326231,3.733357e-06,9.403949e-05,9.4282324e-05,3.2424177e-05,0.014584757,0.014622241,0.010878978,0.061421882,0.061432738,0.055611935,1.0419598e-11,1.0426598e-11,1.8096137e-11,2.3511136e-06,2.3443747e-06,5.000003e-08,0.0,0.0,0.0,0.0,0.0,0.0,0.0,0.0,663,0.35050625,0.23582183,0.017593095,0.12978205,0.0457685,0.016894747,0.0,0.0,0.0,-0.007025,0,0,0,831,24,0,0,0
89168521,0.9461947,0.03954733,-0.03063768,0.3197077,-0.09654409,-0.1991763,-1.8422905,0.15053393,-0.7235413,-2.899541,9.735427e-06,-5.038976e-06,-3.6945508e-07,-0.00020652758,-0.00019572185,-0.0006658422,0.25925115,0.04327901,0.38010594,0.0,0.0,0.0,0.0,0.0,2.5416168e-07,0.0008494012,0.02356713,3.8432518e-06,9.321948e-05,9.355127e-05,3.243892e-05,0.014376697,0.014425398,0.010984615,0.061450277,0.061463773,0.05551254,1.0418601e-11,1.0425492e-11,1.8092293e-11,2.3438686e-06,2.3367315e-06,5.000003e-08,0.0,0.0,0.0,0.0,0.0,0.0,0.0,0.0,663,0.350591,0.23561099,0.0016297196,0.07552178,0.044948105,0.014165128,0.0,0.0,0.0,-0.007032,0,0,0,831,24,0,0,0
89376531,0.945431,0.046798564,-0.033385236,0.32071108,-0.05343595,-0.13631375,-1.8971854,0.13749956,-0.7992328,-3.3011613,9.870172e-06,-5.1089337e-06,-4.2570542e-07,-0.00022133278,-0.00021153112,-0.0006607937,0.25925115,0.04327901,0.38010594,0.0,0.0,0.0,0.0,0.0,2.3105336e-07,0.00087584305,0.023331387,3.9381516e-06,9.243022e-05,9.28825e-05,3.2475527e-05,0.014310062,0.014370929,0.0111572975,0.06174644,0.06176413,0.0557539,1.04228865e-11,1.0429742e-11,1.809262e-11,2.3369414e-06,2.3294274e-06,5.0000065e-08,0.0,0.0,0.0,0.0,0.0,0.0,0.0,0.0,663,0.3514407,0.23612264,0.030922918,0.08371294,0.04425684,3.9398386e-05,0.0,0.0,0.0,-0.007022,0,0,0,831,24,0,0,0
89576510,0.9454562,0.047330175,-0.030725721,0.32082468,-0.02989342,-0.01542078,-1.8696215,0.1311995,-0.8367495,-3.6747034,9.926736e-06,-5.1463658e-06,-4.8358686e-07,-0.0002238174,-0.000213847,-0.0006597928,0.25925115,0.04327901,0.38010594,0.0,0.0,0.0,0.0,0.0,1.8657943e-07,0.0008260755,0.024403207,3.920124e-06,9.173147e-05,9.231673e-05,3.244447e-05,0.014091023,0.014153466,0.011253502,0.06174509,0.061767545,0.055728152,1.04254765e-11,1.0432306e-11,1.8088912e-11,2.3301056e-06,2.3220935e-06,5.0000065e-08,0.0,0.0,0.0,0.0,0.0,0.0,0.0,0.0,663,0.35144365,0.23606811,0.032186963,0.051873457,0.040504694,0.029354176,0.0,0.0,0.0,-0.007044,0,0,0,831,24,0,0,0
89776511,0.94525534,0.048148066,-0.035431065,0.32080963,-0.053537093,0.08440883,-1.7337774,0.09842957,-0.85755527,-4.04121,9.914938e-06,-5.3092363e-06,-4.95691e-07,-0.00024331379,-0.00019143039,-0.0006540577,0.25925115,0.04327901,0.38010594,0.0,0.0,0.0,0.0,0.0,1.857738e-07,0.0008077744,0.023776863,3.953534e-06,9.1052374e-05,9.179543e-05,3.2456966e-05,0.013761057,0.01381095,0.01137019,0.061762094,0.061789367,0.055722408,1.0428215e-11,1.0435103e-11,1.8085073e-11,2.3242098e-06,2.3154428e-06,5.0000065e-08,0.0,0.0,0.0,0.0,0.0,0.0,0.0,0.0,663,0.35149887,0.23605594,0.000914349,0.10136971,0.038684215,0.025185535,0.0,0.0,0.0,-0.007043,0,0,0,831,24,0,0,0
89984519,0.9457871,0.04129568,-0.030380962,0.3207157,-0.056437768,0.17597294,-1.6196308,0.09424386,-0.87212247,-4.415202,1.0063292e-05,-5.3941158e-06,-4.840883e-07,-0.0002505422,-0.00018422081,-0.00064224855,0.25925115,0.04327901,0.38010594,0.0,0.0,0.0,0.0,0.0,2.869266e-07,0.00080213376,0.02261933,3.862249e-06,9.056363e-05,9.1482754e-05,3.239071e-05,0.013635416,0.013671305,0.011439809,0.06207509,0.06210721,0.055278152,1.04362925e-11,1.0443327e-11,1.8085231e-11,2.3189168e-06,2.3092493e-06,5e-08,0.0,0.0,0.0,0.0,0.0,0.0,0.0,0.0,663,0.3523951,0.23511307,0.004712249,0.10007876,0.041749123,0.0013478582,0.0,0.0,0.0,-0.007034,0,0,0,831,24,0,0,0
90184510,0.945712,0.0341511,-0.041808456,0.3204913,-0.09030261,0.2154334,-1.6154407,0.06860873,-0.87161654,-4.773351,1.0158824e-05,-5.529339e-06,-4.9560856e-07,-0.0002509591,-0.0001606102,-0.00062701094,0.25925115,0.04327901,0.38010594,0.0,0.0,0.0,0.0,0.0,2.53325e-07,0.0008605722,0.022821635,3.886967e-06,9.000995e-05,9.11118e-05,3.241043e-05,0.013535475,0.013564817,0.011583735,0.061938424,0.061973866,0.055344276,1.044059e-11,1.0447878e-11,1.8081179e-11,2.3139619e-06,2.3033056e-06,5.0000036e-08,0.0,0.0,0.0,0.0,0.0,0.0,0.0,0.0,663,0.35201177,0.23525365,0.011000213,0.08983741,0.043864205,0.0038338217,0.0,0.0,0.0,-0.007043,0,0,0,831,24,0,0,0
90387729,0.9453752,0.035508305,-0.04501532,0.3209027,-0.062445957,0.28995016,-1.4721023,0.039120656,-0.85884285,-5.1151752,1.0238727e-05,-5.672132e-06,-5.122549e-07,-0.0002490889,-0.00013663791,-0.00061373925,0.25925115,0.04327901,0.38010594,0.0,0.0,0.0,0.0,0.0,2.152583e-07,0.0007917562,0.022255156,3.923272e-06,8.9454705e-05,9.078443e-05,3.236225e-05,0.013354875,0.013361155,0.011681658,0.06173273,0.06176983,0.055436563,1.0445111e-11,1.0452717e-11,1.8065455e-11,2.3086927e-06,2.2973084e-06,5.0000022e-08,0.0,0.0,0.0,0.0,0.0,0.0,0.0,0.0,663,0.3514293,0.2354497,0.0065872613,0.083214074,0.044787426,0.015181306,0.0,0.0,0.0,-0.007025,0,0,0,831,24,0,0,0
90590927,0.94560045,0.032385375,-0.042986535,0.3208476,-0.041305013,0.280715,-1.2611953,0.034644198,-0.84814334,-5.4442444,1.0417684e-05,-5.7666357e-06,-5.098498e-07,-0.00024862916,-0.00011519626,-0.0005990174,0.25925115,0.04327901,0.38010594,0.0,0.0,0.0,0.0,0.0,2.3855878e-07,0.00084498245,0.024231697,3.8904e-06,8.9002766e-05,9.057697e-05,3.237261e-05,0.0132289175,0.013222277,0.011877509,0.06159377,0.06163109,0.05565862,1.04621685e-11,1.0470152e-11,1.808484e-11,2.3031794e-06,2.2912095e-06,5e-08,0.0,0.0,0.0,0.0,0.0,0.0,0.0,0.0,663,0.351034,0.23592079,0.005811875,0.1174138,0.051084727,0.03901403,0.0,0.0,0.0,-0.007027,0,0,0,831,24,0,0,0
90794116,0.9457145,0.02673977,-0.041402385,0.3212399,0.0029377472,0.29360113,-1.204248,0.051119942,-0.8479661,-5.731786,1.0694562e-05,-5.84647e-06,-5.0332164e-07,-0.0002522371,-8.578833e-05,-0.0005857912,0.25925115,0.04327901,0.38010594,0.0,0.0,0.0,0.0,0.0,2.3833009e-07,0.0008134341,0.023243416,3.856531e-06,8.8599656e-05,9.0430476e-05,3.231619e-05,0.013185773,0.013173276,0.011987272,0.061346553,0.0613826,0.055870112,1.0479213e-11,1.04875605e-11,1.8092557e-11,2.2971028e-06,2.284709e-06,5e-08,0.0,0.0,0.0,0.0,0.0,0.0,0.0,0.0,663,0.3503272,0.2363686,0.00012675025,0.1639177,0.06187161,0.018307224,0.0,0.0,0.0,-0.007038,0,0,0,831,24,0,0,0
90994151,0.9452874,0.029909622,-0.03888968,0.32252893,0.04686046,0.29809192,-1.0448128,0.07551359,-0.84207565,-6.0067854,1.0912139e-05,-5.9196414e-06,-4.99002e-07,-0.0002367727,-4.522737e-05,-0.0005664983,0.25925115,0.04327901,0.38010594,0.0,0.0,0.0,0.0,0.0,2.1846616e-07,0.00077342306,0.023206383,3.8796506e-06,8.8174675e-05,9.028299e-05,3.2269712e-05,0.013128104,0.013102241,0.0121969255,0.06106454,0.0610976,0.056840364,1.0497444e-11,1.05060925e-11,1.8100606e-11,2.2905765e-06,2.2780137e-06,5.0000036e-08,0.0,0.0,0.0,0.0,0.0,0.0,0.0,0.0,663,0.34951702,0.23841217,0.0043677688,0.12131599,0.063651666,0.033051033,0.0,0.0,0.0,-0.007004,0,0,0,831,24,0,0,0
91202130,0.9451666,0.026126765,-0.028122151,0.324325,0.10892132,0.29306942,-0.9636527,0.11283911,-0.83102745,-6.265838,1.1145497e-05,-5.9945787e-06,-4.9744676e-07,-0.0002151878,5.0979866e-06,-0.0005475269,0.25925115,0.04327901,0.38010594,0.0,0.0,0.0,0.0,0.0,2.0453479e-07,0.0007213669,0.022897813,3.8244516e-06,8.783305e-05,9.0234025e-05,3.2102544e-05,0.013156814,0.013125096,0.012315046,0.06095347,0.060982455,0.057172604,1.0507628e-11,1.05165425e-11,1.8089703e-11,2.282862e-06,2.2703846e-06,5.0000054e-08,0.0,0.0,0.0,0.0,0.0,0.0,0.0,0.0,663,0.34919325,0.23910794,0.017521406,0.13143103,0.0630918,0.049036372,0.0,0.0,0.0,-0.007023,0,0,0,831,24,0,0,0
91402140,0.94400233,0.03205279,-0.03160069,0.32685426,0.048811723,0.31550452,-1.0978616,0.13922077,-0.8100374,-6.5830526,1.1296932e-05,-6.0749444e-06,-4.939222e-07,-0.00013789692,9.8730976e-05,-0.0005043753,0.25925115,0.04327901,0.38010594,0.0,0.0,0.0,0.0,0.0,2.0933311e-07,0.0007626824,0.024026051,3.9259016e-06,8.73662e-05,9.0080015e-05,3.2066808e-05,0.013166789,0.013139588,0.012366381,0.060510132,0.06053535,0.057212126,1.0512586e-11,1.0521716e-11,1.8086577e-11,2.2744907e-06,2.262078e-06,5.0000054e-08,0.0,0.0,0.0,0.0,0.0,0.0,0.0,0.0,663,0.34791592,0.23919056,0.00045927893,0.07041456,0.06620384,0.063070066,0.0,0.0,0.0,-0.007014,0,0,0,831,24,0,0,0
91610140,0.94321,0.03731888,-0.03556376,0.32817313,0.04145667,0.2977197,-0.95786756,0.17461786,-0.8262793,-6.897574,1.1590727e-05,-6.200776e-06,-5.043404e-07,-6.313706e-05,0.00019573866,-0.00046475983,0.25925115,0.04327901,0.38010594,0.0,0.0,0.0,0.0,0.0,2.6018247e-07,0.000799285,0.023646967,4.0068285e-06,8.656226e-05,8.9748544e-05,3.207992e-05,0.0117987245,0.011754127,0.012166919,0.052445512,0.05246148,0.05607716,1.0425118e-11,1.0434848e-11,1.8087337e-11,2.259038e-06,2.2485456e-06,5e-08,0.0,0.0,0.0,0.0,0.0,0.0,0.0,0.0,663,0.3238935,0.23680617,0.0102279,0.08011133,0.062102444,0.06728834,0.0,0.0,0.0,-0.007015,0,0,0,831,24,0,0,0
91810147,0.94372326,0.029094696,-0.026075942,0.32842043,0.054905176,0.36147442,-0.81162596,0.19100784,-0.803988,-7.1521626,1.1774955e-05,-6.323733e-06,-5.141288e-07,2.6407768e-05,0.00029714667,-0.000428755,0.25925115,0.04327901,0.38010594,0.0,0.0,0.0,0.0,0.0,2.3131501e-07,0.00073972245,0.02369148,3.904543e-06,8.627207e-05,8.976093e-05,3.196722e-05,0.011828423,0.011763144,0.012141292,0.052209534,0.052221045,0.056149222,1.0430357e-11,1.044028e-11,1.8084657e-11,2.2478928e-06,2.2385211e-06,5e-08,0.0,0.0,0.0,0.0,0.0,0.0,0.0,0.0,663,0.3231572,0.23695827,0.001449231,0.11498917,0.062446557,0.08386627,0.0,0.0,0.0,-0.007008,0,0,0,831,24,0,0,0
92010127,0.94452304,0.023271535,-0.016701642,0.3271937,0.09457219,0.37793055,-0.71759826,0.2076725,-0.7255263,-7.381656,1.1786559e-05,-6.331807e-06,-5.358257e-07,8.933405e-05,0.00035851137,-0.00039919413,0.25925115,0.04327901,0.38010594,0.0,0.0,0.0,0.0,0.0,2.8744378e-07,0.00084329565,0.026173146,3.8078058e-06,8.6196036e-05,8.9885536e-05,3.192032e-05,0.013257848,0.0131801525,0.012392685,0.05993466,0.05993841,0.056940395,1.0532594e-11,1.0542371e-11,1.8082558e-11,2.2431393e-06,2.2339352e-06,5e-08,0.0,0.0,0.0,0.0,0.0,0.0,0.0,0.0,663,0.3462269,0.23862186,0.012643448,0.11498917,0.062446557,0.0972435,0.0,0.0,0.0,-0.007026,0,0,0,831,24,0,0,0
92218148,0.9441518,0.03192676,-0.024660941,0.32703203,0.009591875,0.26442143,-0.81016135,0.2081626,-0.7376671,-7.644704,1.2003292e-05,-6.5949134e-06,-5.7150754e-07,0.00024765424,0.00049960194,-0.00035080494,0.25925115,0.04327901,0.38010594,0.0,0.0,0.0,0.0,0.0,2.9182635e-07,0.0008206873,0.025671797,3.8592834e-06,8.54683e-05,8.966072e-05,3.1937616e-05,0.0119128255,0.011861533,0.012313371,0.052107476,0.05210811,0.056622952,1.0441494e-11,1.0451517e-11,1.8072432e-11,2.2242039e-06,2.2170714e-06,5e-08,0.0,0.0,0.0,0.0,0.0,0.0,0.0,0.0,663,0.3228244,0.23795578,0.009971595,0.100092076,0.05718017,0.027223103,0.0,0.0,0.0,-0.007007,0,0,0,831,24,0,0,0
92418117,0.9434504,0.037076537,-0.034159645,0.32765812,-0.033063885,0.23049468,-0.86939996,0.20318832,-0.720465,-7.8843412,1.2103994e-05,-6.6887865e-06,-6.0403715e-07,0.00033406398,0.0005803834,-0.00032100588,0.25925115,0.04327901,0.38010594,0.0,0.0,0.0,0.0,0.0,2.4704454e-07,0.0008902831,0.027572313,3.950945e-06,8.497594e-05,8.952967e-05,3.202821e-05,0.011927052,0.011880192,0.0124325,0.05192701,0.05192402,0.056726422,1.0443645e-11,1.045365e-11,1.8081796e-11,2.2116915e-06,2.2062688e-06,5e-08,0.0,0.0,0.0,0.0,0.0,0.0,0.0,0.0,663,0.32225928,0.2381731,0.0138466405,0.07978543,0.05850461,0.03590484,0.0,0.0,0.0,-0.007036,0,0,0,831,24,0,0,0
92618138,0.94313085,0.040152527,-0.03396582,0.3282353,0.00043412638,0.25832236,-0.77697295,0.19509624,-0.70319223,-8.132333,1.2196621e-05,-6.793871e-06,-6.2506945e-07,0.00042130522,0.0006584061,-0.00029191838,0.25925115,0.04327901,0.38010594,0.0,0.0,0.0,0.0,0.0,2.365759e-07,0.00082134,0.026299134,3.9719384e-06,8.453845e-05,8.946187e-05,3.2011365e-05,0.011942982,0.011887662,0.012454228,0.051717326,0.051711258,0.056847688,1.0445311e-11,1.0455186e-11,1.8079437e-11,2.198521e-06,2.1948063e-06,5e-08,0.0,0.0,0.0,0.0,0.0,0.0,0.0,0.0,663,0.32160315,0.23842753,0.00085403724,0.053143617,0.058422744,0.052606907,0.0,0.0,0.0,-0.007015,0,0,0,831,24,0,0,0
92826127,0.94335335,0.03440983,-0.029652946,0.32866585,0.034025162,0.23687467,-0.5894519,0.19942796,-0.69101924,-8.355322,1.2350218e-05,-6.8954378e-06,-6.6600126e-07,0.0005204391,0.00075915636,-0.0002607369,0.25925115,0.04327901,0.38010594,0.0,0.0,0.0,0.0,0.0,2.4871574e-07,0.0008051861,0.026260901,3.91934e-06,8.412998e-05,8.94456e-05,3.1954576e-05,0.012029058,0.011952017,0.01246353,0.051747516,0.051737286,0.05649629,1.0451069e-11,1.0460689e-11,1.8081201e-11,2.1832461e-06,2.1812166e-06,5e-08,0.0,0.0,0.0,0.0,0.0,0.0,0.0,0.0,663,0.32169053,0.23768948,0.022026945,0.086751744,0.06130726,0.028183991,0.0,0.0,0.0,-0.007026,0,0,0,831,24,0,0,0
93026136,0.94271934,0.03536248,-0.030096004,0.3303395,-0.017325072,0.23722373,-0.7426209,0.1786879,-0.6721886,-8.5825615,1.2347877e-05,-7.0708625e-06,-6.969089e-07,0.00064778875,0.0008355544,-0.00022607572,0.25925115,0.04327901,0.38010594,0.0,0.0,0.0,0.0,0.0,2.3265048e-07,0.0008370773,0.02821174,3.9559445e-06,8.369902e-05,8.938189e-05,3.1906344e-05,0.012013949,0.011954859,0.01248855,0.05148652,0.051472094,0.05662717,1.0452439e-11,1.0461774e-11,1.8078882e-11,2.1693054e-06,2.169058e-06,5e-08,0.0,0.0,0.0,0.0,0.0,0.0,0.0,0.0,663,0.32087165,0.23796465,0.008626974,0.11320176,0.05445188,0.017804746,0.0,0.0,0.0,-0.007019,0,0,0,831,24,0,0,0
93234175,0.9427152,0.03517747,-0.03225022,0.3301675,-0.07727221,0.16814524,-0.86837184,0.16388926,-0.65594554,-8.801997,1.2403806e-05,-7.191142e-06,-7.362957e-07,0.0007363515,0.00090138725,-0.0002017243,0.25925115,0.04327901,0.38010594,0.0,0.0,0.0,0.0,0.0,2.5491906e-07,0.00088172324,0.028765894,3.951792e-06,8.324309e-05,8.9327565e-05,3.187428e-05,0.012058701,0.012013389,0.012662231,0.051460303,0.051441576,0.057072327,1.04558645e-11,1.0464833e-11,1.8068819e-11,2.1553617e-06,2.1572243e-06,5.000001e-08,0.0,0.0,0.0,0.0,0.0,0.0,0.0,0.0,663,0.32078323,0.23889816,0.016307686,0.07536494,0.058042094,0.042440176,0.0,0.0,0.0,-0.00698,0,0,0,831,24,0,0,0
93434127,0.94202846,0.040639054,-0.04210814,0.33039045,-0.05408886,0.1852499,-0.7257371,0.13385108,-0.6585799,-9.000609,1.2471161e-05,-7.37254e-06,-7.683805e-07,0.00080832647,0.0009392121,-0.00018882139,0.25925115,0.04327901,0.38010594,0.0,0.0,0.0,0.0,0.0,2.2638176e-07,0.000878709,0.029641064,4.0434334e-06,8.270367e-05,8.919153e-05,3.1935542e-05,0.0120547395,0.011994182,0.0126720425,0.051152907,0.051131718,0.057208523,1.0455517e-11,1.04640584e-11,1.8066305e-11,2.1407004e-06,2.144714e-06,5.0000008e-08,0.0,0.0,0.0,0.0,0.0,0.0,0.0,0.0,663,0.3198197,0.23918304,0.011262017,0.079965144,0.05707861,0.009553536,0.0,0.0,0.0,-0.0070309998,0,0,0,831,24,0,0,0
93634148,0.94212496,0.041900467,-0.04051211,0.330157,-0.066204235,0.15475695,-0.8453435,0.10080638,-0.65340465,-9.212981,1.2470883e-05,-7.5372977e-06,-8.008967e-07,0.0008945902,0.0009844346,-0.00016874218,0.25925115,0.04327901,0.38010594,0.0,0.0,0.0,0.0,0.0,1.8863908e-07,0.0007901882,0.027459228,4.0246346e-06,8.2236584e-05,8.914748e-05,3.1923362e-05,0.012053058,0.012005085,0.012752774,0.05086616,0.05084197,0.057331398,1.04552166e-11,1.0463267e-11,1.806357e-11,2.1263015e-06,2.1327264e-06,5.0000004e-08,0.0,0.0,0.0,0.0,0.0,0.0,0.0,0.0,663,0.31891713,0.23943976,0.015220374,0.09775458,0.058368325,0.025580991,0.0,0.0,0.0,-0.007005,0,0,0,831,24,0,0,0
93842124,0.94249874,0.04193354,-0.044217605,0.32860708,-0.022547659,0.16998097,-0.7754106,0.06694157,-0.64359766,-9.421482,1.2446299e-05,-7.681425e-06,-8.2479556e-07,0.0009619917,0.0010119057,-0.00015435943,0.25925115,0.04327901,0.38010594,0.0,0.0,0.0,0.0,0.0,2.1051616e-07,0.00085136644,0.02683823,4.0122954e-06,8.169113e-05,8.907791e-05,3.198579e-05,0.012091009,0.0120360395,0.012703752,0.050816245,0.050789714,0.05697659,1.0457876e-11,1.0465366e-11,1.806501e-11,2.1108358e-06,2.119787e-06,5e-08,0.0,0.0,0.0,0.0,0.0,0.0,0.0,0.0,663,0.3187569,0.2386977,0.014353297,0.09365838,0.054600418,0.020336233,0.0,0.0,0.0,-0.0070309998,0,0,0,831,24,0,0,0
94042139,0.94259906,0.040528353,-0.047778595,0.32799658,-0.05480496,0.16692904,-0.91953415,0.03690567,-0.6318882,-9.614163,1.242375e-05,-7.795238e-06,-8.5319107e-07,0.001001804,0.0010255241,-0.00014706938,0.25925115,0.04327901,0.38010594,0.0,0.0,0.0,0.0,0.0,2.0585114e-07,0.0008499356,0.028549993,4.014606e-06,8.1183214e-05,8.899618e-05,3.200363e-05,0.012095927,0.012061653,0.012753753,0.050521787,0.050493885,0.05710558,1.0455685e-11,1.0462585e-11,1.8062144e-11,2.0965576e-06,2.1082958e-06,5e-08,0.0,0.0,0.0,0.0,0.0,0.0,0.0,0.0,663,0.31782964,0.23896773,0.01811406,0.071139276,0.049071636,0.013438344,0.0,0.0,0.0,-0.007015,0,0,0,831,24,0,0,0
94245343,0.9427128,0.038376715,-0.051517405,0.32736212,-0.066974245,0.15353915,-0.9978358,0.012589253,-0.617587,-9.827618,1.2421362e-05,-7.883478e-06,-8.9136836e-07,0.0010411975,0.0010472537,-0.00013820683,0.25925115,0.04327901,0.38010594,0.0,0.0,0.0,0.0,0.0,2.5647455e-07,0.0008296228,0.027959133,4.017059e-06,8.0666505e-05,8.8899236e-05,3.2020813e-05,0.012100997,0.012073113,0.0128085185,0.050230533,0.05020262,0.05721584,1.04528235e-11,1.0459118e-11,1.8059153e-11,2.0823848e-06,2.0973232e-06,5e-08,0.0,0.0,0.0,0.0,0.0,0.0,0.0,0.0,663,0.3169119,0.23919833,0.014572163,0.0502126,0.050740745,0.037980724,0.0,0.0,0.0,-0.00701,0,0,0,831,24,0,0,0
94445320,0.9426771,0.041886557,-0.05194258,0.326967,0.046355523,0.14460596,-0.8823269,-8.7805805e-05,-0.6022438,-10.029651,1.2406101e-05,-7.9462e-06,-9.3096486e-07,0.0010556107,0.0010496615,-0.00013612164,0.25925115,0.04327901,0.38010594,0.0,0.0,0.0,0.0,0.0,2.5056835e-07,0.0008377659,0.02949481,4.0234395e-06,8.0141224e-05,8.881594e-05,3.204027e-05,0.012082892,0.012048593,0.01282616,0.05005908,0.050032478,0.057460368,1.0462484e-11,1.0468066e-11,1.8067688e-11,2.0681507e-06,2.0862738e-06,5e-08,0.0,0.0,0.0,0.0,0.0,0.0,0.0,0.0,663,0.3163725,0.23970893,0.019543465,0.042099983,0.045782916,0.012131913,0.0,0.0,0.0,-0.007035,0,0,0,831,24,0,0,0
94645314,0.94294006,0.038161587,-0.050444406,0.32689926,-0.027853457,0.16059493,-1.1374435,-0.012661939,-0.5710357,-10.23106,1.2306254e-05,-7.994854e-06,-9.525803e-07,0.0010566342,0.0010427696,-0.00013596936,0.25925115,0.04327901,0.38010594,0.0,0.0,0.0,0.0,0.0,2.8178053e-07,0.00083038554,0.031252407,3.9870865e-06,7.968804e-05,8.874397e-05,3.2004067e-05,0.012153964,0.012137951,0.012932963,0.049754754,0.049728937,0.05831732,1.0458998e-11,1.0463891e-11,1.806457e-11,2.0549949e-06,2.076644e-06,5.0000036e-08,0.0,0.0,0.0,0.0,0.0,0.0,0.0,0.0,663,0.31541035,0.24148978,0.014229865,0.07092124,0.037271336,0.026678305,0.0,0.0,0.0,-0.007039,0,0,0,831,24,0,0,0
94854947,0.9421059,0.041753605,-0.057391,0.3277185,0.010361467,0.1541124,-1.2043883,-0.026701793,-0.5414532,-10.479786,1.22322745e-05,-8.0498485e-06,-9.756523e-07,0.0010511044,0.0010367536,-0.00013690896,0.25925115,0.04327901,0.38010594,0.0,0.0,0.0,0.0,0.0,2.364889e-07,0.0008179897,0.03066237,4.079134e-06,7.908892e-05,8.850455e-05,3.199055e-05,0.012200326,0.012185989,0.012933388,0.049590353,0.049568027,0.058452215,1.0466244e-11,1.04704335e-11,1.8061394e-11,2.041013e-06,2.0669222e-06,5.0000008e-08,0.0,0.0,0.0,0.0,0.0,0.0,0.0,0.0,663,0.31489423,0.24176893,0.0010195827,0.068262935,0.030082349,0.014785516,0.0,0.0,0.0,-0.007007,0,0,0,831,24,0,0,0
95050120,0.94259304,0.033608023,-0.052903257,0.32800937,0.020439567,0.18111639,-1.4273365,-0.019160628,-0.50899845,-10.756551,1.2234558e-05,-8.005319e-06,-1.0200223e-06,0.0010473477,0.0010391164,-0.00013743648,0.25925115,0.04327901,0.38010594,0.0,0.0,0.0,0.0,0.0,2.732913e-07,0.0008915146,0.032868475,4.0074833e-06,7.8567085e-05,8.83332e-05,3.1944634e-05,0.012317776,0.012306788,0.012831034,0.049248684,0.04923093,0.058364984,1.04786405e-11,1.0482189e-11,1.8088711e-11,2.0269454e-06,2.0576897e-06,5.0000036e-08,0.0,0.0,0.0,0.0,0.0,0.0,0.0,0.0,663,0.3138146,0.24158846,0.009314382,0.092344575,0.023174992,0.02007147,0.0,0.0,0.0,-0.007035,0,0,0,831,24,0,0,0
95258120,0.9432101,0.025139857,-0.03833748,0.32901818,0.04995221,0.20636275,-1.8042998,-0.016909875,-0.46152547,-11.107185,1.2171987e-05,-8.0312875e-06,-1.0396084e-06,0.0010484623,0.0010523289,-0.00013504345,0.25925115,0.04327901,0.38010594,0.0,0.0,0.0,0.0,0.0,2.62237e-07,0.0009456854,0.034114346,3.8881203e-06,7.8084384e-05,8.81367e-05,3.181482e-05,0.0127083,0.012679272,0.012816416,0.04940847,0.049397413,0.059579067,1.0486782e-11,1.0489699e-11,1.8100792e-11,2.013429e-06,2.0489733e-06,5.0000057e-08,0.0,0.0,0.0,0.0,0.0,0.0,0.0,0.0,663,0.31433403,0.24408823,0.025639944,0.053390946,0.015651138,0.028668426,0.0,0.0,0.0,-0.007035,0,0,0,831,24,0,0,0
95458115,0.9433999,0.02016422,-0.042805955,0.32826465,-0.020617915,0.16338845,-2.2424383,-0.016022071,-0.4141342,-11.449803,1.2090224e-05,-7.99865e-06,-1.0625561e-06,0.00097238383,0.0010076478,-0.00015784313,0.25925115,0.04327901,0.38010594,0.0,0.0,0.0,0.0,0.0,3.0388694e-07,0.00090915797,0.032283485,3.8930893e-06,7.722218e-05,8.757769e-05,3.1834632e-05,0.013181388,0.013095655,0.012616311,0.049201597,0.049197987,0.058533233,1.04769604e-11,1.0479241e-11,1.8096668e-11,1.996637e-06,2.0381565e-06,5e-08,0.0,0.0,0.0,0.0,0.0,0.0,0.0,0.0,663,0.3136871,0.24193642,0.0075855297,0.06368698,0.011547446,0.08390685,0.0,0.0,0.0,-0.007039,0,0,0,831,24,0,0,0
95666114,0.9416366,0.025639854,-0.047841508,0.33222634,0.027219364,0.12733506,-2.4678097,-0.015224268,-0.3965075,-11.846908,1.2103182e-05,-8.027154e-06,-1.0846941e-06,0.0008403637,0.0009081876,-0.00019522409,0.25925115,0.04327901,0.38010594,0.0,0.0,0.0,0.0,0.0,2.7486328e-07,0.0009712768,0.032774515,4.0366003e-06,7.632709e-05,8.673996e-05,3.1792377e-05,0.013527188,0.013390024,0.012515939,0.04930325,0.049305223,0.05870834,1.0468721e-11,1.0470295e-11,1.8096061e-11,1.9790707e-06,2.026612e-06,5e-08,0.0,0.0,0.0,0.0,0.0,0.0,0.0,0.0,663,0.31401986,0.24229804,0.0008337336,0.052890208,0.014597177,0.08238656,0.0,0.0,0.0,-0.007039,0,0,0,831,24,0,0,0
95866126,0.94158775,0.019346917,-0.044418994,0.33326465,0.036034208,0.16069119,-2.6054335,-0.025985919,-0.35673225,-12.23973,1.1953835e-05,-8.047589e-06,-1.0738746e-06,0.0006917768,0.0008457083,-0.00023343401,0.25925115,0.04327901,0.38010594,0.0,0.0,0.0,0.0,0.0,2.8840137e-07,0.0009853698,0.0320609,4.018188e-06,7.545938e-05,8.597403e-05,3.1673877e-05,0.013618265,0.013458524,0.012306961,0.04915742,0.049160223,0.05853385,1.0457198e-11,1.0458047e-11,1.808027e-11,1.961651e-06,2.0153243e-06,5.0000033e-08,0.0,0.0,0.0,0.0,0.0,0.0,0.0,0.0,663,0.31355643,0.2419377,1.0613521e-05,0.07890891,0.008557172,0.057567593,0.0,0.0,0.0,-0.007028,0,0,0,831,24,0,0,0
96066141,0.9433108,0.019880567,-0.046100885,0.32809174,0.070688516,0.123637795,-2.7306387,-0.015651574,-0.32964498,-12.675299,1.19554825e-05,-8.037024e-06,-1.0874584e-06,0.00057460525,0.0007580312,-0.0002684519,0.25925115,0.04327901,0.38010594,0.0,0.0,0.0,0.0,0.0,3.0910493e-07,0.00095923804,0.030935913,3.9127326e-06,7.441719e-05,8.522365e-05,3.1792977e-05,0.013694024,0.013507989,0.012159713,0.04912054,0.04911984,0.05835694,1.0448573e-11,1.0448624e-11,1.8075912e-11,1.944131e-06,2.003968e-06,5.0000033e-08,0.0,0.0,0.0,0.0,0.0,0.0,0.0,0.0,663,0.31343323,0.24157181,0.008984463,0.04143488,0.006807039,0.08058278,0.0,0.0,0.0,-0.007015,0,0,0,831,24,0,0,0
96269350,0.94488925,0.020673286,-0.038193177,0.32449692,0.14885856,0.12664245,-2.8911643,0.015326301,-0.31516513,-13.116359,1.2017329e-05,-8.003267e-06,-1.0987324e-06,0.00043086504,0.0006308013,-0.00031465015,0.25925115,0.04327901,0.38010594,0.0,0.0,0.0,0.0,0.0,2.8674214e-07,0.0009758365,0.028733602,3.7730895e-06,7.345196e-05,8.448988e-05,3.18248e-05,0.013893163,0.013666862,0.011948978,0.049198113,0.049189504,0.05831112,1.0451422e-11,1.0450521e-11,1.8083115e-11,1.9269635e-06,1.9927409e-06,5.0000025e-08,0.0,0.0,0.0,0.0,0.0,0.0,0.0,0.0,663,0.313668,0.24147695,0.000671172,0.066873945,0.007717334,0.12438534,0.0,0.0,0.0,-0.007005,0,0,0,831,24,0,0,0
96469327,0.94548184,0.019059071,-0.03608629,0.3231077,0.14921063,0.05102875,-2.9841907,0.05348734,-0.30130285,-13.578348,1.2037897e-05,-7.938765e-06,-1.091372e-06,0.00030477543,0.00052608224,-0.00035755493,0.25925115,0.04327901,0.38010594,0.0,0.0,0.0,0.0,0.0,2.7095086e-07,0.00094255735,0.029495554,3.7246632e-06,7.247298e-05,8.359975e-05,3.1828768e-05,0.01387497,0.013628939,0.01184133,0.049198467,0.04917816,0.05812516,1.0444268e-11,1.0442247e-11,1.8078478e-11,1.9095637e-06,1.981068e-06,5.000003e-08,0.0,0.0,0.0,0.0,0.0,0.0,0.0,0.0,663,0.3136505,0.24109161,0.0025262493,0.05577249,0.007684282,0.08829021,0.0,0.0,0.0,-0.007026,0,0,0,831,24,0,0,0
96672514,0.9459647,0.023824971,-0.037283212,0.3212369,0.16912399,-0.0043216236,-2.9817963,0.09001633,-0.29860228,-14.037907,1.2033533e-05,-7.883348e-06,-1.0753699e-06,0.00014988998,0.00041385056,-0.00040729746,0.25925115,0.04327901,0.38010594,0.0,0.0,0.0,0.0,0.0,3.0620717e-07,0.0009529943,0.029587744,3.7008558e-06,7.149599e-05,8.272165e-05,3.1875443e-05,0.013768425,0.013520057,0.011725619,0.049318876,0.049283322,0.05807615,1.0450362e-11,1.0447061e-11,1.8085332e-11,1.893171e-06,1.9701965e-06,5.0000057e-08,0.0,0.0,0.0,0.0,0.0,0.0,0.0,0.0,663,0.31400988,0.24098994,0.019219667,0.036997184,0.0073849796,0.13189882,0.0,0.0,0.0,-0.007039,0,0,0,831,24,0,0,0
96880553,0.9458995,0.029217638,-0.03225756,0.32152772,0.14615765,-0.027775275,-3.120144,0.12456406,-0.29672277,-14.573765,1.1997399e-05,-7.838367e-06,-1.0470715e-06,4.544754e-05,0.00035013375,-0.00044088034,0.25925115,0.04327901,0.38010594,0.0,0.0,0.0,0.0,0.0,2.860036e-07,0.0009139181,0.03225234,3.6930157e-06,7.0580725e-05,8.180177e-05,3.1855237e-05,0.013817706,0.01355742,0.011631028,0.04961588,0.049562663,0.058180492,1.0449949e-11,1.04451925e-11,1.8084596e-11,1.8767803e-06,1.9591569e-06,5.0000036e-08,0.0,0.0,0.0,0.0,0.0,0.0,0.0,0.0,663,0.31492624,0.24120633,0.025158204,0.025407484,0.0058412584,0.09954834,0.0,0.0,0.0,-0.0069999998,0,0,0,831,24,0,0,0
97080508,0.9456107,0.029205395,-0.03782921,0.3217709,0.083387755,-0.04036513,-3.287761,0.15801609,-0.29713362,-15.133657,1.1998822e-05,-7.751997e-06,-1.0188639e-06,-2.0661168e-05,0.00029046292,-0.0004680005,0.25925115,0.04327901,0.38010594,0.0,0.0,0.0,0.0,0.0,2.423495e-07,0.00088585855,0.030771965,3.7288028e-06,6.964921e-05,8.0807695e-05,3.185787e-05,0.013829588,0.013558521,0.011506123,0.049604528,0.049534623,0.05789769,1.04469e-11,1.0440549e-11,1.8079909e-11,1.8607763e-06,1.948361e-06,5e-08,0.0,0.0,0.0,0.0,0.0,0.0,0.0,0.0,663,0.3148637,0.24061939,0.0085398555,0.04131033,0.0077063898,0.055732355,0.0,0.0,0.0,-0.007046,0,0,0,831,24,0,0,0
97280512,0.9446792,0.033766236,-0.036104046,0.32424936,0.121606715,-0.06869353,-3.351492,0.19158919,-0.3052642,-15.707413,1.2020786e-05,-7.677127e-06,-1.0073542e-06,-9.2834045e-05,0.00022409369,-0.00049616856,0.25925115,0.04327901,0.38010594,0.0,0.0,0.0,0.0,0.0,2.214373e-07,0.0008817837,0.030083233,3.7857435e-06,6.882788e-05,7.9855185e-05,3.17844e-05,0.013681152,0.013424694,0.01137428,0.04958165,0.049495686,0.057634164,1.0445571e-11,1.0437503e-11,1.8075319e-11,1.8459136e-06,1.9384042e-06,5.0000036e-08,0.0,0.0,0.0,0.0,0.0,0.0,0.0,0.0,663,0.3147655,0.24007116,0.0070489952,0.04100554,0.011580559,0.056800697,0.0,0.0,0.0,-0.007043,0,0,0,831,24,0,0,0
97488522,0.94391847,0.038341716,-0.03597711,0.32596573,0.10062013,-0.06849917,-3.3891547,0.2299732,-0.31606692,-16.330063,1.2043245e-05,-7.581e-06,-9.735737e-07,-0.00014195331,0.00017287635,-0.00051981065,0.25925115,0.04327901,0.38010594,0.0,0.0,0.0,0.0,0.0,2.073551e-07,0.0008621524,0.03025932,3.834331e-06,6.8035326e-05,7.895369e-05,3.1702348e-05,0.0134477755,0.013235078,0.011299649,0.049802482,0.0497009,0.057702277,1.044897e-11,1.0439052e-11,1.8063481e-11,1.8320989e-06,1.9292238e-06,5.0000015e-08,0.0,0.0,0.0,0.0,0.0,0.0,0.0,0.0,663,0.31544158,0.24021298,0.013330069,0.052821405,0.014473426,0.07122257,0.0,0.0,0.0,-0.0070309998,0,0,0,831,24,0,0,0
97688525,0.9436836,0.042307608,-0.04081408,0.3255851,0.061421245,-0.079820424,-3.4854603,0.26916853,-0.3227437,-16.953842,1.2063962e-05,-7.4508657e-06,-9.5174437e-07,-0.00017045185,0.00013140374,-0.000539441,0.25925115,0.04327901,0.38010594,0.0,0.0,0.0,0.0,0.0,2.0735943e-07,0.00079925096,0.028604448,3.8667927e-06,6.724821e-05,7.812836e-05,3.1724376e-05,0.013276508,0.013091634,0.011223067,0.049755193,0.049643315,0.057468683,1.045112e-11,1.0439281e-11,1.8059207e-11,1.8194893e-06,1.921145e-06,5.0000036e-08,0.0,0.0,0.0,0.0,0.0,0.0,0.0,0.0,663,0.31527528,0.23972626,0.010471674,0.07011884,0.020534536,0.054846745,0.0,0.0,0.0,-0.007036,0,0,0,831,24,0,0,0
97890933,0.94223565,0.048896056,-0.04420638,0.32840052,0.04005112,-0.042491548,-3.3752213,0.30012944,-0.32342204,-17.620348,1.2048303e-05,-7.3028505e-06,-9.035258e-07,-0.00018598081,0.00010870117,-0.00055446406,0.25925115,0.04327901,0.38010594,0.0,0.0,0.0,0.0,0.0,2.245268e-07,0.00077769725,0.026090104,3.9791344e-06,6.6598535e-05,7.73194e-05,3.167366e-05,0.012941683,0.01281447,0.011134581,0.049696423,0.049578387,0.057266105,1.0454761e-11,1.0440934e-11,1.8055075e-11,1.8081325e-06,1.9143267e-06,5.0000036e-08,0.0,0.0,0.0,0.0,0.0,0.0,0.0,0.0,663,0.31507906,0.23930338,0.013122607,0.06527667,0.02738775,0.0007885768,0.0,0.0,0.0,-0.007021,0,0,0,831,24,0,0,0
98098139,0.9425742,0.04026834,-0.03520555,0.32968593,0.0018730308,0.05920566,-3.3112533,0.32032102,-0.31056568,-18.256475,1.20272125e-05,-7.2170997e-06,-8.472818e-07,-0.00023084882,7.949614e-05,-0.00057381066,0.25925115,0.04327901,0.38010594,0.0,0.0,0.0,0.0,0.0,2.4851226e-07,0.0007826182,0.027194083,3.91523e-06,6.61504e-05,7.6750235e-05,3.157255e-05,0.012732244,0.012657964,0.01095165,0.0500056,0.049886465,0.056652505,1.0474506e-11,1.0458725e-11,1.8066184e-11,1.7977475e-06,1.9086883e-06,5e-08,0.0,0.0,0.0,0.0,0.0,0.0,0.0,0.0,663,0.31605706,0.23801787,0.025406927,0.032970622,0.028280012,0.07058623,0.0,0.0,0.0,-0.007045,0,0,0,831,24,0,0,0
98298135,0.9428863,0.033461776,-0.039234977,0.3290993,-0.0808148,0.0911649,-3.202144,0.33204877,-0.28735283,-18.84982,1.2038241e-05,-7.1051445e-06,-7.992758e-07,-0.00027769277,4.1940413e-05,-0.0005956002,0.25925115,0.04327901,0.38010594,0.0,0.0,0.0,0.0,0.0,2.5036587e-07,0.00078903046,0.026750252,3.8974927e-06,6.569068e-05,7.621502e-05,3.1575302e-05,0.012480581,0.012445652,0.010954324,0.049804535,0.049692687,0.05720635,1.0478301e-11,1.0460585e-11,1.806145e-11,1.7896092e-06,1.9045589e-06,5.000004e-08,0.0,0.0,0.0,0.0,0.0,0.0,0.0,0.0,663,0.3154318,0.2391785,0.033108898,0.04477055,0.031417,0.10093246,0.0,0.0,0.0,-0.007019,0,0,0,831,24,0,0,0
98498148,0.9434664,0.024069076,-0.03837666,0.32835814,-0.0915048,0.12931937,-3.2025697,0.33253077,-0.25640824,-19.432844,1.204781e-05,-7.010031e-06,-7.460574e-07,-0.00031941888,1.0539067e-05,-0.0006145665,0.25925115,0.04327901,0.38010594,0.0,0.0,0.0,0.0,0.0,2.58094e-07,0.00080981606,0.026832396,3.8500193e-06,6.531442e-05,7.57717e-05,3.1562344e-05,0.01235342,0.012335363,0.0108323265,0.049599,0.04949813,0.05697251,1.04841014e-11,1.0464437e-11,1.8058256e-11,1.7819158e-06,1.9012084e-06,5.000006e-08,0.0,0.0,0.0,0.0,0.0,0.0,0.0,0.0,663,0.31479698,0.23868915,0.039410703,0.032402985,0.0336125,0.03833105,0.0,0.0,0.0,-0.007006,0,0,0,831,24,0,0,0
98705342,0.9444138,0.017190715,-0.037816152,0.3261244,-0.0977409,0.16432917,-3.2301357,0.3295268,-0.20987839,-20.07086,1.2023497e-05,-6.898776e-06,-6.8412646e-07,-0.00034941264,-1.089368e-05,-0.0006295317,0.25925115,0.04327901,0.38010594,0.0,0.0,0.0,0.0,0.0,2.4922807e-07,0.0008544646,0.026841221,3.786786e-06,6.492013e-05,7.537457e-05,3.1610947e-05,0.0123545155,0.012344021,0.010652994,0.049693845,0.049603723,0.056243595,1.04948316e-11,1.0473156e-11,1.8059243e-11,1.7743812e-06,1.8982095e-06,5e-08,0.0,0.0,0.0,0.0,0.0,0.0,0.0,0.0,663,0.31511515,0.23715732,0.021643357,0.050379794,0.033622943,0.012214086,0.0,0.0,0.0,-0.007011,0,0,0,831,24,0,0,0
98905347,0.944883,0.012968734,-0.03266342,0.3255165,-0.07075115,0.18744671,-3.2357414,0.33619627,-0.17051268,-20.684153,1.2069061e-05,-6.813436e-06,-6.3586236e-07,-0.0003678451,-3.121364e-05,-0.00063998014,0.25925115,0.04327901,0.38010594,0.0,0.0,0.0,0.0,0.0,2.2017853e-07,0.00083868694,0.026374301,3.7424709e-06,6.462815e-05,7.5034084e-05,3.1588952e-05,0.012242632,0.012239284,0.010528654,0.049424093,0.049346246,0.055992782,1.0499114e-11,1.047554e-11,1.8054978e-11,1.7682577e-06,1.8959881e-06,5e-08,0.0,0.0,0.0,0.0,0.0,0.0,0.0,0.0,663,0.31427747,0.23662794,0.025026409,0.04377249,0.037449688,0.015435709,0.0,0.0,0.0,-0.007006,0,0,0,831,24,0,0,0
99108528,0.9450199,0.011184153,-0.03312555,0.3251385,-0.049965873,0.17087755,-3.2326412,0.3393855,-0.13074987,-21.318802,1.2088366e-05,-6.7504175e-06,-5.8067326e-07,-0.0003933051,-4.96128e-05,-0.0006528877,0.25925115,0.04327901,0.38010594,0.0,0.0,0.0,0.0,0.0,2.1550954e-07,0.00081390503,0.02468144,3.7367731e-06,6.436475e-05,7.470737e-05,3.1591146e-05,0.012214316,0.012210984,0.010431091,0.04931347,0.049247194,0.055890538,1.0516507e-11,1.0491073e-11,1.8063818e-11,1.7628632e-06,1.8942482e-06,5.0000036e-08,0.0,0.0,0.0,0.0,0.0,0.0,0.0,0.0,663,0.3139437,0.2364118,0.032349918,0.022019785,0.038423184,0.035240654,0.0,0.0,0.0,-0.007025,0,0,0,831,24,0,0,0
99316525,0.9447351,0.006752615,-0.030999701,0.32629576,-0.079758465,0.14390932,-3.2365956,0.34053206,-0.09305375,-21.974907,1.2112654e-05,-6.683664e-06,-5.23029e-07,-0.0004015705,-5.922537e-05,-0.0006589836,0.25925115,0.04327901,0.38010594,0.0,0.0,0.0,0.0,0.0,1.7761964e-07,0.00082260725,0.026612075,3.748787e-06,6.4184045e-05,7.438981e-05,3.151586e-05,0.01218643,0.012188365,0.010393756,0.04939326,0.049337313,0.055983905,1.05267834e-11,1.0499523e-11,1.8053802e-11,1.7580762e-06,1.892856e-06,5.0000068e-08,0.0,0.0,0.0,0.0,0.0,0.0,0.0,0.0,663,0.3142142,0.23660918,0.02574622,0.025187263,0.034225397,0.032434504,0.0,0.0,0.0,-0.007028,0,0,0,831,24,0,0,0
99516536,0.9444403,0.005396465,-0.030052619,0.32726192,-0.12141461,0.10101459,-3.2340667,0.33279097,-0.06965479,-22.614584,1.2130274e-05,-6.6780035e-06,-4.570901e-07,-0.0003972741,-6.492031e-05,-0.0006582038,0.25925115,0.04327901,0.38010594,0.0,0.0,0.0,0.0,0.0,1.8482571e-07,0.0008194462,0.025652492,3.7684156e-06,6.403255e-05,7.412145e-05,3.1478885e-05,0.012071412,0.012075138,0.010331881,0.049062833,0.04901793,0.055786554,1.05298695e-11,1.05008e-11,1.8050816e-11,1.7539119e-06,1.8918157e-06,5.0000068e-08,0.0,0.0,0.0,0.0,0.0,0.0,0.0,0.0,663,0.31317848,0.23619178,0.026858045,0.041479725,0.034447163,0.001328173,0.0,0.0,0.0,-0.007017,0,0,0,831,24,0,0,0
99719032,0.9440838,0.006696136,-0.034655135,0.32781103,-0.111508094,0.0646251,-3.165492,0.32042038,-0.048112407,-23.268913,1.2126957e-05,-6.6186612e-06,-3.8867964e-07,-0.00039828382,-6.9857335e-05,-0.00065985083,0.25925115,0.04327901,0.38010594,0.0,0.0,0.0,0.0,0.0,1.8927203e-07,0.0008355902,0.025474364,3.8045002e-06,6.3895895e-05,7.388293e-05,3.1468993e-05,0.012009431,0.012006967,0.010264046,0.048798405,0.048763826,0.05557192,1.0533702e-11,1.0502877e-11,1.8046238e-11,1.7502017e-06,1.8909874e-06,5.0000057e-08,0.0,0.0,0.0,0.0,0.0,0.0,0.0,0.0,663,0.31234953,0.23573698,0.02877834,0.028777257,0.031272165,0.01278576,0.0,0.0,0.0,-0.006921,0,0,0,831,24,0,0,0
99918963,0.9438301,0.0022466863,-0.032080445,0.32886282,-0.1369064,0.066739626,-3.1777387,0.2957533,-0.026776213,-23.948391,1.2082489e-05,-6.63677e-06,-3.1537257e-07,-0.0003783865,-7.513431e-05,-0.00064984063,0.25925115,0.04327901,0.38010594,0.0,0.0,0.0,0.0,0.0,2.0260497e-07,0.00090175355,0.026423777,3.818632e-06,6.383661e-05,7.37016e-05,3.1431206e-05,0.0119980145,0.011993789,0.010220469,0.048677657,0.048652224,0.055491958,1.05497685e-11,1.051732e-11,1.8054886e-11,1.7469546e-06,1.8902861e-06,5.0000025e-08,0.0,0.0,0.0,0.0,0.0,0.0,0.0,0.0,663,0.3119774,0.23556732,0.021873698,0.07061137,0.028073976,0.0017676136,0.0,0.0,0.0,-0.00699,0,0,0,831,24,0,0,0
100118976,0.943646,0.0027488014,-0.03697881,0.32887256,-0.15283579,0.0050030905,-3.143048,0.2788153,-0.019243408,-24.60224,1.2105895e-05,-6.605308e-06,-2.5964826e-07,-0.0003667251,-7.732818e-05,-0.000643699,0.25925115,0.04327901,0.38010594,0.0,0.0,0.0,0.0,0.0,1.8517481e-07,0.00081813184,0.025073707,3.8445346e-06,6.376105e-05,7.355368e-05,3.1436222e-05,0.011985655,0.011969556,0.010246985,0.04852811,0.04851038,0.055977814,1.0555747e-11,1.0521791e-11,1.8051694e-11,1.7441644e-06,1.889561e-06,5e-08,0.0,0.0,0.0,0.0,0.0,0.0,0.0,0.0,663,0.31151003,0.23659632,0.03167879,0.03904701,0.028868167,0.005634139,0.0,0.0,0.0,-0.006979,0,0,0,831,24,0,0,0
100326934,0.9435533,0.0052518635,-0.043844663,0.3282638,-0.15474191,-0.0908404,-3.0775442,0.26155683,-0.024620777,-25.27419,1.2128336e-05,-6.56152e-06,-2.0472318e-07,-0.00035696416,-8.191411e-05,-0.0006357585,0.25925115,0.04327901,0.38010594,0.0,0.0,0.0,0.0,0.0,2.211342e-07,0.00080297247,0.027095973,3.874143e-06,6.36972e-05,7.3440686e-05,3.147924e-05,0.012050364,0.01201232,0.010218376,0.048742343,0.048730154,0.055929244,1.0565308e-11,1.0529932e-11,1.8052436e-11,1.741226e-06,1.8886196e-06,5e-08,0.0,0.0,0.0,0.0,0.0,0.0,0.0,0.0,663,0.31220585,0.23649365,0.018476821,0.0664499,0.027209444,0.016000992,0.0,0.0,0.0,-0.00702,0,0,0,831,24,0,0,0
100526911,0.94361794,0.011637606,-0.04772505,0.3273715,-0.13694488,-0.10866645,-2.999673,0.23642044,-0.037728086,-25.916561,1.2092617e-05,-6.548153e-06,-1.4542145e-07,-0.00033839015,-9.185194e-05,-0.0006241779,0.25925115,0.04327901,0.38010594,0.0,0.0,0.0,0.0,0.0,2.0313453e-07,0.0007824474,0.024321394,3.8892017e-06,6.365436e-05,7.339125e-05,3.1546755e-05,0.012063459,0.012003503,0.010236715,0.04872809,0.04871937,0.05637457,1.0569458e-11,1.0532757e-11,1.8060034e-11,1.7384642e-06,1.8873545e-06,5.000007e-08,0.0,0.0,0.0,0.0,0.0,0.0,0.0,0.0,663,0.31216574,0.2374333,0.025039684,0.052054208,0.025392149,0.0005727461,0.0,0.0,0.0,-0.007042,0,0,0,831,24,0,0,0
100726952,0.9434724,0.011127636,-0.050661813,0.32736766,-0.10961576,-0.116979994,-2.7858436,0.21711674,-0.050030217,-26.53476,1.204639e-05,-6.532692e-06,-6.734886e-08,-0.0003227686,-0.00010472636,-0.00061488117,0.25925115,0.04327901,0.38010594,0.0,0.0,0.0,0.0,0.0,1.9350927e-07,0.0007841718,0.023732955,3.9119186e-06,6.366746e-05,7.333531e-05,3.1547042e-05,0.012097449,0.012000401,0.01017848,0.048713043,0.04870526,0.056040574,1.0573418e-11,1.053568e-11,1.8056603e-11,1.7352572e-06,1.8854524e-06,5.0000036e-08,0.0,0.0,0.0,0.0,0.0,0.0,0.0,0.0,663,0.31211907,0.2367289,0.019511076,0.037470233,0.025612349,0.038371902,0.0,0.0,0.0,-0.0070019998,0,0,0,831,24,0,0,0
100934954,0.94299656,0.013347272,-0.051203396,0.32856894,-0.028793165,-0.08670171,-2.4709423,0.20117332,-0.04487392,-27.124811,1.1903317e-05,-6.4852143e-06,2.3572927e-08,-0.000300298,-0.00014532651,-0.00059459434,0.25925115,0.04327901,0.38010594,0.0,0.0,0.0,0.0,0.0,2.1053788e-07,0.0007105348,0.024283854,3.94918e-06,6.373618e-05,7.330193e-05,3.1525484e-05,0.012245136,0.012064407,0.0101360865,0.048907705,0.04889717,0.055979602,1.0579522e-11,1.0541086e-11,1.8057313e-11,1.731167e-06,1.8822147e-06,5e-08,0.0,0.0,0.0,0.0,0.0,0.0,0.0,0.0,663,0.3127377,0.23660009,0.02719705,0.107988276,0.027544718,0.051754974,0.0,0.0,0.0,-0.007012,0,0,0,831,24,0,0,0
101134934,0.94330406,0.009055209,-0.043014657,0.32900634,0.0018668553,-0.07169276,-2.359668,0.19846568,-0.05126068,-27.694536,1.1860343e-05,-6.5173845e-06,9.619945e-08,-0.00024937154,-0.00017606346,-0.0005625569,0.25925115,0.04327901,0.38010594,0.0,0.0,0.0,0.0,0.0,1.9242964e-07,0.0007299277,0.023712333,3.9020924e-06,6.383479e-05,7.334678e-05,3.1470532e-05,0.01234512,0.012119187,0.010145824,0.04882747,0.04880934,0.056342326,1.0581976e-11,1.05433344e-11,1.8054296e-11,1.7257164e-06,1.8769099e-06,5e-08,0.0,0.0,0.0,0.0,0.0,0.0,0.0,0.0,663,0.3124689,0.23736538,0.020011967,0.07827056,0.020050108,0.07740617,0.0,0.0,0.0,-0.007019,0,0,0,831,24,0,0,0
101342918,0.94320697,0.015703341,-0.04636741,0.32857916,0.015741343,-0.08417883,-2.1589055,0.19674835,-0.05614543,-28.24901,1.1770593e-05,-6.533005e-06,1.6407314e-07,-0.00020968921,-0.00022193474,-0.0005339515,0.25925115,0.04327901,0.38010594,0.0,0.0,0.0,0.0,0.0,1.7220148e-07,0.000675898,0.024138525,3.928472e-06,6.38652e-05,7.3352756e-05,3.1547395e-05,0.012536821,0.01224819,0.01010836,0.049026754,0.048994213,0.056217387,1.0587699e-11,1.0549033e-11,1.8066704e-11,1.7194808e-06,1.8705443e-06,5e-08,0.0,0.0,0.0,0.0,0.0,0.0,0.0,0.0,663,0.31308302,0.23710206,0.019194255,0.09544302,0.017585091,0.046578526,0.0,0.0,0.0,-0.007035,0,0,0,831,24,0,0,0
101542955,0.943011,0.019962626,-0.047664866,0.32872444,0.013301096,-0.10759799,-1.9700205,0.20714171,-0.0648569,-28.746855,1.172547e-05,-6.5090694e-06,2.2799998e-07,-0.00018551113,-0.00025531236,-0.00050499715,0.25925115,0.04327901,0.38010594,0.0,0.0,0.0,0.0,0.0,1.69495e-07,0.0006922028,0.02243159,3.9482343e-06,6.390666e-05,7.334077e-05,3.1539555e-05,0.012669841,0.012319409,0.010043178,0.048893433,0.04884248,0.055833634,1.0587936e-11,1.0549598e-11,1.8063499e-11,1.7117146e-06,1.8621012e-06,5.0000033e-08,0.0,0.0,0.0,0.0,0.0,0.0,0.0,0.0,663,0.31262743,0.23629142,0.032410197,0.073574774,0.017346699,0.07306525,0.0,0.0,0.0,-0.006998,0,0,0,831,24,0,0,0
101742924,0.94297796,0.018970117,-0.048330303,0.3287808,0.056979995,-0.067226954,-1.7086359,0.22018835,-0.07439014,-29.1995,1.1700743e-05,-6.4828314e-06,2.8287286e-07,-0.00016511009,-0.00028085714,-0.000478022,0.25925115,0.04327901,0.38010594,0.0,0.0,0.0,0.0,0.0,2.4170038e-07,0.00074352976,0.022895284,3.964952e-06,6.395129e-05,7.3317584e-05,3.162871e-05,0.0128556695,0.012432026,0.010058158,0.048799545,0.048723828,0.056217857,1.0589355e-11,1.0551517e-11,1.8083033e-11,1.7025741e-06,1.8516934e-06,5e-08,0.0,0.0,0.0,0.0,0.0,0.0,0.0,0.0,663,0.31228733,0.23710304,0.01913865,0.02469554,0.017739758,0.079916425,0.0,0.0,0.0,-0.0070309998,0,0,0,831,24,0,0,0
101949353,0.9436561,0.014854889,-0.041262068,0.32800925,0.060808472,-0.083712116,-1.4845355,0.23114178,-0.0802831,-29.643606,1.1659467e-05,-6.4986725e-06,3.4285236e-07,-0.00012257032,-0.000325286,-0.0004423943,0.25925115,0.04327901,0.38010594,0.0,0.0,0.0,0.0,0.0,2.0192445e-07,0.00075731165,0.024787791,3.90015e-06,6.400105e-05,7.3345174e-05,3.1623094e-05,0.013125473,0.0126158,0.010098773,0.04898455,0.048874874,0.056852963,1.0594813e-11,1.0557828e-11,1.8083942e-11,1.6917114e-06,1.8390404e-06,5.0000036e-08,0.0,0.0,0.0,0.0,0.0,0.0,0.0,0.0,663,0.3128249,0.23843859,0.023761863,0.034877766,0.016536335,0.13246486,0.0,0.0,0.0,-0.007001,0,0,0,831,24,0,0,0
102148513,0.9438708,0.016243812,-0.038278893,0.3276872,0.08504016,-0.08485159,-1.3822436,0.23833628,-0.0749798,-30.054487,1.1543334e-05,-6.489456e-06,4.0229745e-07,-8.57753e-05,-0.00040905844,-0.00040008954,0.25925115,0.04327901,0.38010594,0.0,0.0,0.0,0.0,0.0,2.1357172e-07,0.00077192066,0.024656177,3.884633e-06,6.3998916e-05,7.329629e-05,3.165641e-05,0.01319029,0.012661067,0.010082504,0.048826795,0.048682157,0.05706512,1.0594004e-11,1.0558022e-11,1.8089323e-11,1.6788833e-06,1.8238915e-06,5.0000036e-08,0.0,0.0,0.0,0.0,0.0,0.0,0.0,0.0,663,0.31226423,0.23888308,0.018328562,0.07330601,0.017329307,0.12388482,0.0,0.0,0.0,-0.00704,0,0,0,831,24,0,0,0
102348511,0.94340974,0.019093085,-0.031582657,0.32956958,0.10297966,-0.052449413,-1.2317649,0.2468476,-0.064311035,-30.451273,1.1401808e-05,-6.482426e-06,4.803994e-07,-4.810191e-05,-0.0005105605,-0.0003535846,0.25925115,0.04327901,0.38010594,0.0,0.0,0.0,0.0,0.0,2.7243942e-07,0.0007924213,0.024901638,3.8979406e-06,6.404142e-05,7.321017e-05,3.152794e-05,0.01324849,0.0126986215,0.010076849,0.048660032,0.048478838,0.057308305,1.0594142e-11,1.0559375e-11,1.8073296e-11,1.6649802e-06,1.807349e-06,5.000006e-08,0.0,0.0,0.0,0.0,0.0,0.0,0.0,0.0,663,0.31167108,0.23939154,0.015766364,0.0831205,0.02474883,0.1435544,0.0,0.0,0.0,-0.007044,0,0,0,831,24,0,0,0
102556518,0.94193786,0.016610665,-0.036290932,0.33340687,0.046347577,-0.07480255,-1.0407522,0.25157985,-0.05955755,-30.871899,1.1308235e-05,-6.498278e-06,5.498742e-07,3.1303165e-09,-0.00060276105,-0.00029438557,0.25925115,0.04327901,0.38010594,0.0,0.0,0.0,0.0,0.0,2.6304525e-07,0.0007996595,0.025586434,4.0056984e-06,6.411152e-05,7.302634e-05,3.146219e-05,0.013411194,0.0128151085,0.010025545,0.04885002,0.0486257,0.057045333,1.0600753e-11,1.05672094e-11,1.8074481e-11,1.6504845e-06,1.7900063e-06,5.0000068e-08,0.0,0.0,0.0,0.0,0.0,0.0,0.0,0.0,663,0.31221104,0.23884165,0.019573644,0.04246686,0.026987864,0.0882734,0.0,0.0,0.0,-0.007036,0,0,0,831,24,0,0,0
102756515,0.9411354,0.012072475,-0.04344982,0.33500847,-0.013885334,-0.050349947,-0.8048378,0.2355607,-0.04804848,-31.192215,1.1176878e-05,-6.5227105e-06,6.347278e-07,4.340043e-05,-0.00070256,-0.00025264913,0.25925115,0.04327901,0.38010594,0.0,0.0,0.0,0.0,0.0,2.204571e-07,0.0008047144,0.026833408,4.07524e-06,6.410783e-05,7.284663e-05,3.1441657e-05,0.013501921,0.012868687,0.010055746,0.04876622,0.048501953,0.057322245,1.06047384e-11,1.05723555e-11,1.8071685e-11,1.6349636e-06,1.771275e-06,5.000007e-08,0.0,0.0,0.0,0.0,0.0,0.0,0.0,0.0,663,0.31187847,0.23942064,0.031460036,0.07053435,0.031117683,0.10123359,0.0,0.0,0.0,-0.007038,0,0,0,831,24,0,0,0
102956549,0.9405971,0.014140833,-0.046693508,0.33600116,-0.03170424,-0.12514217,-0.5870628,0.2389524,-0.07049959,-31.466476,1.1257205e-05,-6.5352806e-06,6.933314e-07,6.769535e-05,-0.00069906615,-0.0002113624,0.25925115,0.04327901,0.38010594,0.0,0.0,0.0,0.0,0.0,2.9633446e-07,0.0008694119,0.027299294,4.122501e-06,6.406155e-05,7.26763e-05,3.1422278e-05,0.013616922,0.012935393,0.00997554,0.048704,0.048397742,0.056787573,1.06104864e-11,1.0579247e-11,1.806894e-11,1.6180802e-06,1.7508239e-06,5.0000036e-08,0.0,0.0,0.0,0.0,0.0,0.0,0.0,0.0,663,0.31161153,0.23830143,0.01943697,0.06757381,0.021798832,0.08120748,0.0,0.0,0.0,-0.007005,0,0,0,831,24,0,0,0
103164510,0.9400073,0.00846991,-0.050874557,0.33723354,-0.028733337,-0.13328065,-0.4363533,0.23065874,-0.077074505,-31.67331,1.1224123e-05,-6.5067147e-06,7.7095e-07,7.302473e-05,-0.00074388855,-0.00017725077,0.25925115,0.04327901,0.38010594,0.0,0.0,0.0,0.0,0.0,4.0255927e-07,0.0008757535,0.029506855,4.171975e-06,6.40102e-05,7.245601e-05,3.1369396e-05,0.013656793,0.0129787205,0.0100238845,0.048941612,0.04858706,0.05730506,1.0622347e-11,1.05922805e-11,1.805887e-11,1.5996422e-06,1.7285083e-06,5.000003e-08,0.0,0.0,0.0,0.0,0.0,0.0,0.0,0.0,663,0.31229582,0.23938476,0.029459624,0.023247855,0.02647075,0.07676181,0.0,0.0,0.0,-0.007043,0,0,0,831,24,0,0,0
103364543,0.93968487,0.023742398,-0.043170344,0.33847478,0.036709096,-0.19245905,-0.3294959,0.2275986,-0.11360695,-31.855518,1.1237228e-05,-6.562218e-06,8.4227605e-07,0.00011570155,-0.00077476236,-0.00014750203,0.25925115,0.04327901,0.38010594,0.0,0.0,0.0,0.0,0.0,3.331061e-07,0.0008529949,0.028754411,4.179681e-06,6.395071e-05,7.2349285e-05,3.130698e-05,0.013514377,0.012887859,0.009916218,0.04887811,0.04848861,0.056731187,1.0631455e-11,1.0602444e-11,1.8056204e-11,1.5814558e-06,1.7064237e-06,5.0000022e-08,0.0,0.0,0.0,0.0,0.0,0.0,0.0,0.0,663,0.3120364,0.2381831,0.033149075,0.046756506,0.02023212,0.08333521,0.0,0.0,0.0,-0.00701,0,0,0,831,24,0,0,0
103566930,0.93906915,0.030187733,-0.047721043,0.33905822,0.009577352,-0.16316052,-0.22898315,0.23542282,-0.13817748,-32.025112,1.1213129e-05,-6.504696e-06,9.140729e-07,0.000103387756,-0.0008157232,-0.00011039012,0.25925115,0.04327901,0.38010594,0.0,0.0,0.0,0.0,0.0,3.1047753e-07,0.0008869684,0.029085645,4.2413053e-06,6.387751e-05,7.21973e-05,3.1315347e-05,0.013388172,0.012808928,0.0098612495,0.048826776,0.048410982,0.05624032,1.0641495e-11,1.06135e-11,1.8053739e-11,1.5641918e-06,1.6854837e-06,5.0000043e-08,0.0,0.0,0.0,0.0,0.0,0.0,0.0,0.0,663,0.3118297,0.23715042,0.038222883,0.043157823,0.020805584,0.09561445,0.0,0.0,0.0,-0.007023,0,0,0,831,24,0,0,0
103774921,0.9398055,0.02250373,-0.04748134,0.33764604,-0.019758614,-0.16214217,-0.35125732,0.24321236,-0.16704759,-32.19867,1.1249347e-05,-6.4815954e-06,9.862164e-07,0.00010533805,-0.00083275756,-7.5321615e-05,0.25925115,0.04327901,0.38010594,0.0,0.0,0.0,0.0,0.0,3.0654732e-07,0.0008888073,0.029704263,4.190097e-06,6.387413e-05,7.2167786e-05,3.134962e-05,0.013087114,0.01265772,0.009782548,0.049168948,0.04873096,0.05541479,1.066644e-11,1.06394095e-11,1.806568e-11,1.5479791e-06,1.66565e-06,5e-08,0.0,0.0,0.0,0.0,0.0,0.0,0.0,0.0,663,0.3128896,0.23540346,0.028332284,0.06783072,0.0162103,0.06951767,0.0,0.0,0.0,-0.007034,0,0,0,831,24,0,0,0
103974929,0.9395548,0.028960044,-0.054639354,0.336768,-0.008132137,-0.150582,-0.29448348,0.2422511,-0.19340815,-32.329884,1.12471025e-05,-6.4669593e-06,1.0587557e-06,0.0001066538,-0.000850867,-5.75922e-05,0.25925115,0.04327901,0.38010594,0.0,0.0,0.0,0.0,0.0,2.8768383e-07,0.00087261334,0.027518643,4.2375473e-06,6.384595e-05,7.214194e-05,3.140619e-05,0.012950205,0.012575241,0.009821166,0.04906694,0.04863152,0.05580838,1.06758335e-11,1.06496825e-11,1.8063512e-11,1.5343778e-06,1.6489541e-06,5.0000054e-08,0.0,0.0,0.0,0.0,0.0,0.0,0.0,0.0,663,0.31256753,0.23623797,0.041583035,0.08805684,0.013068125,0.061047908,0.0,0.0,0.0,-0.007024,0,0,0,831,24,0,0,0
104174912,0.93994313,0.026341489,-0.048747864,0.3368038,0.011221036,-0.08709904,-0.22489841,0.24216352,-0.20568225,-32.44127,1.121351e-05,-6.4373367e-06,1.1228714e-06,0.00010089215,-0.0008743419,-4.291741e-05,0.25925115,0.04327901,0.38010594,0.0,0.0,0.0,0.0,0.0,2.8557255e-07,0.00087925786,0.02731159,4.1993553e-06,6.3945605e-05,7.223665e-05,3.14166e-05,0.012855707,0.012518963,0.009794056,0.04897757,0.0485483,0.05546928,1.0685917e-11,1.0660546e-11,1.8072568e-11,1.5221777e-06,1.6338267e-06,5.0000057e-08,0.0,0.0,0.0,0.0,0.0,0.0,0.0,0.0,663,0.31229132,0.23551917,0.025618315,0.1394377,0.01793081,0.0414507,0.0,0.0,0.0,-0.007042,0,0,0,831,24,0,0,0
104374116,0.94050896,0.023147667,-0.039047867,0.33672327,0.003979946,-0.07069627,-0.14438842,0.25093648,-0.20923677,-32.521477,1.119215e-05,-6.4011365e-06,1.1935422e-06,9.240732e-05,-0.0008906404,-3.1126096e-05,0.25925115,0.04327901,0.38010594,0.0,0.0,0.0,0.0,0.0,2.554642e-07,0.000876138,0.02667231,4.1373646e-06,6.406756e-05,7.236869e-05,3.1366482e-05,0.012723183,0.012441184,0.009766538,0.04883373,0.048417788,0.055161376,1.0696172e-11,1.0671816e-11,1.8070472e-11,1.5104796e-06,1.6192962e-06,5.0000057e-08,0.0,0.0,0.0,0.0,0.0,0.0,0.0,0.0,663,0.31185177,0.2348646,0.018327966,0.11364296,0.015449034,0.05396142,0.0,0.0,0.0,-0.007038,0,0,0,831,24,0,0,0
104582113,0.9410606,0.019622963,-0.03607997,0.3357353,0.032876164,-0.055481765,-0.20565155,0.269764,-0.20850095,-32.600628,1.1211403e-05,-6.3295747e-06,1.259703e-06,7.47465e-05,-0.00089066266,-1.796017e-05,0.25925115,0.04327901,0.38010594,0.0,0.0,0.0,0.0,0.0,2.1672108e-07,0.0008502159,0.026205612,4.0968434e-06,6.4178086e-05,7.251529e-05,3.138443e-05,0.012628697,0.012421261,0.009771902,0.04898616,0.048587605,0.05513526,1.0708642e-11,1.068531e-11,1.8071215e-11,1.5002131e-06,1.6063555e-06,5.000007e-08,0.0,0.0,0.0,0.0,0.0,0.0,0.0,0.0,663,0.312368,0.234809,0.018084705,0.09630706,0.016027382,0.016853906,0.0,0.0,0.0,-0.007041,0,0,0,831,24,0,0,0
