timestamp,baro_alt_meter,baro_temp_celcius,baro_pressure_pa,rho
1072666909,-58.944862,28.109999,102035.0,1.2123446
1072689767,-59.10869,28.119999,102037.0,1.2123684
1072701432,-59.277798,28.119999,102038.99,1.212392
1072712726,-58.696487,28.119999,102032.0,1.212309
1072735557,-59.02942,28.109999,102036.0,1.2123564
1072746638,-59.02942,28.109999,102036.0,1.2123564
1072757769,-59.19324,28.109999,102038.0,1.2123803
1072780825,-59.19324,28.119999,102038.0,1.2123803
1072792277,-59.19324,28.119999,102038.0,1.2123803
1072801810,-59.10869,28.119999,102037.0,1.2123684
1072822761,-59.69,28.119999,102044.0,1.2124516
1072834280,-58.944862,28.119999,102035.0,1.2123446
1072844726,-59.277798,28.119999,102038.99,1.212392
1072867727,-59.10869,28.119999,102037.0,1.2123684
1072879882,-59.10869,28.119999,102037.0,1.2123684
1072889739,-59.19324,28.119999,102038.0,1.2123803
1072912326,-59.357067,28.13,102040.0,1.212404
1072923364,-59.277798,28.13,102038.99,1.212392
1072933736,-59.277798,28.13,102038.99,1.212392
1072956727,-59.44162,28.13,102041.0,1.2124159
1072968763,-59.10869,28.13,102037.0,1.2123684
1072979730,-58.944862,28.13,102035.0,1.2123446
1073002728,-58.86031,28.13,102034.0,1.2123327
1073014277,-58.86031,28.13,102034.0,1.2123327
1073024787,-58.775757,28.13,102032.99,1.2123207
1073046763,-58.61193,28.13,102031.0,1.2122971
1073058289,-58.696487,28.13,102032.0,1.212309
1073067854,-58.284283,28.13,102026.99,1.2122494
1073090767,-58.61193,28.13,102031.0,1.2122971
1073102291,-59.357067,28.13,102040.0,1.212404
1073112768,-58.284283,28.13,102026.99,1.2122494
1073134725,-58.115177,28.13,102025.0,1.2122258
1073146290,-58.19973,28.13,102025.99,1.2122376
1073156149,-57.8668,28.13,102022.0,1.2121902
1073176837,-58.115177,28.14,102025.0,1.2122258
1073188277,-58.115177,28.14,102025.0,1.2122258
1073198724,-57.454597,28.14,102017.0,1.2121307
1073220734,-57.702972,28.14,102019.99,1.2121663
1073232690,-57.37004,28.14,102016.0,1.2121189
1073244165,-58.115177,28.14,102025.0,1.2122258
1073265728,-58.696487,28.14,102032.0,1.212309
1073277329,-58.61193,28.14,102031.0,1.2122971
1073288810,-57.8668,28.14,102022.0,1.2121902
1073310733,-59.10869,28.14,102037.0,1.2123684
1073321468,-58.53266,28.14,102030.0,1.2122852
1073332826,-58.775757,28.14,102032.99,1.2123207
1073356152,-59.10869,28.14,102037.0,1.2123684
1073367276,-58.944862,28.14,102035.0,1.2123446
1073377188,-59.02942,28.14,102036.0,1.2123564
1073397765,-59.02942,28.14,102036.0,1.2123564
1073409536,-59.277798,28.14,102038.99,1.212392
1073420814,-59.10869,28.14,102037.0,1.2123684
1073443726,-59.277798,28.15,102038.99,1.212392
1073455282,-59.19324,28.15,102038.0,1.2123803
1073464957,-59.277798,28.15,102038.99,1.212392
1073486730,-59.357067,28.14,102040.0,1.212404
1073498292,-59.10869,28.14,102037.0,1.2123684
1073510307,-59.10869,28.14,102037.0,1.2123684
1073533754,-59.357067,28.15,102040.0,1.212404
1073545336,-59.19324,28.15,102038.0,1.2123803
1073555726,-59.277798,28.15,102038.99,1.212392
1073577738,-58.86031,28.15,102034.0,1.2123327
1073589534,-59.02942,28.15,102036.0,1.2123564
1073600968,-58.696487,28.15,102032.0,1.212309
1073622725,-59.19324,28.15,102038.0,1.2123803
1073634297,-58.775757,28.15,102032.99,1.2123207
1073645603,-58.775757,28.15,102032.99,1.2123207
1073667724,-58.035908,28.15,102024.0,1.2122139
1073679282,-58.44811,28.15,102029.0,1.2122734
1073689739,-58.363552,28.15,102028.0,1.2122614
1073712982,-58.696487,28.15,102032.0,1.212309
1073724345,-58.44811,28.15,102029.0,1.2122734
1073733977,-58.363552,28.15,102028.0,1.2122614
1073755727,-58.696487,28.15,102032.0,1.212309
1073767286,-58.53266,28.15,102030.0,1.2122852
1073778022,-57.95135,28.15,102023.0,1.212202
1073800727,-58.61193,28.16,102031.0,1.2122971
1073812283,-58.284283,28.16,102026.99,1.2122494
1073822735,-58.284283,28.16,102026.99,1.2122494
1073846796,-58.035908,28.15,102024.0,1.2122139
1073857806,-57.78753,28.15,102021.0,1.2121782
1073868726,-58.115177,28.15,102025.0,1.2122258
1073890762,-57.95135,28.16,102023.0,1.212202
1073903060,-57.702972,28.16,102019.99,1.2121663
1073914237,-58.035908,28.16,102024.0,1.2122139
1073936812,-57.8668,28.16,102022.0,1.2121902
1073948292,-58.19973,28.16,102025.99,1.2122376
1073958651,-57.78753,28.16,102021.0,1.2121782
1073982629,-57.95135,28.16,102023.0,1.212202
1073994706,-58.035908,28.16,102024.0,1.2122139
1074006523,-57.53915,28.16,102018.0,1.2121426
1074030443,-57.702972,28.16,102019.99,1.2121663
1074041749,-57.78753,28.16,102021.0,1.2121782
1074052732,-57.702972,28.16,102019.99,1.2121663
1074074728,-57.61842,28.16,102019.0,1.2121545
1074087074,-57.78753,28.16,102021.0,1.2121782
1074096826,-57.37004,28.16,102016.0,1.2121189
1074117809,-57.53915,28.16,102018.0,1.2121426
1074129441,-57.702972,28.16,102019.99,1.2121663
1074140725,-57.20622,28.16,102013.99,1.212095
1074162830,-57.53915,28.16,102018.0,1.2121426
1074175121,-57.53915,28.16,102018.0,1.2121426
1074185763,-57.37004,28.16,102016.0,1.2121189
1074207521,-57.37004,28.16,102016.0,1.2121189
1074219470,-56.873287,28.16,102010.0,1.2120476
1074231511,-57.29077,28.16,102015.0,1.212107
1074255523,-57.20622,28.17,102013.99,1.212095
1074267403,-57.454597,28.17,102017.0,1.2121307
1074277728,-57.53915,28.17,102018.0,1.2121426
1074299842,-57.29077,28.17,102015.0,1.212107
1074311123,-56.95784,28.17,102011.0,1.2120594
1074321739,-57.20622,28.17,102013.99,1.212095
1074343861,-57.042393,28.17,102012.0,1.2120713
1074355376,-57.121662,28.17,102013.0,1.2120832
1074365762,-57.20622,28.17,102013.99,1.212095
1074386925,-56.873287,28.17,102010.0,1.2120476
1074398288,-57.29077,28.17,102015.0,1.212107
1074408817,-57.042393,28.17,102012.0,1.2120713
1074430724,-57.121662,28.17,102013.0,1.2120832
1074442282,-57.20622,28.17,102013.99,1.212095
1074452776,-56.95784,28.17,102011.0,1.2120594
1074475728,-56.54564,28.18,102006.0,1.212
1074487867,-57.454597,28.18,102017.0,1.2121307
1074498723,-56.873287,28.18,102010.0,1.2120476
1074520826,-56.794018,28.18,102009.0,1.2120357
1074531385,-56.212708,28.18,102001.99,1.2119524
1074541729,-57.042393,28.18,102012.0,1.2120713
1074563857,-56.873287,28.18,102010.0,1.2120476
1074575954,-56.461082,28.18,102005.0,1.2119881
1074586725,-56.54564,28.18,102006.0,1.212
1074608770,-57.121662,28.18,102013.0,1.2120832
1074620276,-56.794018,28.18,102009.0,1.2120357
1074630725,-56.62491,28.18,102007.0,1.2120119
1074652824,-56.54564,28.18,102006.0,1.212
1074664749,-56.62491,28.18,102007.0,1.2120119
1074675735,-56.461082,28.18,102005.0,1.2119881
1074698725,-56.29726,28.18,102003.0,1.2119644
1074710293,-56.12815,28.18,102000.99,1.2119405
1074721152,-56.54564,28.18,102006.0,1.212
1074742731,-55.96433,28.18,101999.0,1.2119168
1074754296,-56.29726,28.18,102003.0,1.2119644
1074764725,-56.461082,28.18,102005.0,1.2119881
1074788132,-55.631397,28.18,101994.99,1.2118692
1074799276,-56.212708,28.18,102001.99,1.2119524
1074809741,-55.800503,28.18,101997.0,1.2118931
1074833125,-56.212708,28.189999,102001.99,1.2119524
1074844608,-56.04888,28.189999,102000.0,1.2119287
1074856847,-56.212708,28.189999,102001.99,1.2119524
1074878803,-56.12815,28.189999,102000.99,1.2119405
1074890291,-56.04888,28.189999,102000.0,1.2119287
1074900144,-55.800503,28.189999,101997.0,1.2118931
1074921142,-55.800503,28.189999,101997.0,1.2118931
1074931278,-55.879772,28.189999,101998.0,1.211905
1074941762,-56.37653,28.189999,102004.0,1.2119763
1074964734,-56.12815,28.199999,102000.99,1.2119405
1074975284,-56.29726,28.199999,102003.0,1.2119644
1074985737,-56.04888,28.199999,102000.0,1.2119287
1075006725,-55.71595,28.199999,101996.0,1.2118812
1075018418,-56.12815,28.199999,102000.99,1.2119405
1075029006,-55.631397,28.199999,101994.99,1.2118692
1075049775,-55.71595,28.189999,101996.0,1.2118812
1075062260,-55.552128,28.189999,101994.0,1.2118574
1075073524,-55.71595,28.189999,101996.0,1.2118812
1075097484,-55.800503,28.199999,101997.0,1.2118931
1075108277,-56.04888,28.199999,102000.0,1.2119287
1075118725,-55.96433,28.199999,101999.0,1.2119168
1075141031,-56.12815,28.199999,102000.99,1.2119405
1075152347,-55.879772,28.199999,101998.0,1.211905
1075161939,-55.38302,28.199999,101992.0,1.2118337
1075183049,-55.46757,28.199999,101993.0,1.2118455
1075194454,-55.631397,28.199999,101994.99,1.2118692
1075205337,-55.71595,28.199999,101996.0,1.2118812
1075229081,-55.631397,28.199999,101994.99,1.2118692
1075240345,-55.30375,28.199999,101991.0,1.2118218
1075249926,-56.461082,28.199999,102005.0,1.2119881
1075273983,-55.552128,28.21,101994.0,1.2118574
1075286284,-55.552128,28.21,101994.0,1.2118574
1075296111,-55.71595,28.21,101996.0,1.2118812
1075319730,-55.46757,28.21,101993.0,1.2118455
1075331137,-55.38302,28.21,101992.0,1.2118337
1075341320,-55.46757,28.21,101993.0,1.2118455
1075363074,-55.46757,28.21,101993.0,1.2118455
1075375497,-55.800503,28.21,101997.0,1.2118931
1075386729,-55.46757,28.21,101993.0,1.2118455
1075410724,-55.46757,28.199999,101993.0,1.2118455
1075421776,-55.38302,28.199999,101992.0,1.2118337
1075432727,-55.05537,28.199999,101988.0,1.2117862
1075454771,-55.552128,28.199999,101994.0,1.2118574
1075467062,-55.219193,28.199999,101990.0,1.2118099
1075478125,-54.80699,28.199999,101985.0,1.2117505
1075500724,-55.71595,28.21,101996.0,1.2118812
1075511467,-55.219193,28.21,101990.0,1.2118099
1075522724,-55.05537,28.21,101988.0,1.2117862
1075546724,-55.30375,28.21,101991.0,1.2118218
1075558630,-55.13464,28.21,101988.99,1.211798
1075570589,-55.38302,28.21,101992.0,1.2118337
1075594574,-54.88626,28.21,101986.0,1.2117624
1075606645,-55.05537,28.21,101988.0,1.2117862
1075618571,-55.13464,28.21,101988.99,1.211798
1075642444,-55.219193,28.21,101990.0,1.2118099
1075655319,-55.219193,28.21,101990.0,1.2118099
1075665765,-54.970818,28.21,101987.0,1.2117742
1075688726,-54.88626,28.21,101986.0,1.2117624
1075700358,-55.219193,28.21,101990.0,1.2118099
1075711623,-55.05537,28.21,101988.0,1.2117862
1075733728,-55.05537,28.21,101988.0,1.2117862
1075745314,-54.970818,28.21,101987.0,1.2117742
1075755729,-55.219193,28.21,101990.0,1.2118099
1075778842,-54.80699,28.21,101985.0,1.2117505
1075791182,-55.219193,28.21,101990.0,1.2118099
1075801765,-55.13464,28.21,101988.99,1.211798
1075823411,-54.637882,28.21,101982.99,1.2117267
1075834556,-54.637882,28.21,101982.99,1.2117267
1075845726,-54.80699,28.21,101985.0,1.2117505
1075867734,-54.55333,28.21,101982.0,1.2117149
1075879904,-54.80699,28.21,101985.0,1.2117505
1075890908,-54.72244,28.21,101984.0,1.2117386
1075913725,-55.05537,28.22,101988.0,1.2117862
1075925313,-54.30495,28.22,101979.0,1.2116792
1075935728,-54.55333,28.22,101982.0,1.2117149
1075959552,-54.72244,28.22,101984.0,1.2117386
1075971372,-54.970818,28.22,101987.0,1.2117742
1075980811,-54.72244,28.22,101984.0,1.2117386
1076003858,-55.38302,28.22,101992.0,1.2118337
1076015852,-55.38302,28.22,101992.0,1.2118337
1076026725,-54.389503,28.22,101980.0,1.2116911
1076048952,-54.55333,28.23,101982.0,1.2117149
1076060278,-54.970818,28.23,101987.0,1.2117742
1076070762,-54.72244,28.23,101984.0,1.2117386
1076091850,-54.47406,28.22,101981.0,1.211703
1076103903,-54.47406,28.22,101981.0,1.211703
1076114725,-54.22568,28.22,101978.0,1.2116673
1076136820,-54.389503,28.23,101980.0,1.2116911
1076148284,-54.637882,28.23,101982.99,1.2117267
1076158724,-54.637882,28.23,101982.99,1.2117267
1076179734,-54.637882,28.23,101982.99,1.2117267
1076191951,-54.389503,28.23,101980.0,1.2116911
1076202727,-54.970818,28.23,101987.0,1.2117742
1076224952,-54.22568,28.23,101978.0,1.2116673
1076235391,-54.72244,28.23,101984.0,1.2117386
1076245747,-54.389503,28.23,101980.0,1.2116911
1076267738,-54.22568,28.23,101978.0,1.2116673
1076279843,-54.22568,28.23,101978.0,1.2116673
1076290724,-54.22568,28.23,101978.0,1.2116673
1076313157,-54.14113,28.23,101976.99,1.2116554
1076324519,-54.72244,28.23,101984.0,1.2117386
1076336855,-54.55333,28.23,101982.0,1.2117149
1076360851,-54.056572,28.23,101975.99,1.2116435
1076372523,-53.89275,28.23,101974.0,1.2116199
1076382776,-54.056572,28.23,101975.99,1.2116435
1076404725,-54.22568,28.24,101978.0,1.2116673
1076416796,-54.22568,28.24,101978.0,1.2116673
1076428226,-54.056572,28.24,101975.99,1.2116435
1076449213,-54.056572,28.24,101975.99,1.2116435
1076460522,-54.22568,28.24,101978.0,1.2116673
1076472919,-53.89275,28.24,101974.0,1.2116199
1076496552,-54.30495,28.24,101979.0,1.2116792
1076508284,-54.056572,28.24,101975.99,1.2116435
1076518725,-54.056572,28.24,101975.99,1.2116435
1076540834,-54.056572,28.23,101975.99,1.2116435
1076552686,-54.056572,28.23,101975.99,1.2116435
1076564175,-53.89275,28.23,101974.0,1.2116199
1076585159,-54.14113,28.24,101976.99,1.2116554
1076596277,-53.977303,28.24,101975.0,1.2116317
1076606725,-53.89275,28.24,101974.0,1.2116199
1076629518,-53.64437,28.24,101971.0,1.2115842
1076641338,-54.056572,28.24,101975.99,1.2116435
1076651725,-53.64437,28.24,101971.0,1.2115842
1076673739,-54.14113,28.24,101976.99,1.2116554
1076685596,-54.056572,28.24,101975.99,1.2116435
1076696981,-53.977303,28.24,101975.0,1.2116317
1076718737,-53.977303,28.25,101975.0,1.2116317
1076730292,-53.48055,28.25,101969.0,1.2115604
1076741667,-53.23217,28.25,101966.0,1.2115247
1076763840,-53.977303,28.25,101975.0,1.2116317
1076774381,-53.81348,28.25,101973.0,1.2116079
1076785018,-53.395992,28.25,101968.0,1.2115486
1076806733,-53.977303,28.25,101975.0,1.2116317
1076818302,-53.728924,28.25,101972.0,1.211596
1076829707,-53.395992,28.25,101968.0,1.2115486
1076853736,-54.30495,28.25,101979.0,1.2116792
1076865347,-54.14113,28.25,101976.99,1.2116554
1076875725,-53.81348,28.25,101973.0,1.2116079
1076896958,-53.395992,28.25,101968.0,1.2115486
1076908284,-54.30495,28.25,101979.0,1.2116792
1076918724,-53.395992,28.25,101968.0,1.2115486
1076942790,-53.395992,28.25,101968.0,1.2115486
1076954642,-53.395992,28.25,101968.0,1.2115486
1076966758,-53.89275,28.25,101974.0,1.2116199
1076990766,-53.64437,28.26,101971.0,1.2115842
1077002631,-53.395992,28.26,101968.0,1.2115486
1077012809,-53.31144,28.26,101967.0,1.2115366
1077034138,-53.31144,28.25,101967.0,1.2115366
1077046344,-53.31144,28.25,101967.0,1.2115366
1077056727,-53.48055,28.25,101969.0,1.2115604
1077078728,-53.55982,28.26,101969.99,1.2115722
1077090615,-53.55982,28.26,101969.99,1.2115722
1077102702,-53.55982,28.26,101969.99,1.2115722
1077126531,-53.31144,28.25,101967.0,1.2115366
1077138691,-53.06306,28.25,101963.99,1.2115009
1077150536,-53.23217,28.25,101966.0,1.2115247
1077174686,-53.55982,28.26,101969.99,1.2115722
1077186645,-53.31144,28.26,101967.0,1.2115366
1077198543,-53.06306,28.26,101963.99,1.2115009
1077222629,-53.147614,28.25,101965.0,1.2115129
1077234627,-53.728924,28.25,101972.0,1.211596
1077246616,-53.64437,28.25,101971.0,1.2115842
1077268731,-53.23217,28.25,101966.0,1.2115247
1077280276,-52.89924,28.25,101962.0,1.2114773
1077290925,-52.566303,28.25,101957.99,1.2114296
1077313733,-52.89924,28.26,101962.0,1.2114773
1077324366,-52.98379,28.26,101963.0,1.2114891
1077335493,-52.487034,28.26,101957.0,1.2114178
1077357727,-52.89924,28.26,101962.0,1.2114773
1077369487,-53.06306,28.26,101963.99,1.2115009
1077380727,-52.487034,28.26,101957.0,1.2114178
1077402806,-53.06306,28.26,101963.99,1.2115009
1077415033,-53.06306,28.26,101963.99,1.2115009
1077425763,-53.147614,28.26,101965.0,1.2115129
1077447584,-52.814682,28.26,101961.0,1.2114654
1077459372,-52.566303,28.26,101957.99,1.2114296
1077469734,-52.566303,28.26,101957.99,1.2114296
1077492724,-52.814682,28.269999,101961.0,1.2114654
1077504359,-52.40248,28.269999,101956.0,1.211406
1077514834,-52.814682,28.269999,101961.0,1.2114654
1077537724,-53.147614,28.269999,101965.0,1.2115129
1077549444,-52.735413,28.269999,101960.0,1.2114534
1077560787,-52.65086,28.269999,101959.0,1.2114416
1077582731,-52.65086,28.269999,101959.0,1.2114416
1077594276,-53.147614,28.269999,101965.0,1.2115129
1077604726,-52.65086,28.269999,101959.0,1.2114416
1077627736,-53.147614,28.269999,101965.0,1.2115129
1077639892,-53.06306,28.269999,101963.99,1.2115009
1077650767,-52.89924,28.269999,101962.0,1.2114773
1077672368,-52.65086,28.269999,101959.0,1.2114416
1077683398,-52.814682,28.269999,101961.0,1.2114654
1077692821,-52.31793,28.269999,101955.0,1.2113941
1077715731,-52.487034,28.279999,101957.0,1.2114178
1077728312,-52.814682,28.279999,101961.0,1.2114654
1077738764,-52.814682,28.279999,101961.0,1.2114654
1077760295,-52.65086,28.279999,101959.0,1.2114416
1077771369,-52.487034,28.279999,101957.0,1.2114178
1077780767,-52.65086,28.279999,101959.0,1.2114416
1077803728,-52.566303,28.279999,101957.99,1.2114296
1077815936,-52.31793,28.279999,101955.0,1.2113941
1077826739,-52.65086,28.279999,101959.0,1.2114416
1077848784,-52.814682,28.279999,101961.0,1.2114654
1077860285,-52.23866,28.279999,101954.0,1.2113822
1077870727,-52.40248,28.279999,101956.0,1.211406
1077893029,-52.814682,28.279999,101961.0,1.2114654
1077903282,-52.40248,28.279999,101956.0,1.211406
1077913727,-52.487034,28.279999,101957.0,1.2114178
1077936825,-53.06306,28.289999,101963.99,1.2115009
1077948793,-52.154102,28.289999,101953.0,1.2113703
1077960188,-52.23866,28.289999,101954.0,1.2113822
1077981747,-52.31793,28.289999,101955.0,1.2113941
1077993541,-52.154102,28.289999,101953.0,1.2113703
1078005140,-52.31793,28.289999,101955.0,1.2113941
1078026768,-51.82117,28.289999,101949.0,1.2113228
1078038366,-52.487034,28.289999,101957.0,1.2114178
1078048726,-52.40248,28.289999,101956.0,1.211406
1078072174,-51.7419,28.289999,101948.0,1.2113109
1078083315,-51.984993,28.289999,101950.99,1.2113464
1078093749,-52.154102,28.289999,101953.0,1.2113703
1078117131,-52.487034,28.289999,101957.0,1.2114178
1078128279,-51.82117,28.289999,101949.0,1.2113228
1078138762,-51.7419,28.289999,101948.0,1.2113109
1078160726,-52.31793,28.289999,101955.0,1.2113941
1078171284,-51.7419,28.289999,101948.0,1.2113109
1078181738,-51.905724,28.289999,101950.0,1.2113347
1078203837,-51.493523,28.289999,101944.99,1.2112751
1078215314,-51.984993,28.289999,101950.99,1.2113464
1078225768,-51.82117,28.289999,101949.0,1.2113228
1078249041,-51.572792,28.3,101946.0,1.2112871
1078260276,-52.566303,28.3,101957.99,1.2114296
1078270726,-52.40248,28.3,101956.0,1.211406
1078293718,-51.82117,28.289999,101949.0,1.2113228
1078305337,-51.82117,28.289999,101949.0,1.2113228
1078315726,-51.905724,28.289999,101950.0,1.2113347
1078337730,-51.65735,28.3,101947.0,1.2112991
1078349589,-52.06955,28.3,101951.99,1.2113583
1078361024,-51.905724,28.3,101950.0,1.2113347
1078382763,-51.984993,28.3,101950.99,1.2113464
1078394307,-51.905724,28.3,101950.0,1.2113347
1078405724,-51.984993,28.3,101950.99,1.2113464
1078429714,-51.82117,28.3,101949.0,1.2113228
1078441597,-51.65735,28.3,101947.0,1.2112991
1078451849,-51.984993,28.3,101950.99,1.2113464
1078473048,-51.493523,28.3,101944.99,1.2112751
1078484278,-51.905724,28.3,101950.0,1.2113347
1078494735,-51.40897,28.3,101944.0,1.2112634
1078517928,-51.7419,28.3,101948.0,1.2113109
1078529754,-51.82117,28.3,101949.0,1.2113228
1078540727,-51.905724,28.3,101950.0,1.2113347
1078562731,-51.493523,28.3,101944.99,1.2112751
1078575263,-51.65735,28.3,101947.0,1.2112991
1078586042,-51.7419,28.3,101948.0,1.2113109
1078606732,-50.912212,28.3,101938.0,1.211192
1078618593,-51.324413,28.3,101943.0,1.2112515
1078630700,-51.07604,28.3,101940.0,1.2112159
1078652816,-51.65735,28.3,101947.0,1.2112991
1078664367,-51.324413,28.3,101943.0,1.2112515
1078674770,-51.324413,28.3,101943.0,1.2112515
1078696830,-51.65735,28.31,101947.0,1.2112991
1078708281,-51.40897,28.31,101944.0,1.2112634
1078719052,-51.245144,28.31,101942.0,1.2112396
1078742722,-51.07604,28.31,101940.0,1.2112159
1078754762,-50.743103,28.31,101936.0,1.2111683
1078766758,-50.912212,28.31,101938.0,1.211192
1078790618,-50.99148,28.31,101938.99,1.2112038
1078802664,-51.493523,28.31,101944.99,1.2112751
1078814621,-51.07604,28.31,101940.0,1.2112159
1078835726,-50.57928,28.3,101934.0,1.2111446
1078847878,-50.663834,28.3,101935.0,1.2111564
1078859010,-50.82766,28.3,101937.0,1.2111802
1078881732,-51.324413,28.31,101943.0,1.2112515
1078893451,-50.912212,28.31,101938.0,1.211192
1078904727,-50.912212,28.31,101938.0,1.211192
1078927730,-51.16059,28.31,101941.0,1.2112278
1078939369,-50.743103,28.31,101936.0,1.2111683
1078949725,-50.743103,28.31,101936.0,1.2111683
1078971733,-50.743103,28.31,101936.0,1.2111683
1078983912,-50.99148,28.31,101938.99,1.2112038
1078994910,-50.82766,28.31,101937.0,1.2111802
1079017725,-50.912212,28.31,101938.0,1.211192
1079029314,-50.743103,28.31,101936.0,1.2111683
1079039726,-50.82766,28.31,101937.0,1.2111802
1079061725,-50.912212,28.32,101938.0,1.211192
1079073315,-50.82766,28.32,101937.0,1.2111802
1079083856,-50.57928,28.32,101934.0,1.2111446
1079105761,-50.57928,28.32,101934.0,1.2111446
1079117445,-50.494728,28.32,101932.99,1.2111325
1079128726,-50.330902,28.32,101931.0,1.2111089
1079150731,-50.41546,28.32,101932.0,1.2111207
1079162282,-50.663834,28.32,101935.0,1.2111564
1079172741,-50.82766,28.32,101937.0,1.2111802
1079195730,-50.251633,28.32,101930.0,1.211097
1079207891,-50.330902,28.32,101931.0,1.2111089
1079218735,-50.663834,28.32,101935.0,1.2111564
1079240831,-50.16708,28.32,101929.0,1.2110851
1079252283,-49.99797,28.32,101926.99,1.2110612
1079262734,-50.82766,28.32,101937.0,1.2111802
1079284819,-49.99797,28.32,101926.99,1.2110612
1079296716,-49.834145,28.32,101925.0,1.2110376
1079307727,-50.743103,28.32,101936.0,1.2111683
1079330762,-50.251633,28.33,101930.0,1.211097
1079342285,-50.16708,28.33,101929.0,1.2110851
1079352318,-50.16708,28.33,101929.0,1.2110851
1079372827,-50.16708,28.33,101929.0,1.2110851
1079384718,-50.41546,28.33,101932.0,1.2111207
1079395726,-49.99797,28.33,101926.99,1.2110612
1079416826,-49.834145,28.33,101925.0,1.2110376
1079428284,-50.082523,28.33,101928.0,1.2110733
1079438732,-50.41546,28.33,101932.0,1.2111207
1079460825,-49.913418,28.34,101925.99,1.2110494
1079472667,-49.913418,28.34,101925.99,1.2110494
1079482732,-50.082523,28.34,101928.0,1.2110733
1079504826,-50.082523,28.34,101928.0,1.2110733
1079516994,-50.41546,28.34,101932.0,1.2111207
1079528146,-49.913418,28.34,101925.99,1.2110494
1079549156,-50.16708,28.34,101929.0,1.2110851
1079560511,-49.834145,28.34,101925.0,1.2110376
1079572835,-49.99797,28.34,101926.99,1.2110612
1079596661,-50.082523,28.34,101928.0,1.2110733
1079608288,-49.99797,28.34,101926.99,1.2110612
1079618736,-49.74959,28.34,101924.0,1.2110257
1079640840,-49.99797,28.34,101926.99,1.2110612
1079652723,-49.501213,28.34,101921.0,1.2109901
1079664174,-49.501213,28.34,101921.0,1.2109901
1079685741,-49.173565,28.34,101917.0,1.2109425
1079697481,-49.834145,28.34,101925.0,1.2110376
1079709106,-49.99797,28.34,101926.99,1.2110612
1079729731,-49.33739,28.34,101919.0,1.2109663
1079741562,-49.834145,28.34,101925.0,1.2110376
1079752976,-49.670322,28.34,101923.0,1.2110138
1079774726,-49.913418,28.34,101925.99,1.2110494
1079785584,-49.670322,28.34,101923.0,1.2110138
1079797662,-49.834145,28.34,101925.0,1.2110376
1079819843,-49.33739,28.34,101919.0,1.2109663
1079831316,-49.421944,28.34,101919.99,1.2109782
1079841738,-49.421944,28.34,101919.99,1.2109782
1079864973,-49.58577,28.34,101922.0,1.211002
1079876285,-49.58577,28.34,101922.0,1.211002
1079886731,-49.913418,28.34,101925.99,1.2110494
1079909714,-49.74959,28.34,101924.0,1.2110257
1079921349,-49.58577,28.34,101922.0,1.211002
1079931725,-49.252834,28.34,101918.0,1.2109544
1079953737,-49.834145,28.349998,101925.0,1.2110376
1079965535,-49.501213,28.349998,101921.0,1.2109901
1079976956,-49.58577,28.349998,101922.0,1.211002
1079997902,-49.834145,28.349998,101925.0,1.2110376
1080009557,-49.252834,28.349998,101918.0,1.2109544
1080021656,-49.252834,28.349998,101918.0,1.2109544
1080045642,-49.33739,28.349998,101919.0,1.2109663
1080057352,-49.252834,28.349998,101918.0,1.2109544
1080067841,-49.252834,28.349998,101918.0,1.2109544
1080089736,-49.913418,28.349998,101925.99,1.2110494
1080101561,-49.00446,28.349998,101915.0,1.2109188
1080113029,-49.00446,28.349998,101915.0,1.2109188
1080134797,-48.671524,28.349998,101911.0,1.2108712
1080146642,-49.089012,28.349998,101916.0,1.2109307
1080156929,-49.173565,28.349998,101917.0,1.2109425
1080178129,-49.173565,28.349998,101917.0,1.2109425
1080190275,-48.840633,28.349998,101913.0,1.2108951
1080200726,-49.00446,28.349998,101915.0,1.2109188
1080222725,-48.840633,28.359999,101913.0,1.2108951
1080234653,-49.00446,28.359999,101915.0,1.2109188
1080244726,-48.919903,28.359999,101913.99,1.2109069
1080266731,-49.173565,28.359999,101917.0,1.2109425
1080278311,-48.75608,28.359999,101912.0,1.2108831
1080287737,-48.75608,28.359999,101912.0,1.2108831
1080310638,-48.840633,28.349998,101913.0,1.2108951
1080322631,-49.089012,28.349998,101916.0,1.2109307
1080334805,-49.173565,28.349998,101917.0,1.2109425
1080358760,-48.671524,28.359999,101911.0,1.2108712
1080370582,-49.00446,28.359999,101915.0,1.2109188
1080382841,-49.089012,28.359999,101916.0,1.2109307
1080406625,-48.840633,28.359999,101913.0,1.2108951
1080418584,-48.42315,28.359999,101907.99,1.2108356
1080430537,-48.42315,28.359999,101907.99,1.2108356
1080453733,-48.671524,28.349998,101911.0,1.2108712
1080465450,-48.010944,28.349998,101903.0,1.2107762
1080476785,-48.34388,28.349998,101907.0,1.2108238
1080498914,-48.592255,28.359999,101910.0,1.2108594
1080511252,-48.592255,28.359999,101910.0,1.2108594
1080521727,-48.17477,28.359999,101905.0,1.2107999
1080543251,-48.592255,28.359999,101910.0,1.2108594
1080554563,-48.42315,28.359999,101907.99,1.2108356
1080565726,-48.592255,28.359999,101910.0,1.2108594
1080587735,-48.75608,28.359999,101912.0,1.2108831
1080599956,-48.42315,28.359999,101907.99,1.2108356
1080609767,-48.0955,28.359999,101904.0,1.2107881
1080631562,-48.5077,28.359999,101909.0,1.2108475
1080643395,-48.17477,28.359999,101905.0,1.2107999
1080653732,-48.5077,28.359999,101909.0,1.2108475
1080676725,-48.34388,28.359999,101907.0,1.2108238
1080688284,-48.0955,28.359999,101904.0,1.2107881
1080698836,-48.34388,28.359999,101907.0,1.2108238
1080719848,-48.42315,28.369999,101907.99,1.2108356
1080731372,-48.010944,28.369999,101903.0,1.2107762
1080741734,-47.678013,28.369999,101899.0,1.2107286
1080764727,-48.42315,28.369999,101907.99,1.2108356
1080775929,-48.5077,28.369999,101909.0,1.2108475
1080786725,-48.17477,28.369999,101905.0,1.2107999
1080808831,-48.259323,28.369999,101906.0,1.2108119
1080820289,-48.592255,28.369999,101910.0,1.2108594
1080830725,-48.259323,28.369999,101906.0,1.2108119
1080852727,-47.76257,28.369999,101900.0,1.2107406
1080863953,-47.598743,28.369999,101898.0,1.2107168
1080874726,-47.92639,28.369999,101901.99,1.2107643
1080896785,-47.847122,28.369999,101900.99,1.2107524
1080908283,-47.76257,28.369999,101900.0,1.2107406
1080918769,-48.0955,28.369999,101904.0,1.2107881
1080939803,-48.259323,28.369999,101906.0,1.2108119
1080951921,-47.598743,28.369999,101898.0,1.2107168
1080962726,-47.598743,28.369999,101898.0,1.2107168
1080984785,-47.92639,28.38,101901.99,1.2107643
1080996283,-48.0955,28.38,101904.0,1.2107881
1081006726,-47.598743,28.38,101898.0,1.2107168
1081027738,-47.678013,28.38,101899.0,1.2107286
1081039931,-47.598743,28.38,101898.0,1.2107168
1081050724,-47.598743,28.38,101898.0,1.2107168
1081073731,-47.429634,28.38,101896.0,1.210693
1081085452,-47.10199,28.38,101892.0,1.2106456
1081097033,-47.10199,28.38,101892.0,1.2106456
1081118725,-47.017433,28.38,101891.0,1.2106336
1081129591,-47.017433,28.38,101891.0,1.2106336
1081140787,-47.598743,28.38,101898.0,1.2107168
1081164140,-47.18126,28.38,101893.0,1.2106574
1081175278,-47.51419,28.38,101897.0,1.2107049
1081185121,-47.265812,28.38,101894.0,1.2106693
1081205767,-47.34508,28.38,101894.99,1.2106811
1081217555,-47.10199,28.38,101892.0,1.2106456
1081228728,-46.6845,28.38,101887.0,1.2105861
1081252145,-47.10199,28.39,101892.0,1.2106456
1081263319,-47.265812,28.39,101894.0,1.2106693
1081273105,-47.017433,28.39,101891.0,1.2106336
1081293726,-46.769054,28.39,101888.0,1.210598
1081305573,-47.017433,28.39,101891.0,1.2106336
1081316778,-47.017433,28.39,101891.0,1.2106336
1081340171,-47.017433,28.39,101891.0,1.2106336
1081351319,-46.93288,28.39,101890.0,1.2106217
1081361740,-46.187744,28.39,101881.0,1.2105148
1081384748,-46.6845,28.39,101887.0,1.2105861
1081396277,-46.848324,28.39,101888.99,1.2106098
1081406726,-46.35157,28.39,101882.99,1.2105385
1081429621,-46.10319,28.39,101880.0,1.210503
1081441349,-46.35157,28.39,101882.99,1.2105385
1081451827,-46.59995,28.39,101886.0,1.2105743
1081473046,-46.436123,28.39,101884.0,1.2105504
1081484275,-46.10319,28.39,101880.0,1.210503
1081494728,-46.187744,28.39,101881.0,1.2105148
1081517680,-46.10319,28.39,101880.0,1.210503
1081529347,-46.2723,28.39,101882.0,1.2105267
1081540437,-46.2723,28.39,101882.0,1.2105267
1081562431,-45.93937,28.39,101878.0,1.2104791
1081573535,-45.77026,28.39,101875.99,1.2104553
1081584432,-46.023922,28.39,101879.0,1.2104911
1081605624,-46.35157,28.39,101882.99,1.2105385
1081617350,-45.52188,28.39,101873.0,1.2104198
1081627730,-45.77026,28.39,101875.99,1.2104553
1081649752,-45.69099,28.4,101875.0,1.2104435
1081661509,-46.10319,28.4,101880.0,1.210503
1081672967,-45.52188,28.4,101873.0,1.2104198
1081693890,-45.606434,28.39,101874.0,1.2104317
1081705561,-45.10968,28.39,101868.0,1.2103604
1081715742,-45.854813,28.39,101876.99,1.2104672
1081738115,-45.93937,28.4,101878.0,1.2104791
1081750284,-45.194233,28.4,101869.0,1.2103722
1081760829,-45.35806,28.4,101871.0,1.210396
1081782676,-45.025124,28.4,101867.0,1.2103485
1081794645,-45.44261,28.4,101872.0,1.2104079
1081806773,-45.44261,28.4,101872.0,1.2104079
1081828726,-45.273502,28.4,101869.99,1.210384
1081840277,-45.52188,28.4,101873.0,1.2104198
1081850113,-44.8613,28.4,101865.0,1.2103248
1081871729,-45.10968,28.4,101868.0,1.2103604
1081882610,-45.10968,28.4,101868.0,1.2103604
1081894778,-45.52188,28.4,101873.0,1.2104198
1081919058,-44.77675,28.4,101863.99,1.2103127
1081930592,-45.025124,28.4,101867.0,1.2103485
1081942736,-45.194233,28.4,101869.0,1.2103722
1081966641,-45.10968,28.4,101868.0,1.2103604
1081978605,-44.8613,28.4,101865.0,1.2103248
1081990539,-44.945854,28.4,101866.0,1.2103366
1082012774,-44.697475,28.4,101863.0,1.2103009
1082024277,-44.27999,28.4,101857.99,1.2102414
1082034829,-45.194233,28.4,101869.0,1.2103722
1082057734,-44.612923,28.4,101862.0,1.2102891
1082068360,-44.612923,28.4,101862.0,1.2102891
1082079297,-44.116165,28.4,101856.0,1.2102178
1082100790,-44.4491,28.4,101860.0,1.2102653
1082112277,-44.20072,28.4,101857.0,1.2102296
1082122908,-44.612923,28.4,101862.0,1.2102891
1082145735,-44.52837,28.4,101861.0,1.2102772
1082156281,-44.116165,28.4,101856.0,1.2102178
1082167498,-43.69868,28.4,101850.99,1.2101582
1082189771,-43.86779,28.41,101853.0,1.2101821
1082201449,-44.031612,28.41,101855.0,1.2102059
1082212726,-44.27999,28.41,101857.99,1.2102414
1082234914,-44.031612,28.41,101855.0,1.2102059
1082247067,-44.20072,28.41,101857.0,1.2102296
1082257728,-43.61941,28.41,101850.0,1.2101464
1082279570,-43.783234,28.41,101851.99,1.2101701
1082291399,-44.364544,28.41,101859.0,1.2102535
1082301732,-44.364544,28.41,101859.0,1.2102535
1082323726,-43.69868,28.41,101850.99,1.2101582
1082335976,-43.86779,28.41,101853.0,1.2101821
1082346725,-43.61941,28.41,101850.0,1.2101464
1082368829,-43.534855,28.41,101849.0,1.2101346
1082380279,-43.61941,28.41,101850.0,1.2101464
1082390726,-43.86779,28.41,101853.0,1.2101821
1082412777,-43.450302,28.41,101848.0,1.2101227
1082424737,-43.534855,28.41,101849.0,1.2101346
1082435733,-43.534855,28.41,101849.0,1.2101346
1082458762,-43.28648,28.41,101846.0,1.210099
1082470277,-43.28648,28.41,101846.0,1.210099
1082480598,-42.953545,28.41,101842.0,1.2100514
1082502726,-43.0381,28.42,101843.0,1.2100633
1082514289,-43.534855,28.42,101849.0,1.2101346
1082524744,-43.0381,28.42,101843.0,1.2100633
1082547727,-43.0381,28.42,101843.0,1.2100633
1082559855,-42.70517,28.42,101838.99,1.2100157
1082570725,-42.86899,28.42,101841.0,1.2100395
1082592786,-42.70517,28.42,101838.99,1.2100157
1082603386,-42.953545,28.42,101842.0,1.2100514
1082613830,-42.45679,28.42,101836.0,1.2099801
1082635802,-42.953545,28.42,101842.0,1.2100514
1082647870,-42.70517,28.42,101838.99,1.2100157
1082658729,-42.620613,28.42,101838.0,1.2100039
1082681236,-42.789722,28.42,101840.0,1.2100277
1082692526,-42.789722,28.42,101840.0,1.2100277
1082704914,-42.70517,28.42,101838.99,1.2100157
1082728826,-42.70517,28.43,101838.99,1.2100157
1082740286,-42.45679,28.43,101836.0,1.2099801
1082750736,-42.45679,28.43,101836.0,1.2099801
1082772777,-42.86899,28.42,101841.0,1.2100395
1082784759,-42.70517,28.42,101838.99,1.2100157
1082796161,-42.620613,28.42,101838.0,1.2100039
1082817124,-42.04459,28.42,101831.0,1.2099208
1082827315,-41.87548,28.42,101829.0,1.2098969
1082836784,-42.04459,28.42,101831.0,1.2099208
1082860200,-41.960033,28.43,101830.0,1.2099088
1082871314,-41.79621,28.43,101828.0,1.2098851
1082881749,-41.960033,28.43,101830.0,1.2099088
1082902725,-42.541344,28.43,101837.0,1.209992
1082914292,-41.46328,28.43,101824.0,1.2098376
1082924149,-41.46328,28.43,101824.0,1.2098376
1082945739,-42.45679,28.43,101836.0,1.2099801
1082957330,-41.29417,28.43,101822.0,1.2098138
1082968703,-42.04459,28.43,101831.0,1.2099208
1082990433,-41.87548,28.43,101829.0,1.2098969
1083001439,-41.29417,28.43,101822.0,1.2098138
1083012751,-41.711655,28.43,101826.99,1.2098731
1083033480,-41.6271,28.43,101825.99,1.2098613
1083044430,-41.547832,28.43,101825.0,1.2098495
1083055431,-41.79621,28.43,101828.0,1.2098851
1083077576,-40.88197,28.43,101817.0,1.2097543
1083088275,-41.04579,28.43,101819.0,1.2097782
1083098724,-41.46328,28.43,101824.0,1.2098376
1083121743,-41.711655,28.439999,101826.99,1.2098731
1083133703,-41.46328,28.439999,101824.0,1.2098376
1083143724,-41.130344,28.439999,101819.99,1.20979
1083165788,-41.711655,28.439999,101826.99,1.2098731
1083177560,-41.29417,28.439999,101822.0,1.2098138
1083189652,-41.29417,28.439999,101822.0,1.2098138
1083210731,-41.29417,28.43,101822.0,1.2098138
1083222341,-41.04579,28.43,101819.0,1.2097782
1083233037,-40.71286,28.43,101815.0,1.2097306
1083254029,-41.2149,28.439999,101821.0,1.2098019
1083266258,-41.04579,28.439999,101819.0,1.2097782
1083276115,-40.46448,28.439999,101812.0,1.209695
1083298122,-40.966522,28.439999,101818.0,1.2097663
1083311201,-40.966522,28.439999,101818.0,1.2097663
1083321109,-40.63359,28.439999,101813.99,1.2097187
1083343061,-41.130344,28.439999,101819.99,1.20979
1083355478,-40.216103,28.439999,101809.0,1.2096593
1083367133,-40.385212,28.439999,101811.0,1.2096831
1083391097,-40.46448,28.439999,101812.0,1.209695
1083403547,-40.30066,28.439999,101810.0,1.2096713
1083415097,-40.136833,28.439999,101807.99,1.2096474
1083439052,-40.216103,28.439999,101809.0,1.2096593
1083450629,-40.30066,28.439999,101810.0,1.2096713
1083461015,-40.05228,28.439999,101807.0,1.2096356
1083483041,-40.30066,28.439999,101810.0,1.2096713
1083495981,-40.216103,28.439999,101809.0,1.2096593
1083506426,-39.8039,28.439999,101804.0,1.2096
1083529015,-39.967724,28.43,101806.0,1.2096237
1083541146,-40.136833,28.43,101807.99,1.2096474
1083551052,-39.888454,28.43,101805.0,1.2096118
1083575101,-39.967724,28.439999,101806.0,1.2096237
1083587492,-39.888454,28.439999,101805.0,1.2096118
1083599100,-40.216103,28.439999,101809.0,1.2096593
1083622926,-39.967724,28.439999,101806.0,1.2096237
1083635479,-39.555523,28.439999,101800.99,1.2095642
1083646337,-39.47097,28.439999,101800.0,1.2095524
1083669724,-39.967724,28.439999,101806.0,1.2096237
1083680787,-40.05228,28.439999,101807.0,1.2096356
1083691120,-39.555523,28.439999,101800.99,1.2095642
1083714547,-39.555523,28.439999,101800.99,1.2095642
1083727362,-39.555523,28.439999,101800.99,1.2095642
1083737723,-39.555523,28.439999,101800.99,1.2095642
1083759726,-39.555523,28.439999,101800.99,1.2095642
1083771390,-39.634792,28.439999,101801.99,1.2095761
1083781723,-39.634792,28.439999,101801.99,1.2095761
1083803109,-39.307144,28.439999,101798.0,1.2095287
1083815959,-38.974213,28.439999,101794.0,1.2094811
1083826016,-39.13804,28.439999,101796.0,1.2095048
1083849733,-39.386414,28.449999,101799.0,1.2095405
1083861434,-39.386414,28.449999,101799.0,1.2095405
1083872726,-39.053482,28.449999,101794.99,1.2094929
1083895496,-39.555523,28.449999,101800.99,1.2095642
1083906568,-39.307144,28.449999,101798.0,1.2095287
1083917734,-38.81039,28.449999,101792.0,1.2094574
1083939856,-38.88966,28.449999,101793.0,1.2094692
1083951878,-38.64128,28.449999,101790.0,1.2094336
1083962723,-38.88966,28.449999,101793.0,1.2094692
1083984946,-39.13804,28.449999,101796.0,1.2095048
1083996280,-39.22259,28.449999,101797.0,1.2095168
1084006723,-38.55673,28.449999,101788.99,1.2094216
1084028027,-38.81039,28.449999,101792.0,1.2094574
1084040700,-38.974213,28.449999,101794.0,1.2094811
1084051426,-38.974213,28.449999,101794.0,1.2094811
1084074723,-38.47746,28.449999,101788.0,1.2094098
1084085503,-38.30835,28.449999,101786.0,1.2093861
1084096778,-38.64128,28.449999,101790.0,1.2094336
1084118723,-38.64128,28.449999,101790.0,1.2094336
1084129504,-38.22908,28.449999,101785.0,1.2093742
1084140017,-38.392902,28.449999,101787.0,1.2093979
1084163403,-38.392902,28.46,101787.0,1.2093979
1084175894,-38.47746,28.46,101788.0,1.2094098
1084186761,-38.64128,28.46,101790.0,1.2094336
1084208788,-38.30835,28.449999,101786.0,1.2093861
1084220277,-38.30835,28.449999,101786.0,1.2093861
1084230732,-38.144524,28.449999,101784.0,1.2093623
1084252730,-38.47746,28.46,101788.0,1.2094098
1084264755,-38.22908,28.46,101785.0,1.2093742
1084276676,-37.811592,28.46,101780.0,1.2093148
1084297726,-37.23028,28.449999,101773.0,1.2092316
1084309818,-38.05997,28.449999,101782.99,1.2093503
1084320725,-37.89615,28.449999,101781.0,1.2093266
1084342725,-37.89615,28.46,101781.0,1.2093266
1084354289,-37.89615,28.46,101781.0,1.2093266
1084365115,-37.72704,28.46,101779.0,1.2093029
1084386725,-37.64777,28.46,101778.0,1.209291
1084397501,-38.05997,28.46,101782.99,1.2093503
1084408726,-37.563213,28.46,101776.99,1.2092791
1084429738,-37.47866,28.46,101775.99,1.2092671
1084440277,-37.64777,28.46,101778.0,1.209291
1084450728,-37.47866,28.46,101775.99,1.2092671
1084472793,-37.31484,28.47,101774.0,1.2092435
1084484705,-37.811592,28.47,101780.0,1.2093148
1084494764,-37.31484,28.47,101774.0,1.2092435
1084517325,-36.81808,28.46,101768.0,1.2091722
1084529170,-37.23028,28.46,101773.0,1.2092316
1084539020,-37.31484,28.46,101774.0,1.2092435
1084561016,-37.06646,28.47,101771.0,1.2092079
1084573619,-37.31484,28.47,101774.0,1.2092435
1084584435,-37.31484,28.47,101774.0,1.2092435
1084605856,-37.563213,28.46,101776.99,1.2092791
1084618252,-36.89735,28.46,101769.0,1.209184
1084628131,-37.06646,28.46,101771.0,1.2092079
1084650024,-37.39939,28.47,101775.0,1.2092553
1084662457,-36.569702,28.47,101765.0,1.2091365
1084673335,-36.81808,28.47,101768.0,1.2091722
1084696980,-36.89735,28.47,101769.0,1.209184
1084708274,-36.733524,28.47,101767.0,1.2091603
1084717967,-37.151012,28.47,101772.0,1.2092197
1084740015,-36.64897,28.47,101766.0,1.2091484
1084751169,-36.89735,28.47,101769.0,1.209184
1084761329,-36.89735,28.47,101769.0,1.209184
1084782105,-36.64897,28.47,101766.0,1.2091484
1084793306,-37.23028,28.47,101773.0,1.2092316
1084803047,-36.733524,28.47,101767.0,1.2091603
1084825325,-36.569702,28.47,101765.0,1.2091365
1084837527,-36.569702,28.47,101765.0,1.2091365
1084848810,-36.06766,28.47,101759.0,1.2090652
1084870926,-36.152214,28.47,101760.0,1.2090771
1084883545,-36.64897,28.47,101766.0,1.2091484
1084894927,-36.321323,28.47,101762.0,1.2091008
1084919039,-36.321323,28.47,101762.0,1.2091008
1084931403,-36.06766,28.47,101759.0,1.2090652
1084942435,-36.152214,28.47,101760.0,1.2090771
1084964809,-36.23677,28.47,101761.0,1.209089
1084976290,-35.65546,28.47,101754.0,1.2090058
1084986734,-36.06766,28.47,101759.0,1.2090652
1085010201,-35.98839,28.47,101757.99,1.2090533
1085022296,-35.740013,28.47,101755.0,1.2090178
1085032732,-36.152214,28.47,101760.0,1.2090771
1085054908,-35.98839,28.47,101757.99,1.2090533
1085066582,-35.98839,28.47,101757.99,1.2090533
1085078802,-35.98839,28.47,101757.99,1.2090533
1085100733,-35.24326,28.47,101749.0,1.2089465
1085112279,-34.989594,28.47,101746.0,1.2089108
1085122728,-34.989594,28.47,101746.0,1.2089108
1085144725,-35.65546,28.48,101754.0,1.2090058
1085156495,-35.48635,28.48,101751.99,1.208982
1085166769,-35.24326,28.48,101749.0,1.2089465
1085187726,-35.24326,28.48,101749.0,1.2089465
1085199279,-35.40708,28.48,101750.99,1.2089701
1085210021,-35.40708,28.48,101750.99,1.2089701
1085231733,-35.32253,28.48,101750.0,1.2089583
1085243398,-34.989594,28.48,101746.0,1.2089108
1085253735,-34.989594,28.48,101746.0,1.2089108
1085274829,-35.07415,28.48,101747.0,1.2089226
1085287061,-34.989594,28.48,101746.0,1.2089108
1085297733,-35.158703,28.48,101748.0,1.2089345
1085320829,-35.07415,28.48,101747.0,1.2089226
1085332279,-35.48635,28.48,101751.99,1.208982
1085341769,-34.49284,28.48,101740.0,1.2088395
1085363860,-34.82577,28.49,101744.0,1.208887
1085375862,-35.158703,28.49,101748.0,1.2089345
1085386842,-35.07415,28.49,101747.0,1.2089226
1085409726,-34.989594,28.48,101746.0,1.2089108
1085421314,-35.07415,28.48,101747.0,1.2089226
1085431504,-34.74122,28.48,101743.0,1.2088752
1085453727,-34.408283,28.49,101738.99,1.2088275
1085465314,-34.577393,28.49,101741.0,1.2088513
1085474827,-34.49284,28.49,101740.0,1.2088395
1085496727,-34.329014,28.49,101738.0,1.2088157
1085507421,-34.577393,28.49,101741.0,1.2088513
1085517738,-34.910324,28.49,101744.99,1.2088988
1085538919,-34.24446,28.49,101737.0,1.2088039
1085549507,-34.66195,28.49,101742.0,1.2088633
1085560727,-34.16519,28.49,101736.0,1.208792
1085582727,-34.577393,28.49,101741.0,1.2088513
1085594286,-34.577393,28.49,101741.0,1.2088513
1085604725,-33.996082,28.49,101734.0,1.2087682
1085627734,-34.16519,28.49,101736.0,1.208792
1085639857,-34.16519,28.49,101736.0,1.208792
1085650733,-34.16519,28.49,101736.0,1.208792
1085672827,-33.91153,28.49,101732.99,1.2087562
1085684283,-34.24446,28.49,101737.0,1.2088039
1085694737,-33.996082,28.49,101734.0,1.2087682
1085716726,-34.08064,28.49,101735.0,1.20878
1085727952,-33.996082,28.49,101734.0,1.2087682
1085738733,-33.91153,28.49,101732.99,1.2087562
1085760748,-34.16519,28.49,101736.0,1.208792
1085772276,-33.66315,28.49,101730.0,1.2087207
1085782724,-33.49933,28.49,101728.0,1.208697
1085804726,-33.747704,28.49,101731.0,1.2087326
1085816739,-33.91153,28.49,101732.99,1.2087562
1085827823,-33.49933,28.49,101728.0,1.208697
1085848804,-33.49933,28.5,101728.0,1.208697
1085859388,-33.747704,28.5,101731.0,1.2087326
1085869139,-33.49933,28.5,101728.0,1.208697
1085892871,-33.25095,28.5,101725.0,1.2086613
1085904519,-33.00257,28.5,101722.0,1.2086257
1085917463,-33.58388,28.5,101729.0,1.2087088
1085940758,-33.49933,28.5,101728.0,1.208697
1085952284,-33.414772,28.5,101726.99,1.2086849
1085962763,-33.33022,28.5,101725.99,1.2086731
1085984168,-33.08184,28.5,101723.0,1.2086375
1085995277,-33.00257,28.5,101722.0,1.2086257
1086005136,-32.74891,28.5,101719.0,1.20859
1086026724,-33.166393,28.5,101724.0,1.2086494
1086038292,-32.66964,28.5,101718.0,1.2085781
1086048790,-32.66964,28.5,101718.0,1.2085781
1086072140,-33.166393,28.5,101724.0,1.2086494
1086083282,-33.166393,28.5,101724.0,1.2086494
1086093730,-32.83346,28.5,101719.99,1.2086018
1086114736,-32.91802,28.5,101721.0,1.2086138
1086126292,-32.66964,28.5,101718.0,1.2085781
1086136778,-33.166393,28.5,101724.0,1.2086494
1086160139,-32.83346,28.5,101719.99,1.2086018
1086170324,-32.42126,28.5,101715.0,1.2085425
1086181035,-32.42126,28.5,101715.0,1.2085425
1086201733,-32.25215,28.5,101713.0,1.2085187
1086213611,-32.66964,28.5,101718.0,1.2085781
1086224986,-32.74891,28.5,101719.0,1.20859
1086246726,-32.585083,28.51,101717.0,1.2085662
1086258305,-32.585083,28.51,101717.0,1.2085662
1086269553,-32.25215,28.51,101713.0,1.2085187
1086290725,-32.08833,28.5,101711.0,1.2084949
1086302302,-32.25215,28.5,101713.0,1.2085187
1086311734,-32.1676,28.5,101712.0,1.2085068
1086333570,-32.003773,28.5,101710.0,1.2084831
1086345564,-32.003773,28.5,101710.0,1.2084831
1086357746,-32.08833,28.5,101711.0,1.2084949
1086381752,-31.83995,28.5,101707.99,1.2084591
1086393582,-31.507019,28.5,101704.0,1.2084118
1086403837,-31.507019,28.5,101704.0,1.2084118
1086425025,-32.1676,28.5,101712.0,1.2085068
1086436347,-31.591572,28.5,101705.0,1.2084236
1086446733,-31.25864,28.5,101700.99,1.208376
1086469684,-31.507019,28.51,101704.0,1.2084118
1086481602,-31.755396,28.51,101707.0,1.2084475
1086493533,-31.755396,28.51,101707.0,1.2084475
1086515731,-31.755396,28.51,101707.0,1.2084475
1086527474,-31.755396,28.51,101707.0,1.2084475
1086538724,-31.83995,28.51,101707.99,1.2084591
1086562127,-31.670841,28.51,101706.0,1.2084355
1086574436,-31.08953,28.51,101699.0,1.2083523
1086586038,-31.25864,28.51,101700.99,1.208376
1086608801,-31.670841,28.5,101706.0,1.2084355
1086620285,-31.422464,28.5,101703.0,1.2083999
1086630737,-30.7566,28.5,101694.99,1.2083048
1086654635,-31.08953,28.5,101699.0,1.2083523
1086666617,-31.010262,28.5,101698.0,1.2083405
1086678514,-30.841154,28.5,101696.0,1.2083167
1086702574,-31.25864,28.51,101700.99,1.208376
1086714641,-30.841154,28.51,101696.0,1.2083167
1086726440,-31.174086,28.51,101700.0,1.2083642
1086750544,-30.841154,28.5,101696.0,1.2083167
1086762569,-30.67733,28.5,101694.0,1.208293
1086774681,-30.7566,28.5,101694.99,1.2083048
1086798439,-31.08953,28.5,101699.0,1.2083523
1086809753,-30.841154,28.5,101696.0,1.2083167
1086820431,-30.7566,28.5,101694.99,1.2083048
1086842536,-30.841154,28.5,101696.0,1.2083167
1086853432,-31.174086,28.5,101700.0,1.2083642
1086864435,-30.50822,28.5,101692.0,1.2082692
1086887144,-30.17529,28.5,101688.0,1.2082217
1086897431,-29.92691,28.5,101685.0,1.208186
1086908437,-30.50822,28.5,101692.0,1.2082692
1086929733,-30.50822,28.51,101692.0,1.2082692
1086940290,-30.09602,28.51,101687.0,1.2082098
1086951538,-30.011465,28.51,101686.0,1.208198
1086973811,-30.7566,28.51,101694.99,1.2083048
1086985313,-30.344398,28.51,101690.0,1.2082454
1086994925,-29.763088,28.51,101682.99,1.2081622
1087017728,-29.92691,28.51,101685.0,1.208186
1087029313,-29.678534,28.51,101682.0,1.2081504
1087039851,-29.51471,28.51,101680.0,1.2081265
1087061725,-30.428951,28.51,101691.0,1.2082573
1087072277,-30.011465,28.51,101686.0,1.208198
1087082840,-30.011465,28.51,101686.0,1.208198
1087105729,-29.763088,28.519999,101682.99,1.2081622
1087116279,-30.09602,28.519999,101687.0,1.2082098
1087127565,-30.011465,28.519999,101686.0,1.208198
1087150727,-29.92691,28.519999,101685.0,1.208186
1087162280,-30.011465,28.519999,101686.0,1.208198
1087172822,-29.847641,28.519999,101684.0,1.2081741
1087195726,-29.92691,28.519999,101685.0,1.208186
1087207965,-29.430155,28.519999,101679.0,1.2081147
1087218733,-29.92691,28.519999,101685.0,1.208186
1087240818,-29.430155,28.519999,101679.0,1.2081147
1087252285,-29.763088,28.519999,101682.99,1.2081622
1087262773,-29.92691,28.519999,101685.0,1.208186
1087283816,-29.763088,28.519999,101682.99,1.2081622
1087295883,-29.26633,28.519999,101676.99,1.2080909
1087306733,-29.181776,28.519999,101675.99,1.208079
1087328828,-29.599264,28.519999,101681.0,1.2081385
1087340286,-29.181776,28.519999,101675.99,1.208079
1087350739,-29.599264,28.519999,101681.0,1.2081385
1087371730,-29.097223,28.519999,101675.0,1.2080672
1087383904,-29.430155,28.519999,101679.0,1.2081147
1087394733,-29.017954,28.519999,101674.0,1.2080553
1087416827,-29.3456,28.519999,101678.0,1.2081028
1087427376,-29.017954,28.519999,101674.0,1.2080553
1087437730,-29.017954,28.519999,101674.0,1.2080553
1087459744,-29.097223,28.529999,101675.0,1.2080672
1087471278,-28.848845,28.529999,101672.0,1.2080315
1087481731,-28.9334,28.529999,101673.0,1.2080435
1087504812,-28.76429,28.529999,101671.0,1.2080196
1087515279,-28.436644,28.529999,101667.0,1.2079722
1087525737,-28.68502,28.529999,101669.99,1.2080077
1087548829,-28.68502,28.519999,101669.99,1.2080077
1087560688,-28.352089,28.519999,101666.0,1.2079602
1087572171,-28.436644,28.519999,101667.0,1.2079722
1087593165,-29.097223,28.519999,101675.0,1.2080672
1087604279,-28.267534,28.519999,101665.0,1.2079483
1087613821,-28.18298,28.519999,101663.99,1.2079364
1087636778,-28.68502,28.529999,101669.99,1.2080077
1087648717,-28.9334,28.529999,101673.0,1.2080435
1087660141,-28.436644,28.529999,101667.0,1.2079722
1087681161,-28.600466,28.529999,101669.0,1.2079959
1087692278,-28.76429,28.529999,101671.0,1.2080196
1087701727,-28.515913,28.529999,101668.0,1.207984
1087724725,-28.515913,28.529999,101668.0,1.207984
1087736730,-27.606955,28.529999,101657.0,1.2078533
1087748168,-27.934603,28.529999,101661.0,1.2079009
1087769750,-27.686224,28.529999,101657.99,1.2078651
1087781455,-27.770779,28.529999,101659.0,1.207877
1087792945,-28.352089,28.529999,101666.0,1.2079602
1087814725,-28.18298,28.529999,101663.99,1.2079364
1087825566,-28.18298,28.529999,101663.99,1.2079364
1087837617,-28.019156,28.529999,101662.0,1.2079127
1087859844,-27.934603,28.539999,101661.0,1.2079009
1087871277,-27.934603,28.539999,101661.0,1.2079009
1087881050,-28.10371,28.539999,101663.0,1.2079246
1087902733,-27.606955,28.529999,101657.0,1.2078533
1087914284,-27.437845,28.529999,101655.0,1.2078296
1087925638,-27.934603,28.529999,101661.0,1.2079009
1087949573,-28.019156,28.539999,101662.0,1.2079127
1087961606,-27.686224,28.539999,101657.99,1.2078651
1087973810,-27.934603,28.539999,101661.0,1.2079009
1087997555,-27.686224,28.529999,101657.99,1.2078651
1088009338,-27.020359,28.529999,101650.0,1.2077701
1088019734,-27.189468,28.529999,101651.99,1.2077938
1088041051,-27.5224,28.529999,101656.0,1.2078414
1088052348,-27.353292,28.529999,101654.0,1.2078177
1088062773,-27.5224,28.529999,101656.0,1.2078414
1088085687,-27.189468,28.529999,101651.99,1.2077938
1088097553,-26.856535,28.529999,101648.0,1.2077464
1088108725,-26.94109,28.529999,101649.0,1.2077583
1088130738,-26.771982,28.529999,101647.0,1.2077345
1088143069,-27.5224,28.529999,101656.0,1.2078414
1088154224,-27.189468,28.529999,101651.99,1.2077938
1088176725,-27.274023,28.539999,101653.0,1.2078058
1088187315,-27.020359,28.539999,101650.0,1.2077701
1088198788,-26.692713,28.539999,101646.0,1.2077227
1088222786,-26.94109,28.529999,101649.0,1.2077583
1088234638,-26.771982,28.529999,101647.0,1.2077345
1088246764,-26.771982,28.529999,101647.0,1.2077345
1088268808,-26.523603,28.529999,101644.0,1.2076988
1088280277,-26.275225,28.529999,101641.0,1.2076632
1088290144,-26.444334,28.529999,101643.0,1.207687
1088312727,-26.771982,28.539999,101647.0,1.2077345
1088324281,-26.608158,28.539999,101644.99,1.2077106
1088334803,-26.444334,28.539999,101643.0,1.207687
1088358758,-26.444334,28.539999,101643.0,1.207687
1088370617,-26.444334,28.539999,101643.0,1.207687
1088382667,-26.026848,28.539999,101638.0,1.2076275
1088406613,-26.523603,28.539999,101644.0,1.2076988
1088418617,-26.444334,28.539999,101643.0,1.207687
1088429725,-26.35978,28.539999,101642.0,1.2076751
1088452727,-26.111403,28.529999,101638.99,1.2076393
1088464361,-25.77847,28.529999,101635.0,1.2075919
1088474843,-26.111403,28.529999,101638.99,1.2076393
1088496826,-25.693914,28.539999,101634.0,1.2075801
1088508276,-26.026848,28.539999,101638.0,1.2076275
1088517769,-26.026848,28.539999,101638.0,1.2076275
1088537762,-26.026848,28.539999,101638.0,1.2076275
1088548277,-25.942293,28.539999,101637.0,1.2076157
1088559492,-26.111403,28.539999,101638.99,1.2076393
1088581732,-25.693914,28.539999,101634.0,1.2075801
1088593315,-25.360983,28.539999,101630.0,1.2075325
1088603726,-25.857738,28.539999,101636.0,1.2076038
1088626823,-26.35978,28.539999,101642.0,1.2076751
1088639057,-25.693914,28.539999,101634.0,1.2075801
1088649725,-25.530092,28.539999,101632.0,1.2075562
1088671735,-25.693914,28.539999,101634.0,1.2075801
1088683405,-25.530092,28.539999,101632.0,1.2075562
1088693727,-25.281713,28.539999,101629.0,1.2075206
1088714919,-25.197159,28.539999,101628.0,1.2075088
1088725453,-25.197159,28.539999,101628.0,1.2075088
1088736815,-25.197159,28.539999,101628.0,1.2075088
1088758745,-25.281713,28.55,101629.0,1.2075206
1088770289,-25.693914,28.55,101634.0,1.2075801
1088780827,-25.281713,28.55,101629.0,1.2075206
1088803726,-24.864227,28.55,101624.0,1.2074612
1088815856,-24.779673,28.55,101623.0,1.2074493
1088826763,-24.948782,28.55,101625.0,1.2074732
1088848345,-25.112604,28.55,101626.99,1.2074968
1088859377,-25.112604,28.55,101626.99,1.2074968
1088868926,-25.112604,28.55,101626.99,1.2074968
1088891734,-25.197159,28.55,101628.0,1.2075088
1088904018,-24.779673,28.55,101623.0,1.2074493
1088914736,-24.779673,28.55,101623.0,1.2074493
1088936833,-24.864227,28.55,101624.0,1.2074612
1088948288,-24.864227,28.55,101624.0,1.2074612
1088958741,-24.446741,28.55,101619.0,1.2074019
1088980819,-24.779673,28.55,101623.0,1.2074493
1088991878,-25.028051,28.55,101625.99,1.207485
1089002732,-25.028051,28.55,101625.99,1.207485
1089024827,-24.198362,28.55,101616.0,1.2073662
1089036287,-24.034538,28.55,101613.99,1.2073423
1089046733,-24.615849,28.55,101621.0,1.2074256
1089068815,-24.779673,28.55,101623.0,1.2074493
1089079278,-24.198362,28.55,101616.0,1.2073662
1089089761,-24.034538,28.55,101613.99,1.2073423
1089110736,-24.367472,28.56,101618.0,1.20739
1089122304,-24.282917,28.56,101617.0,1.207378
1089132888,-24.367472,28.56,101618.0,1.20739
1089156142,-24.367472,28.55,101618.0,1.20739
1089167281,-24.446741,28.55,101619.0,1.2074019
1089176937,-23.701607,28.55,101610.0,1.207295
1089197763,-23.949984,28.56,101613.0,1.2073306
1089209641,-24.198362,28.56,101616.0,1.2073662
1089220793,-24.198362,28.56,101616.0,1.2073662
1089244157,-23.786161,28.56,101611.0,1.2073067
1089255276,-23.949984,28.56,101613.0,1.2073306
1089265737,-23.86543,28.56,101612.0,1.2073187
1089288807,-23.949984,28.56,101613.0,1.2073306
1089299315,-24.034538,28.56,101613.99,1.2073423
1089309732,-23.701607,28.56,101610.0,1.207295
1089332154,-23.368673,28.56,101606.0,1.2072474
1089343278,-23.453228,28.56,101607.0,1.2072593
1089353745,-23.532497,28.56,101607.99,1.207271
1089376887,-24.034538,28.56,101613.99,1.2073423
1089388285,-23.368673,28.56,101606.0,1.2072474
1089398733,-23.20485,28.56,101604.0,1.2072237
1089421011,-23.532497,28.56,101607.99,1.207271
1089432286,-23.368673,28.56,101606.0,1.2072474
1089442770,-23.28412,28.56,101605.0,1.2072355
1089463831,-23.368673,28.56,101606.0,1.2072474
1089475286,-23.120296,28.56,101603.0,1.2072117
1089485755,-23.786161,28.56,101611.0,1.2073067
1089509012,-23.120296,28.56,101603.0,1.2072117
1089520289,-23.035742,28.56,101601.99,1.2071997
1089530741,-23.120296,28.56,101603.0,1.2072117
1089553668,-23.035742,28.56,101601.99,1.2071997
1089565600,-23.617052,28.56,101609.0,1.207283
1089577640,-23.453228,28.56,101607.0,1.2072593
1089601630,-23.035742,28.56,101601.99,1.2071997
1089613350,-22.871918,28.56,101600.0,1.2071761
1089623839,-23.035742,28.56,101601.99,1.2071997
1089645747,-22.623539,28.56,101597.0,1.2071404
1089656286,-22.951187,28.56,101600.99,1.2071879
1089666742,-22.369877,28.56,101594.0,1.2071048
1089689676,-22.454432,28.56,101594.99,1.2071166
1089701338,-22.290607,28.56,101593.0,1.2070929
1089712430,-22.787363,28.56,101599.0,1.2071642
1089734129,-22.623539,28.56,101597.0,1.2071404
1089746235,-22.454432,28.56,101594.99,1.2071166
1089756730,-22.369877,28.56,101594.0,1.2071048
1089778640,-22.369877,28.56,101594.0,1.2071048
1089790585,-22.369877,28.56,101594.0,1.2071048
1089802697,-22.290607,28.56,101593.0,1.2070929
1089826698,-21.873121,28.56,101588.0,1.2070335
1089838625,-22.538986,28.56,101596.0,1.2071285
1089850745,-21.957676,28.56,101588.99,1.2070453
1089872725,-22.290607,28.56,101593.0,1.2070929
1089884280,-22.290607,28.56,101593.0,1.2070929
1089894773,-22.369877,28.56,101594.0,1.2071048
1089918042,-21.873121,28.56,101588.0,1.2070335
1089930266,-22.454432,28.56,101594.99,1.2071166
1089940725,-22.1215,28.56,101591.0,1.2070692
1089962574,-21.957676,28.56,101588.99,1.2070453
1089974625,-21.624743,28.56,101585.0,1.2069979
1089986636,-21.376366,28.56,101582.0,1.2069622
1090010641,-21.709297,28.56,101586.0,1.2070097
1090022602,-21.788567,28.56,101587.0,1.2070216
1090033727,-21.788567,28.56,101587.0,1.2070216
1090056726,-21.624743,28.56,101585.0,1.2069979
1090068277,-21.709297,28.56,101586.0,1.2070097
1090079370,-21.709297,28.56,101586.0,1.2070097
1090100822,-21.873121,28.56,101588.0,1.2070335
1090112278,-21.043432,28.56,101578.0,1.2069147
1090121764,-21.291811,28.56,101581.0,1.2069503
1090143514,-21.54019,28.56,101584.0,1.206986
1090155377,-21.291811,28.56,101581.0,1.2069503
1090165743,-21.207256,28.56,101580.0,1.2069384
1090187727,-21.54019,28.56,101584.0,1.206986
1090199888,-21.376366,28.56,101582.0,1.2069622
1090210831,-20.874325,28.56,101575.99,1.2068908
1090233725,-21.291811,28.57,101581.0,1.2069503
1090245315,-21.291811,28.57,101581.0,1.2069503
1090255733,-21.455635,28.57,101582.99,1.206974
1090279529,-20.795055,28.56,101575.0,1.206879
1090291462,-20.462122,28.56,101571.0,1.2068315
1090303492,-20.462122,28.56,101571.0,1.2068315
1090325768,-21.043432,28.56,101578.0,1.2069147
1090337317,-20.7105,28.56,101574.0,1.2068671
1090347726,-20.95888,28.56,101576.99,1.2069027
1090369764,-20.7105,28.57,101574.0,1.2068671
1090381332,-20.795055,28.57,101575.0,1.206879
1090392431,-20.462122,28.57,101571.0,1.2068315
1090414431,-20.795055,28.57,101575.0,1.206879
1090425442,-20.795055,28.57,101575.0,1.206879
1090436431,-20.7105,28.57,101574.0,1.2068671
1090458431,-20.462122,28.57,101571.0,1.2068315
1090469443,-20.044636,28.57,101566.0,1.2067721
1090480431,-20.12919,28.57,101567.0,1.206784
1090502431,-20.12919,28.57,101567.0,1.206784
1090512651,-20.37757,28.57,101569.99,1.2068195
1090523726,-20.12919,28.57,101567.0,1.206784
1090546727,-20.541391,28.57,101572.0,1.2068434
1090558315,-19.880812,28.57,101563.99,1.2067482
1090568959,-19.54788,28.57,101560.0,1.2067008
1090590725,-20.213745,28.57,101568.0,1.2067958
1090602280,-20.795055,28.57,101575.0,1.206879
1090612725,-19.880812,28.57,101563.99,1.2067482
1090634726,-20.044636,28.58,101566.0,1.2067721
1090646295,-20.044636,28.58,101566.0,1.2067721
1090656817,-19.796259,28.58,101563.0,1.2067364
1090678772,-19.960081,28.57,101565.0,1.2067602
1090690305,-20.044636,28.57,101566.0,1.2067721
1090700181,-19.711704,28.57,101562.0,1.2067245
1090721733,-19.463326,28.58,101559.0,1.2066889
1090733329,-20.044636,28.58,101566.0,1.2067721
1090744857,-19.880812,28.58,101563.99,1.2067482
1090766726,-20.12919,28.57,101567.0,1.206784
1090778282,-18.96657,28.57,101553.0,1.2066176
1090788725,-19.04584,28.57,101554.0,1.2066295
1090812160,-19.54788,28.58,101560.0,1.2067008
1090822323,-19.214947,28.58,101556.0,1.2066532
1090833111,-19.130394,28.58,101555.0,1.2066414
1090856944,-19.463326,28.58,101559.0,1.2066889
1090868283,-19.62715,28.58,101561.0,1.2067127
1090878723,-19.54788,28.58,101560.0,1.2067008
1090900831,-19.04584,28.58,101554.0,1.2066295
1090912716,-19.37877,28.58,101557.99,1.206677
1090924160,-19.299501,28.58,101557.0,1.2066652
1090945072,-19.130394,28.58,101555.0,1.2066414
1090956283,-19.130394,28.58,101555.0,1.2066414
1090965784,-18.549084,28.58,101548.0,1.2065582
1090988886,-19.04584,28.58,101554.0,1.2066295
1091000278,-19.04584,28.58,101554.0,1.2066295
1091010724,-18.464529,28.58,101547.0,1.2065463
1091033798,-18.96657,28.58,101553.0,1.2066176
1091045350,-19.214947,28.58,101556.0,1.2066532
1091055730,-18.96657,28.58,101553.0,1.2066176
1091077739,-18.464529,28.58,101547.0,1.2065463
1091089591,-19.214947,28.58,101556.0,1.2066532
1091100970,-18.712908,28.58,101550.0,1.206582
1091122726,-18.131598,28.58,101543.0,1.2064989
1091134287,-17.967773,28.58,101541.0,1.206475
1091145643,-17.967773,28.58,101541.0,1.206475
1091167726,-18.633636,28.58,101549.0,1.2065701
1091178398,-18.633636,28.58,101549.0,1.2065701
1091188956,-18.052326,28.58,101542.0,1.2064869
1091210725,-18.300705,28.58,101544.99,1.2065225
1091222297,-18.300705,28.58,101544.99,1.2065225
1091233702,-17.967773,28.58,101541.0,1.206475
1091257737,-17.967773,28.58,101541.0,1.206475
1091269603,-18.052326,28.58,101542.0,1.2064869
1091281705,-17.967773,28.58,101541.0,1.206475
1091305701,-18.052326,28.58,101542.0,1.2064869
1091317752,-17.719395,28.58,101538.0,1.2064394
1091328727,-17.471016,28.58,101535.0,1.2064037
1091350727,-17.883219,28.58,101540.0,1.2064632
1091363157,-17.386463,28.58,101534.0,1.2063919
1091374125,-17.05353,28.58,101530.0,1.2063444
1091396801,-17.967773,28.58,101541.0,1.206475
1091408277,-17.63484,28.58,101537.0,1.2064276
1091418725,-17.386463,28.58,101534.0,1.2063919
1091440810,-17.471016,28.58,101535.0,1.2064037
