timestamp,magnetometer_ga[0],magnetometer_ga[1],magnetometer_ga[2]
665261483,0.08463126,0.194054,0.35031155
665284526,0.06971847,0.1969796,0.4097723
665306551,0.07270102,0.1969796,0.3909952
665329526,0.06971847,0.194054,0.40664276
665351492,0.07270102,0.194054,0.38160667
665373530,0.07568358,0.19112839,0.3753476
665396493,0.087613806,0.194054,0.37221813
665418548,0.08463126,0.194054,0.38160667
665441489,0.07568358,0.19990519,0.3753476
665465489,0.08463126,0.194054,0.38473618
665489481,0.07270102,0.19112839,0.38160667
665513481,0.07568358,0.194054,0.3878657
665535482,0.07270102,0.1969796,0.37847716
665556482,0.078666136,0.19112839,0.37847716
665578539,0.066735916,0.19112839,0.38160667
665601833,0.0816487,0.19112839,0.38160667
665625492,0.07568358,0.1969796,0.37221813
665648490,0.08463126,0.194054,0.38473618
665670550,0.07270102,0.194054,0.3878657
665692488,0.07270102,0.1852772,0.37221813
665714548,0.07270102,0.1969796,0.3878657
665737482,0.07270102,0.19112839,0.3753476
665761482,0.066735916,0.19990519,0.37847716
665785521,0.07568358,0.194054,0.38160667
665809481,0.07270102,0.19990519,0.3878657
665832481,0.07568358,0.19990519,0.40351325
665854808,0.07270102,0.19990519,0.37847716
665877490,0.06971847,0.20283079,0.3878657
665900494,0.0607708,0.1969796,0.3878657
665922553,0.07270102,0.1969796,0.39725423
665945493,0.06375336,0.19990519,0.38473618
665969522,0.066735916,0.1969796,0.40351325
665990587,0.05778824,0.194054,0.40351325
666012489,0.051823128,0.1882028,0.3909952
666034548,0.042875458,0.1852772,0.4097723
666057490,0.019015005,0.17650041,0.40038374
666079490,0.010067334,0.17064922,0.4097723
666100483,0.0041022203,0.16772363,0.4160313
666122537,-0.013793119,0.16772363,0.41916084
666143491,-0.016775677,0.17650041,0.42854935
666165490,-0.016775677,0.17650041,0.4160313
666186583,-0.019758234,0.1823516,0.39725423
666208509,-0.0078280065,0.1852772,0.39725423
666232510,-0.001862893,0.1969796,0.39725423
666256548,0.007084777,0.19990519,0.3878657
666278429,0.016032446,0.20868197,0.38160667
666301531,0.021997562,0.20868197,0.3753476
666324024,0.024980117,0.22038436,0.38473618
666346545,0.036910344,0.22038436,0.38160667
666369481,0.0398929,0.22330996,0.3878657
666390537,0.036910344,0.22038436,0.36908862
666413487,0.051823128,0.22330996,0.3753476
666434484,0.045858014,0.22330996,0.35657057
666457480,0.051823128,0.22330996,0.35970008
666479606,0.05778824,0.23501234,0.3753476
666500488,0.051823128,0.22916116,0.36595908
666522549,0.0607708,0.23208676,0.3628296
666544482,0.05778824,0.23208676,0.36595908
666566545,0.05778824,0.22330996,0.3628296
666589482,0.0607708,0.23208676,0.36908862
666612053,0.054805685,0.22916116,0.3628296
666634540,0.054805685,0.22623555,0.35657057
666656489,0.05778824,0.22916116,0.36595908
666678528,0.06375336,0.22916116,0.3628296
666701481,0.054805685,0.23208676,0.3628296
666724135,0.0607708,0.22330996,0.35344103
666745482,0.0607708,0.23208676,0.37221813
666767608,0.051823128,0.22916116,0.35657057
666789482,0.05778824,0.22623555,0.36908862
666812051,0.04884057,0.23208676,0.3628296
666834546,0.054805685,0.23501234,0.36908862
666857482,0.04884057,0.23208676,0.3628296
666879715,0.045858014,0.22623555,0.35657057
666903675,0.0398929,0.23208676,0.35970008
666927651,0.051823128,0.22916116,0.3628296
666950546,0.045858014,0.22330996,0.35657057
666973483,0.054805685,0.22916116,0.3628296
666994489,0.045858014,0.22330996,0.35031155
667016530,0.05778824,0.22916116,0.36595908
667037481,0.051823128,0.22623555,0.37221813
667059481,0.0398929,0.22916116,0.35657057
667082548,0.0398929,0.23208676,0.35657057
667104524,0.036910344,0.22623555,0.35344103
667126544,0.0398929,0.23208676,0.37221813
667147489,0.036910344,0.22623555,0.35657057
667169481,0.04884057,0.22623555,0.36908862
667192488,0.042875458,0.23208676,0.36908862
667214548,0.0398929,0.22330996,0.35970008
667235483,0.0398929,0.22916116,0.37221813
667257488,0.036910344,0.22623555,0.3628296
667279488,0.042875458,0.22330996,0.37221813
667301027,0.0398929,0.22038436,0.35970008
667322411,0.033927787,0.22916116,0.3628296
667343383,0.042875458,0.22916116,0.36595908
667365032,0.042875458,0.22623555,0.35970008
667387450,0.033927787,0.22916116,0.3628296
667410584,0.042875458,0.22916116,0.37221813
667432491,0.03094523,0.22623555,0.36595908
667454546,0.042875458,0.22623555,0.37221813
667476996,0.036910344,0.23208676,0.37221813
667499481,0.033927787,0.23208676,0.36595908
667521529,0.03094523,0.22916116,0.3628296
667544489,0.03094523,0.22330996,0.35657057
667566538,0.033927787,0.22916116,0.3753476
667589025,0.024980117,0.22623555,0.37221813
667611482,0.027962673,0.22916116,0.36595908
667634540,0.027962673,0.22916116,0.37221813
667656483,0.03094523,0.22623555,0.36908862
667678547,0.024980117,0.23208676,0.3628296
667699482,0.03094523,0.22038436,0.36595908
667721489,0.033927787,0.22916116,0.37221813
667743481,0.024980117,0.22916116,0.36595908
667766537,0.033927787,0.22623555,0.37221813
667787490,0.024980117,0.23208676,0.36595908
667809485,0.027962673,0.22330996,0.3628296
667832518,0.027962673,0.22916116,0.36595908
667854525,0.021997562,0.22916116,0.36908862
667875482,0.03094523,0.22623555,0.37221813
667897493,0.024980117,0.23208676,0.36595908
667919482,0.024980117,0.22330996,0.3628296
667942539,0.027962673,0.22916116,0.3753476
667964979,0.021997562,0.22916116,0.36595908
667987489,0.024980117,0.22916116,0.37221813
668010547,0.021997562,0.22623555,0.37221813
668031482,0.027962673,0.22330996,0.36908862
668053489,0.021997562,0.22623555,0.35657057
668074540,0.019015005,0.22916116,0.36595908
668096482,0.033927787,0.22623555,0.3628296
668118526,0.042875458,0.24378914,0.35657057
668141480,0.05778824,0.23793794,0.3377935
668164524,0.066735916,0.24964035,0.34718204
668186615,0.07270102,0.24086353,0.34092298
668208496,0.0816487,0.24964035,0.34718204
668230556,0.09059636,0.24671473,0.31588688
668254576,0.096561484,0.24671473,0.31588688
668278559,0.10252659,0.24671473,0.3190164
668302551,0.10550915,0.24671473,0.31275737
668326568,0.10550915,0.24671473,0.31588688
668348335,0.11147427,0.24671473,0.31275737
668370634,0.108491704,0.24378914,0.31275737
668392371,0.11147427,0.24378914,0.3221459
668415378,0.108491704,0.24378914,0.3221459
668438431,0.11147427,0.24086353,0.31275737
668460323,0.11147427,0.24086353,0.32527545
668482549,0.11147427,0.23793794,0.3221459
668505324,0.108491704,0.23793794,0.3221459
668528489,0.108491704,0.23501234,0.32527545
668550432,0.108491704,0.23501234,0.3221459
668572322,0.108491704,0.23208676,0.32527545
668594604,0.11147427,0.22916116,0.32840493
668617334,0.11147427,0.22916116,0.334664
668640481,0.108491704,0.22916116,0.32527545
668662581,0.11147427,0.22916116,0.334664
668686580,0.108491704,0.22623555,0.32840493
668709497,0.108491704,0.22330996,0.32840493
668730484,0.11147427,0.22330996,0.33153445
668751487,0.108491704,0.22330996,0.34092298
668774546,0.108491704,0.22038436,0.334664
668797481,0.108491704,0.22038436,0.3377935
668819481,0.108491704,0.22038436,0.3377935
668840483,0.108491704,0.21745877,0.34092298
668861482,0.10550915,0.21745877,0.3440525
668883482,0.108491704,0.21745877,0.3440525
668905481,0.11147427,0.21745877,0.3440525
668928525,0.108491704,0.21745877,0.34092298
668949490,0.108491704,0.21453317,0.34092298
668971529,0.108491704,0.21453317,0.34092298
668993490,0.11147427,0.21453317,0.34092298
669015704,0.108491704,0.21453317,0.34718204
669038488,0.108491704,0.21453317,0.34718204
669061481,0.10550915,0.21160758,0.3440525
669084184,0.10550915,0.21453317,0.34092298
669106547,0.108491704,0.21453317,0.34718204
669128504,0.10550915,0.21160758,0.34092298
669152499,0.108491704,0.21160758,0.3440525
669176658,0.10550915,0.21160758,0.3440525
669200573,0.108491704,0.21160758,0.35031155
669222425,0.10550915,0.21160758,0.34718204
669245520,0.10550915,0.20868197,0.35344103
669268044,0.10550915,0.20868197,0.35657057
669290487,0.10550915,0.20868197,0.34718204
669313499,0.10252659,0.21160758,0.35031155
669334532,0.10252659,0.20868197,0.3440525
669357489,0.10252659,0.21160758,0.35031155
669378537,0.10252659,0.20868197,0.35344103
669400488,0.10252659,0.20868197,0.3440525
669421053,0.10252659,0.20868197,0.34092298
669444225,0.10550915,0.20868197,0.35031155
669466448,0.10550915,0.20868197,0.35031155
669488495,0.10252659,0.20868197,0.34718204
669512498,0.10252659,0.20575637,0.35031155
669536589,0.09954404,0.20868197,0.35031155
669560493,0.09954404,0.20575637,0.35031155
669584501,0.10252659,0.20868197,0.35031155
669607695,0.10252659,0.20868197,0.35657057
669630430,0.09954404,0.20575637,0.3440525
669652491,0.10550915,0.20575637,0.35031155
669676288,0.10252659,0.20575637,0.35031155
669698426,0.10252659,0.20868197,0.3440525
669721525,0.09954404,0.20868197,0.35031155
669743677,0.09954404,0.20575637,0.35031155
669767714,0.10252659,0.20868197,0.34718204
669790549,0.10252659,0.20868197,0.35344103
669813522,0.10252659,0.20868197,0.35344103
669835481,0.09954404,0.20868197,0.35031155
669858573,0.09954404,0.20575637,0.35031155
669880504,0.10252659,0.20575637,0.34718204
669901531,0.10252659,0.20868197,0.35031155
669923488,0.10252659,0.20575637,0.35031155
669946552,0.09954404,0.20575637,0.34718204
669968496,0.10252659,0.20868197,0.34718204
669990484,0.10252659,0.20868197,0.34718204
670011486,0.10252659,0.20868197,0.34718204
670033482,0.09954404,0.20575637,0.35657057
670056483,0.10252659,0.20868197,0.35344103
670078537,0.10252659,0.20575637,0.35031155
670099488,0.10252659,0.20575637,0.34718204
670121487,0.10252659,0.20868197,0.35344103
670143481,0.10252659,0.20868197,0.3440525
670165011,0.10550915,0.20575637,0.34718204
670186461,0.10252659,0.20868197,0.3440525
670208499,0.10252659,0.20575637,0.34718204
670230413,0.09954404,0.20575637,0.35031155
670253060,0.10252659,0.20575637,0.35657057
670275389,0.09954404,0.20575637,0.34718204
670298560,0.10252659,0.20575637,0.35344103
670319490,0.10252659,0.20283079,0.35031155
670340973,0.10252659,0.20575637,0.34718204
670363389,0.10252659,0.20575637,0.3440525
670386575,0.10252659,0.20868197,0.35031155
670408481,0.09954404,0.20868197,0.35031155
670430544,0.09954404,0.20575637,0.34718204
670453239,0.096561484,0.20575637,0.35031155
670475481,0.09954404,0.20575637,0.34718204
670498541,0.096561484,0.20575637,0.35031155
670519499,0.09954404,0.20575637,0.35344103
670542537,0.09954404,0.20868197,0.34718204
670563489,0.096561484,0.20575637,0.35031155
670585481,0.09954404,0.20575637,0.3440525
670608481,0.096561484,0.20575637,0.34718204
670630541,0.09954404,0.20575637,0.34718204
670653228,0.09954404,0.20575637,0.3440525
670673481,0.096561484,0.20575637,0.3440525
670695488,0.09954404,0.20575637,0.35031155
670717522,0.09954404,0.20575637,0.35344103
670738606,0.09954404,0.20575637,0.35657057
670760482,0.096561484,0.20575637,0.34718204
670782528,0.09954404,0.20575637,0.35031155
670804963,0.09954404,0.20575637,0.34718204
670827488,0.096561484,0.20575637,0.35344103
670850539,0.09954404,0.20575637,0.35031155
670871481,0.096561484,0.20575637,0.34718204
670893492,0.09357892,0.20868197,0.35031155
670915488,0.096561484,0.20575637,0.35344103
670938583,0.09954404,0.20575637,0.34718204
670960482,0.096561484,0.20575637,0.34718204
670981481,0.09357892,0.20575637,0.35344103
671001482,0.09954404,0.20575637,0.35344103
671022542,0.09954404,0.20283079,0.35344103
671046556,0.096561484,0.20283079,0.35031155
671070555,0.096561484,0.20575637,0.34718204
671092322,0.096561484,0.20575637,0.35344103
671114583,0.096561484,0.20575637,0.35031155
671136361,0.096561484,0.20575637,0.35344103
671159408,0.096561484,0.20575637,0.35031155
671182435,0.096561484,0.20575637,0.35657057
671204321,0.096561484,0.20575637,0.34718204
671226667,0.09954404,0.20283079,0.35344103
671249322,0.096561484,0.20575637,0.35657057
671272527,0.09357892,0.20575637,0.35031155
671294433,0.096561484,0.20575637,0.3440525
671316328,0.096561484,0.20575637,0.35657057
671338673,0.096561484,0.20575637,0.35657057
671361366,0.096561484,0.20575637,0.34718204
671384523,0.096561484,0.20575637,0.35344103
671406578,0.096561484,0.20575637,0.35344103
671428489,0.096561484,0.20575637,0.35657057
671450570,0.096561484,0.20283079,0.34718204
671472481,0.09954404,0.20283079,0.35344103
671494556,0.09954404,0.20575637,0.34718204
671518555,0.096561484,0.20575637,0.35031155
671542537,0.096561484,0.20575637,0.35031155
671564326,0.09954404,0.20575637,0.34718204
671586652,0.096561484,0.20575637,0.35344103
671609323,0.09954404,0.20283079,0.35344103
671632489,0.09954404,0.20575637,0.35031155
671654593,0.096561484,0.20575637,0.34718204
671676494,0.096561484,0.20575637,0.35031155
671698603,0.096561484,0.20575637,0.35031155
671720490,0.09954404,0.20575637,0.34718204
671742551,0.09954404,0.20575637,0.35031155
671764480,0.09954404,0.20575637,0.35344103
671786652,0.096561484,0.20575637,0.35344103
671809489,0.09954404,0.20575637,0.34718204
671831610,0.09954404,0.20575637,0.35031155
671855707,0.09954404,0.20575637,0.34718204
671877491,0.09954404,0.20575637,0.35344103
671898526,0.09954404,0.20575637,0.35344103
671920489,0.096561484,0.20575637,0.34718204
671942575,0.096561484,0.20283079,0.34718204
671965498,0.09954404,0.20283079,0.35031155
671988165,0.09954404,0.20575637,0.35657057
672010550,0.09954404,0.20575637,0.35031155
672032481,0.096561484,0.20575637,0.35031155
672055713,0.09954404,0.20575637,0.34718204
672079599,0.09954404,0.20575637,0.35344103
672101490,0.09954404,0.20868197,0.35031155
672124151,0.09954404,0.20575637,0.34718204
672146486,0.096561484,0.20575637,0.35031155
672169483,0.09954404,0.20575637,0.3440525
672191694,0.096561484,0.20575637,0.35031155
672215717,0.09954404,0.20868197,0.35031155
672238582,0.09954404,0.20575637,0.35031155
672261482,0.096561484,0.20575637,0.35031155
672284031,0.09954404,0.20575637,0.34718204
672306580,0.09954404,0.20575637,0.35031155
672328496,0.09954404,0.20575637,0.3440525
672351609,0.096561484,0.20575637,0.35344103
672372482,0.09954404,0.20575637,0.35031155
672393481,0.096561484,0.20575637,0.34718204
672415686,0.096561484,0.20575637,0.35031155
672439595,0.09954404,0.20575637,0.34718204
672461489,0.09954404,0.20575637,0.34718204
672484139,0.096561484,0.20868197,0.35031155
672506537,0.09954404,0.20575637,0.34718204
672529500,0.09954404,0.20868197,0.35031155
672551627,0.09954404,0.20868197,0.35031155
672575718,0.09954404,0.20868197,0.35344103
672597492,0.096561484,0.20575637,0.35031155
672620014,0.096561484,0.20575637,0.35031155
672641528,0.09954404,0.20575637,0.35344103
672662579,0.096561484,0.20575637,0.35031155
672683530,0.10252659,0.20575637,0.35031155
672706483,0.09954404,0.20575637,0.34718204
672728481,0.09954404,0.20575637,0.34718204
672750534,0.09954404,0.20868197,0.3440525
672772995,0.09954404,0.20575637,0.35031155
672795488,0.09954404,0.20575637,0.34718204
672818488,0.10252659,0.20575637,0.35657057
672840488,0.10252659,0.20575637,0.35031155
672862541,0.09954404,0.20575637,0.35031155
672884832,0.09954404,0.20575637,0.35031155
672907524,0.09954404,0.20868197,0.35031155
672930488,0.09954404,0.20575637,0.35031155
672952490,0.09954404,0.20575637,0.3440525
672974550,0.09954404,0.20575637,0.35031155
672995483,0.09954404,0.20575637,0.3440525
673018574,0.09954404,0.20575637,0.35031155
673040512,0.09954404,0.20575637,0.35344103
673062547,0.09954404,0.20575637,0.34718204
673083481,0.096561484,0.20575637,0.3440525
673106582,0.09954404,0.20868197,0.35031155
673128490,0.09954404,0.20575637,0.3440525
673150547,0.09954404,0.20868197,0.3440525
673171489,0.096561484,0.20868197,0.35344103
673194588,0.09954404,0.20868197,0.3440525
673215612,0.09954404,0.20868197,0.34718204
673238492,0.09954404,0.20868197,0.3440525
673261332,0.09954404,0.21160758,0.34718204
673283481,0.09954404,0.21160758,0.3440525
673306529,0.09954404,0.20868197,0.3440525
673327489,0.09954404,0.20868197,0.3440525
673349482,0.09954404,0.20868197,0.34092298
673371488,0.09954404,0.20868197,0.34718204
673394541,0.096561484,0.20868197,0.34718204
673416481,0.096561484,0.20868197,0.34718204
673437528,0.09954404,0.20868197,0.34718204
673458628,0.096561484,0.20868197,0.35031155
673480490,0.09954404,0.20868197,0.34718204
673502550,0.096561484,0.20868197,0.35657057
673524834,0.09954404,0.20575637,0.3440525
673546488,0.096561484,0.20575637,0.35031155
673568491,0.096561484,0.20575637,0.34718204
673590535,0.09954404,0.20575637,0.35344103
673612999,0.09954404,0.20575637,0.35031155
673635481,0.09954404,0.20575637,0.34718204
673658487,0.096561484,0.20575637,0.34718204
673679522,0.096561484,0.20575637,0.34718204
673702580,0.10252659,0.20575637,0.34092298
673723527,0.09954404,0.20868197,0.34718204
673746543,0.09954404,0.20868197,0.34718204
673768481,0.09954404,0.20868197,0.35344103
673790548,0.09954404,0.20868197,0.3440525
673811526,0.10252659,0.20868197,0.34718204
673832491,0.09954404,0.20868197,0.34718204
673854490,0.10252659,0.20868197,0.34718204
673877653,0.09954404,0.20575637,0.35031155
673900481,0.09954404,0.20283079,0.3440525
673923490,0.09954404,0.20575637,0.3440525
673945489,0.09954404,0.20575637,0.35031155
673967529,0.10252659,0.20575637,0.35344103
673988527,0.09954404,0.20575637,0.35031155
674011491,0.09954404,0.20575637,0.35657057
674033490,0.10252659,0.20575637,0.35031155
674056493,0.09954404,0.20575637,0.34718204
674078575,0.09954404,0.20283079,0.35344103
674100489,0.09954404,0.20575637,0.35344103
674122534,0.09954404,0.20283079,0.3440525
674144490,0.10252659,0.20283079,0.34718204
674166534,0.10252659,0.20575637,0.35031155
674188489,0.10252659,0.20283079,0.35344103
674211488,0.09954404,0.20283079,0.34718204
674233482,0.09954404,0.20283079,0.35657057
674255521,0.09954404,0.20283079,0.34718204
674276532,0.10252659,0.20283079,0.35031155
674299481,0.10550915,0.20575637,0.35344103
674321515,0.10252659,0.20575637,0.35031155
674344489,0.09954404,0.20575637,0.35657057
674366552,0.10252659,0.20283079,0.35344103
674388490,0.10252659,0.20283079,0.35031155
674410533,0.09954404,0.20575637,0.35657057
674432492,0.10252659,0.20283079,0.35031155
674454537,0.10252659,0.20283079,0.35344103
674476491,0.10252659,0.20575637,0.34718204
674499482,0.10252659,0.20283079,0.35031155
674521488,0.10252659,0.20575637,0.34092298
674543529,0.10252659,0.20575637,0.34718204
674564533,0.09954404,0.20575637,0.34718204
674587482,0.096561484,0.20575637,0.34718204
674609482,0.10252659,0.20283079,0.34718204
674632490,0.10252659,0.20283079,0.3440525
674654549,0.09954404,0.20575637,0.35344103
674676491,0.09954404,0.20283079,0.35344103
674698536,0.09954404,0.20283079,0.34718204
674720491,0.09954404,0.20575637,0.34718204
674742538,0.10252659,0.20575637,0.35344103
674764490,0.10252659,0.20575637,0.34718204
674787490,0.10252659,0.20575637,0.3440525
674809482,0.09954404,0.20575637,0.34718204
674831528,0.09954404,0.20575637,0.35344103
674852526,0.09954404,0.20575637,0.35657057
674875482,0.09954404,0.20868197,0.34718204
674897481,0.09954404,0.20868197,0.35344103
674920481,0.09954404,0.20868197,0.35344103
674942563,0.09954404,0.20868197,0.34718204
674964488,0.10252659,0.20868197,0.35031155
674986536,0.09954404,0.20868197,0.35031155
675009489,0.10252659,0.20575637,0.35344103
675031490,0.10252659,0.20575637,0.34718204
675052534,0.096561484,0.20575637,0.34718204
675074551,0.096561484,0.20575637,0.34718204
675097528,0.096561484,0.20575637,0.35344103
675118630,0.096561484,0.20868197,0.34718204
675140524,0.096561484,0.20868197,0.34718204
675162547,0.096561484,0.20575637,0.34718204
675185481,0.096561484,0.20575637,0.35031155
675209488,0.10252659,0.20868197,0.34718204
675233489,0.096561484,0.20575637,0.35031155
675257490,0.09954404,0.20575637,0.35031155
675279491,0.09954404,0.20575637,0.34718204
675300481,0.09954404,0.20575637,0.34718204
675322554,0.096561484,0.20575637,0.34718204
675345876,0.09954404,0.20575637,0.35344103
675369523,0.096561484,0.20575637,0.35657057
675391482,0.09954404,0.20283079,0.35031155
675413482,0.09954404,0.20283079,0.35344103
675436487,0.09954404,0.20575637,0.35344103
675458544,0.09954404,0.20575637,0.35031155
675481483,0.10252659,0.20575637,0.34718204
675505481,0.096561484,0.20575637,0.35031155
675527485,0.096561484,0.20575637,0.35344103
675548488,0.10252659,0.20575637,0.35031155
675569525,0.10252659,0.20575637,0.35031155
675591481,0.10252659,0.20575637,0.34718204
675613520,0.09954404,0.20575637,0.3440525
675636481,0.10252659,0.20868197,0.35344103
675658547,0.10252659,0.20575637,0.35031155
675681481,0.10252659,0.20575637,0.35344103
675705480,0.10252659,0.20283079,0.35344103
675729491,0.10252659,0.20283079,0.3440525
675752501,0.09954404,0.20575637,0.34718204
675774572,0.10252659,0.20283079,0.35031155
675796488,0.09954404,0.20575637,0.35344103
675818540,0.09954404,0.20283079,0.35031155
675841524,0.10252659,0.20283079,0.35031155
675865490,0.09954404,0.20283079,0.35031155
675888481,0.096561484,0.20283079,0.35031155
675910551,0.10252659,0.20283079,0.35031155
675932487,0.09954404,0.20283079,0.34718204
675954579,0.10252659,0.20575637,0.35031155
675977483,0.09954404,0.20283079,0.34718204
675999482,0.10252659,0.20283079,0.35344103
676021481,0.10252659,0.20283079,0.34092298
676043482,0.09954404,0.20575637,0.35344103
676066641,0.09954404,0.20283079,0.35031155
676089491,0.10252659,0.20283079,0.34718204
676111594,0.09954404,0.20283079,0.34718204
676133491,0.09954404,0.19990519,0.3440525
676156220,0.09954404,0.19990519,0.34718204
676178483,0.10252659,0.20283079,0.3440525
676201482,0.10252659,0.20283079,0.3440525
676223624,0.10252659,0.20283079,0.35344103
676247597,0.10252659,0.20283079,0.34718204
676269489,0.09954404,0.20283079,0.35344103
676292208,0.10252659,0.20283079,0.35344103
676314546,0.09954404,0.20575637,0.35344103
676337482,0.09954404,0.20283079,0.34718204
676359618,0.09954404,0.20283079,0.35031155
676381480,0.10252659,0.20283079,0.34718204
676404040,0.10252659,0.20575637,0.34718204
676425482,0.10252659,0.20283079,0.35031155
676447598,0.10252659,0.20283079,0.3440525
676468481,0.10252659,0.20283079,0.34718204
676488492,0.09954404,0.20283079,0.35031155
676510551,0.09954404,0.20283079,0.3440525
676533489,0.09954404,0.20575637,0.34718204
676556214,0.09954404,0.20575637,0.35031155
676578545,0.10252659,0.20283079,0.35031155
676601485,0.09954404,0.20283079,0.35031155
676623700,0.10252659,0.20283079,0.3440525
676647630,0.10252659,0.20575637,0.35031155
676671616,0.09954404,0.20283079,0.35031155
676694544,0.09954404,0.20283079,0.34718204
676717481,0.10252659,0.20283079,0.34718204
676738559,0.09954404,0.20283079,0.35031155
676760491,0.09954404,0.20283079,0.35344103
676783605,0.09954404,0.20283079,0.34718204
676805484,0.10252659,0.20283079,0.34718204
676828050,0.09954404,0.20283079,0.3440525
676849520,0.096561484,0.20283079,0.35031155
676870579,0.09954404,0.20283079,0.34718204
676893482,0.09954404,0.20283079,0.35031155
676915482,0.09954404,0.20283079,0.34718204
676938547,0.096561484,0.20283079,0.35344103
676960498,0.096561484,0.20283079,0.3440525
676982545,0.09357892,0.20283079,0.34718204
677004942,0.096561484,0.20283079,0.35031155
677027481,0.09954404,0.20283079,0.35657057
677050576,0.096561484,0.20283079,0.35031155
677072522,0.096561484,0.20283079,0.35970008
677094551,0.096561484,0.20283079,0.35344103
677117012,0.09954404,0.20283079,0.34718204
677139482,0.096561484,0.20575637,0.35031155
677162559,0.09954404,0.20575637,0.34718204
677183482,0.09954404,0.20575637,0.35031155
677205488,0.09954404,0.20868197,0.35031155
677227489,0.096561484,0.20575637,0.34092298
677249481,0.096561484,0.20575637,0.34718204
677270576,0.096561484,0.20575637,0.34718204
677292841,0.09954404,0.20575637,0.3440525
677315489,0.096561484,0.20868197,0.3440525
677337481,0.09954404,0.20575637,0.34718204
677359525,0.09954404,0.20575637,0.35031155
677381526,0.09954404,0.20575637,0.3440525
677402588,0.10252659,0.20575637,0.35031155
677423519,0.09954404,0.20575637,0.35031155
677445489,0.09954404,0.20575637,0.34718204
677467489,0.10252659,0.20283079,0.3440525
677490546,0.09954404,0.20575637,0.35344103
677512490,0.096561484,0.20575637,0.35344103
677534547,0.096561484,0.20575637,0.34718204
677556978,0.10252659,0.20283079,0.35031155
677579482,0.09954404,0.20283079,0.35031155
677602545,0.09954404,0.20283079,0.35344103
677624489,0.10252659,0.20283079,0.35031155
677646535,0.09954404,0.20575637,0.3440525
677668998,0.09954404,0.20575637,0.34718204
677691488,0.09954404,0.20868197,0.35031155
677714549,0.09954404,0.20868197,0.34718204
677735481,0.09954404,0.20868197,0.34718204
677757487,0.096561484,0.20575637,0.35031155
677779481,0.09954404,0.20575637,0.35344103
677801482,0.09954404,0.20575637,0.35031155
677822545,0.09954404,0.20575637,0.35031155
677843483,0.096561484,0.20575637,0.34718204
677866557,0.09357892,0.20575637,0.34718204
677888488,0.096561484,0.20868197,0.35344103
677910546,0.09954404,0.20575637,0.34718204
677932836,0.09954404,0.20868197,0.3440525
677955531,0.09954404,0.20868197,0.35031155
677978534,0.09954404,0.20575637,0.3440525
678000489,0.09954404,0.20868197,0.35031155
678022549,0.09954404,0.20575637,0.35344103
678044490,0.096561484,0.20575637,0.35657057
678066612,0.09954404,0.20575637,0.34718204
678088492,0.10252659,0.20575637,0.34718204
678110490,0.09954404,0.20575637,0.35344103
678133481,0.096561484,0.20575637,0.34718204
678155482,0.09954404,0.20575637,0.3440525
678177481,0.09954404,0.20868197,0.34718204
678200520,0.096561484,0.20868197,0.3440525
678221529,0.09954404,0.20868197,0.35344103
678243485,0.10252659,0.20575637,0.34718204
678265490,0.09954404,0.20575637,0.35031155
678288489,0.10252659,0.20575637,0.35031155
678310559,0.10252659,0.20575637,0.35031155
678333490,0.10252659,0.20575637,0.34718204
678354547,0.09954404,0.20575637,0.35031155
678375490,0.09954404,0.20575637,0.3440525
678397490,0.10252659,0.20575637,0.34718204
678419491,0.10252659,0.20575637,0.34718204
678441490,0.10252659,0.20575637,0.34718204
678464482,0.10252659,0.20868197,0.35031155
678486551,0.09954404,0.20868197,0.35031155
678509520,0.09954404,0.20868197,0.35031155
678530603,0.10550915,0.20575637,0.34718204
678552482,0.10252659,0.20868197,0.3440525
678574535,0.10252659,0.20868197,0.34718204
678597488,0.10252659,0.20868197,0.34718204
678619489,0.09954404,0.20868197,0.34718204
678641488,0.09954404,0.20868197,0.35031155
678664489,0.10252659,0.20868197,0.3440525
678685481,0.10252659,0.20868197,0.35031155
678709488,0.09954404,0.20868197,0.34718204
678731482,0.10252659,0.20575637,0.3440525
678752481,0.09954404,0.20868197,0.35031155
678774540,0.09954404,0.20868197,0.34718204
678797523,0.10252659,0.20575637,0.35031155
678818584,0.09954404,0.20575637,0.34718204
678840481,0.09954404,0.20575637,0.35031155
678862536,0.09954404,0.20575637,0.35031155
678885490,0.09954404,0.20575637,0.35344103
678906535,0.09954404,0.20575637,0.3440525
678929489,0.09954404,0.20575637,0.35031155
678951602,0.09954404,0.20283079,0.35031155
678973500,0.09954404,0.20283079,0.35657057
678994548,0.09954404,0.20283079,0.35344103
679017492,0.10252659,0.20283079,0.35031155
679039618,0.10252659,0.20283079,0.34718204
679063696,0.09954404,0.20283079,0.3440525
679085491,0.10252659,0.20283079,0.34718204
679108154,0.10252659,0.19990519,0.35031155
679130537,0.10252659,0.20283079,0.3440525
679153481,0.10550915,0.20283079,0.3440525
679175680,0.108491704,0.20283079,0.34718204
679199604,0.11147427,0.20283079,0.3440525
679221492,0.108491704,0.19990519,0.34092298
679244484,0.114456825,0.19990519,0.3440525
679266548,0.11147427,0.19990519,0.34718204
679289482,0.114456825,0.19990519,0.34092298
679311676,0.114456825,0.20283079,0.3440525
679335692,0.117439374,0.20283079,0.3440525
679358538,0.117439374,0.19990519,0.34718204
679381481,0.12042193,0.20283079,0.3440525
679404123,0.117439374,0.19990519,0.34092298
679425482,0.117439374,0.19990519,0.34092298
679447610,0.12042193,0.20283079,0.3377935
679471618,0.117439374,0.19990519,0.34092298
679493481,0.117439374,0.20283079,0.34092298
679516164,0.12042193,0.20283079,0.334664
679537521,0.117439374,0.20283079,0.34092298
679558585,0.117439374,0.20283079,0.3377935
679581482,0.117439374,0.20283079,0.34092298
679604142,0.12042193,0.20575637,0.34092298
679625481,0.117439374,0.20575637,0.34092298
679647610,0.117439374,0.20283079,0.34092298
679669483,0.11147427,0.20575637,0.34092298
679690545,0.114456825,0.20868197,0.3377935
679713481,0.11147427,0.20575637,0.34092298
679735482,0.117439374,0.20575637,0.34718204
679758550,0.11147427,0.20575637,0.3440525
679780996,0.11147427,0.20575637,0.3440525
679803481,0.11147427,0.20575637,0.34092298
679825523,0.11147427,0.20575637,0.34092298
679848490,0.11147427,0.20575637,0.34092298
679870540,0.11147427,0.20868197,0.3440525
679893080,0.108491704,0.20575637,0.3377935
679915481,0.11147427,0.20575637,0.3440525
679938550,0.108491704,0.20868197,0.3377935
679959481,0.11147427,0.20868197,0.3440525
679981039,0.11147427,0.20868197,0.35031155
680003488,0.108491704,0.20575637,0.3377935
680026548,0.11147427,0.20575637,0.3440525
680048528,0.108491704,0.20868197,0.34092298
680070617,0.114456825,0.20868197,0.34092298
680091520,0.117439374,0.21160758,0.34092298
680114537,0.117439374,0.21160758,0.334664
680136489,0.12340449,0.20868197,0.34092298
680158546,0.12340449,0.20868197,0.334664
680181044,0.13235216,0.20575637,0.3377935
680203482,0.13831727,0.20283079,0.334664
680226545,0.14129983,0.20283079,0.334664
680248492,0.14726494,0.1969796,0.3377935
680270551,0.1502475,0.194054,0.33153445
680291481,0.15323006,0.19112839,0.33153445
680314545,0.15919517,0.1882028,0.33153445
680336496,0.16516028,0.1823516,0.334664
680358538,0.16814284,0.179426,0.3440525
680380843,0.1711254,0.17357482,0.34092298
680403520,0.18007307,0.17064922,0.3440525
680426535,0.18007307,0.16479802,0.34092298
680448486,0.18902074,0.15894683,0.3440525
680470551,0.1920033,0.15017003,0.34092298
680493027,0.20095097,0.15017003,0.34092298
680514548,0.20691608,0.14139324,0.34718204
680536491,0.20989864,0.13554205,0.34718204
680558552,0.21586375,0.12969086,0.34718204
680579482,0.22481142,0.120914064,0.34718204
680600489,0.22779398,0.11506287,0.34092298
680621818,0.23375909,0.10921168,0.3377935
680645316,0.23674165,0.100434884,0.32527545
680667378,0.24568932,0.0945837,0.33153445
680690554,0.24867187,0.0858069,0.32527545
680712493,0.254637,0.07995571,0.34092298
680733845,0.25761953,0.07117891,0.334664
680756980,0.2606021,0.06825332,0.334664
680778592,0.26358467,0.06240212,0.33153445
680799522,0.26656723,0.053625334,0.33153445
680821009,0.26954976,0.04777414,0.32840493
680843429,0.26954976,0.044848546,0.34092298
680866550,0.2725323,0.038997352,0.3377935
680889491,0.2725323,0.033146154,0.3377935
680912488,0.2725323,0.03022056,0.334664
680934620,0.2755149,0.024369365,0.3377935
680955491,0.2755149,0.018518172,0.3377935
680977491,0.2755149,0.015592574,0.33153445
680997797,0.2755149,0.009741381,0.34092298
681020488,0.27849743,0.0068157837,0.334664
681042567,0.27849743,0.0038901868,0.3377935
681065492,0.28147998,-0.0019610072,0.334664
681087501,0.28446257,-0.0048866044,0.32840493
681109813,0.28446257,-0.010737799,0.34092298
681132527,0.28446257,-0.013663395,0.334664
681154576,0.2874451,-0.016588992,0.33153445
681176488,0.2934102,-0.019514589,0.32840493
681198541,0.2934102,-0.022440186,0.32527545
681219492,0.2963928,-0.025365783,0.32527545
681242436,0.29937533,-0.02829138,0.3221459
681265331,0.29937533,-0.034142572,0.3190164
681286699,0.30235788,-0.034142572,0.3190164
681309864,0.30534047,-0.034142572,0.31588688
681332330,0.31130555,-0.037068173,0.30962786
681355482,0.31130555,-0.039993767,0.31275737
681377481,0.31130555,-0.042919364,0.30962786
681399481,0.31428814,-0.048770558,0.30962786
681421883,0.31727067,-0.048770558,0.30962786
681444527,0.31727067,-0.054621752,0.31588688
681467524,0.32025322,-0.054621752,0.30649835
681489515,0.32323578,-0.05754735,0.31275737
681512483,0.32323578,-0.060472947,0.30649835
681534552,0.32621837,-0.06339855,0.30962786
681556482,0.32621837,-0.06339855,0.30962786
681579526,0.33218345,-0.06339855,0.30962786
681602412,0.33218345,-0.066324145,0.30336884
681625342,0.33218345,-0.06924974,0.30649835
681647370,0.33218345,-0.07217533,0.30336884
681669933,0.33516604,-0.07217533,0.30336884
681692480,0.33516604,-0.07217533,0.2939803
681715493,0.33516604,-0.07217533,0.30336884
681738436,0.33516604,-0.07510093,0.2939803
681762430,0.33814856,-0.07510093,0.2971098
681785333,0.33814856,-0.07510093,0.2939803
681807416,0.33814856,-0.07510093,0.2971098
681829772,0.34113112,-0.07510093,0.29085076
681852322,0.33814856,-0.078026526,0.2939803
681875480,0.34113112,-0.078026526,0.2939803
681897526,0.34113112,-0.078026526,0.2939803
681921509,0.34113112,-0.078026526,0.29085076
681944481,0.3441137,-0.08095213,0.29085076
681965768,0.34113112,-0.08095213,0.28459176
681988489,0.3441137,-0.08095213,0.28459176
682010553,0.3441137,-0.078026526,0.28459176
682032481,0.34709623,-0.078026526,0.28772128
682053481,0.34709623,-0.08095213,0.28146222
682075482,0.34709623,-0.08095213,0.28459176
682096488,0.34709623,-0.078026526,0.28146222
682118433,0.34709623,-0.078026526,0.28146222
682140329,0.3500788,-0.078026526,0.28146222
682162597,0.34709623,-0.08095213,0.28459176
682185322,0.3500788,-0.078026526,0.27833274
682208521,0.34709623,-0.078026526,0.27520323
682230436,0.34709623,-0.078026526,0.27833274
682251722,0.3500788,-0.078026526,0.27833274
682274595,0.35306135,-0.078026526,0.28146222
682297322,0.35306135,-0.07510093,0.27520323
682320487,0.3500788,-0.07510093,0.27207372
682342433,0.35306135,-0.07510093,0.27520323
682364323,0.35306135,-0.07510093,0.27833274
682386618,0.35306135,-0.07510093,0.27520323
682409330,0.35604393,-0.07510093,0.27207372
682432480,0.35604393,-0.07510093,0.27520323
682454432,0.35604393,-0.07217533,0.26894417
682476328,0.35604393,-0.07217533,0.27833274
682498673,0.35604393,-0.07217533,0.27520323
682521483,0.35902646,-0.07217533,0.27520323
682544487,0.35604393,-0.06924974,0.25955567
682566551,0.35604393,-0.06924974,0.28146222
682591456,0.35902646,-0.06924974,0.26268518
682614432,0.36200902,-0.066324145,0.26894417
682636329,0.35902646,-0.066324145,0.25955567
682658570,0.35902646,-0.06339855,0.26268518
682681339,0.35902646,-0.06339855,0.2658147
682704530,0.35902646,-0.060472947,0.25642613
682726569,0.35902646,-0.060472947,0.25955567
682751437,0.35902646,-0.05754735,0.25642613
682774432,0.35902646,-0.05754735,0.25642613
682795399,0.35902646,-0.054621752,0.25642613
682817322,0.36200902,-0.05169616,0.25955567
682840481,0.3649916,-0.05169616,0.25642613
682862414,0.36200902,-0.048770558,0.25642613
682884330,0.3649916,-0.05169616,0.2501671
682905332,0.3649916,-0.048770558,0.25329664
682928521,0.3649916,-0.048770558,0.25642613
682950423,0.3649916,-0.048770558,0.25642613
682973859,0.3649916,-0.04584496,0.2501671
682996490,0.36797413,-0.048770558,0.25329664
683018591,0.3649916,-0.04584496,0.25329664
683040480,0.3649916,-0.04584496,0.24703759
683062418,0.36797413,-0.04584496,0.25642613
683083485,0.3649916,-0.039993767,0.2501671
683106654,0.3649916,-0.039993767,0.25329664
683129365,0.36200902,-0.037068173,0.25642613
683151738,0.36200902,-0.037068173,0.25329664
683175691,0.35902646,-0.039993767,0.25955567
683198538,0.35902646,-0.037068173,0.25955567
683221535,0.35902646,-0.037068173,0.26268518
683242581,0.35604393,-0.039993767,0.2658147
683264482,0.35306135,-0.037068173,0.2658147
683287704,0.35306135,-0.037068173,0.26894417
683311619,0.35306135,-0.037068173,0.27207372
683333492,0.3500788,-0.034142572,0.26894417
683356252,0.34709623,-0.034142572,0.26894417
683378537,0.3441137,-0.037068173,0.27207372
683401488,0.3441137,-0.034142572,0.27520323
683423669,0.3441137,-0.034142572,0.27833274
683447696,0.34113112,-0.034142572,0.28146222
683471678,0.34113112,-0.034142572,0.28459176
683494579,0.34113112,-0.034142572,0.28146222
683517481,0.33814856,-0.034142572,0.28772128
683540138,0.33814856,-0.034142572,0.28772128
683561482,0.33516604,-0.034142572,0.29085076
683583671,0.33516604,-0.034142572,0.28772128
683607614,0.33814856,-0.034142572,0.29085076
683629481,0.33814856,-0.031216977,0.28459176
683650544,0.33516604,-0.034142572,0.29085076
683674591,0.33218345,-0.034142572,0.2939803
683697482,0.33218345,-0.031216977,0.2971098
683719680,0.3292009,-0.031216977,0.2971098
683742534,0.33218345,-0.031216977,0.2939803
683765488,0.3292009,-0.031216977,0.2971098
683788041,0.32621837,-0.031216977,0.30023932
683809488,0.32621837,-0.031216977,0.2939803
683831621,0.3292009,-0.02829138,0.2971098
683856482,0.32621837,-0.02829138,0.30023932
683880491,0.32621837,-0.031216977,0.30023932
683901522,0.32621837,-0.031216977,0.30336884
683922585,0.32621837,-0.031216977,0.2971098
683945481,0.32323578,-0.031216977,0.30336884
683967660,0.32025322,-0.031216977,0.30336884
683989489,0.32025322,-0.031216977,0.30649835
684011481,0.32323578,-0.02829138,0.30649835
684034534,0.32323578,-0.031216977,0.30023932
684055482,0.32323578,-0.031216977,0.30023932
684077482,0.32323578,-0.031216977,0.30023932
684099489,0.32025322,-0.031216977,0.30336884
684122554,0.32323578,-0.031216977,0.30023932
684144485,0.32025322,-0.031216977,0.30336884
684166549,0.32025322,-0.031216977,0.30336884
684188993,0.32025322,-0.031216977,0.30023932
684210556,0.31727067,-0.02829138,0.30336884
684232521,0.32025322,-0.031216977,0.30962786
684254553,0.31727067,-0.031216977,0.30649835
684277045,0.32323578,-0.031216977,0.30649835
684299481,0.31727067,-0.031216977,0.30336884
684322525,0.32025322,-0.031216977,0.30336884
684344519,0.31727067,-0.02829138,0.30649835
684366540,0.31727067,-0.031216977,0.30023932
684387489,0.32025322,-0.031216977,0.30649835
684409482,0.32025322,-0.031216977,0.30023932
684432481,0.31727067,-0.031216977,0.30336884
684453490,0.31727067,-0.02829138,0.30336884
684473488,0.32025322,-0.02829138,0.30649835
684494842,0.32025322,-0.02829138,0.30336884
684518010,0.31727067,-0.031216977,0.30336884
684541036,0.31727067,-0.031216977,0.30336884
684562430,0.31727067,-0.02829138,0.30649835
684584489,0.31727067,-0.02829138,0.30336884
684606562,0.31727067,-0.02829138,0.30649835
684629006,0.32025322,-0.02829138,0.30649835
684650534,0.31727067,-0.02829138,0.30336884
684672489,0.32025322,-0.02829138,0.30962786
684693856,0.31727067,-0.02829138,0.30336884
684717040,0.31727067,-0.02829138,0.30962786
684739431,0.31727067,-0.02829138,0.30649835
684762583,0.31428814,-0.02829138,0.30649835
684784494,0.31428814,-0.02829138,0.30336884
684806545,0.31727067,-0.031216977,0.30649835
684829023,0.31428814,-0.02829138,0.30962786
684851529,0.31428814,-0.02829138,0.31588688
684874546,0.31130555,-0.02829138,0.30962786
684896495,0.31130555,-0.02829138,0.30649835
684918533,0.31428814,-0.025365783,0.30962786
684941024,0.31428814,-0.02829138,0.30649835
684963483,0.31428814,-0.02829138,0.30649835
684986544,0.31130555,-0.025365783,0.30336884
685008520,0.31428814,-0.02829138,0.30962786
685030540,0.31428814,-0.025365783,0.30649835
685051489,0.31727067,-0.025365783,0.30962786
685073490,0.31428814,-0.025365783,0.30336884
685096486,0.31428814,-0.025365783,0.30962786
685117500,0.31727067,-0.02829138,0.30962786
685141532,0.31428814,-0.025365783,0.30962786
685165489,0.31428814,-0.025365783,0.30962786
685188489,0.31130555,-0.025365783,0.31275737
685209779,0.31428814,-0.025365783,0.30649835
685232481,0.31130555,-0.022440186,0.30962786
685255490,0.31130555,-0.025365783,0.31275737
685276481,0.31428814,-0.022440186,0.31588688
685300482,0.31130555,-0.022440186,0.30962786
685321867,0.31130555,-0.022440186,0.30962786
685344488,0.31130555,-0.025365783,0.30962786
685367562,0.31428814,-0.025365783,0.30962786
685388528,0.31130555,-0.022440186,0.30962786
685410547,0.308323,-0.022440186,0.30962786
685432481,0.31130555,-0.025365783,0.30962786
685455482,0.31130555,-0.025365783,0.31588688
685477484,0.31428814,-0.025365783,0.31275737
685501481,0.308323,-0.025365783,0.31275737
685525730,0.31428814,-0.025365783,0.30649835
685549521,0.31130555,-0.025365783,0.30649835
685570540,0.31130555,-0.025365783,0.30962786
685592480,0.31130555,-0.025365783,0.30962786
685615524,0.308323,-0.02829138,0.30649835
685636521,0.31428814,-0.025365783,0.31588688
685658539,0.31130555,-0.02829138,0.31275737
685680490,0.308323,-0.02829138,0.31588688
685703523,0.30534047,-0.031216977,0.3190164
685725481,0.30235788,-0.031216977,0.3190164
685748481,0.2963928,-0.034142572,0.32527545
685770540,0.2934102,-0.031216977,0.32527545
685792490,0.28446257,-0.037068173,0.32840493
685815530,0.28147998,-0.034142572,0.34092298
685837492,0.27849743,-0.037068173,0.34092298
685861527,0.26954976,-0.037068173,0.34092298
685885483,0.26954976,-0.039993767,0.35031155
685908482,0.2606021,-0.042919364,0.35970008
685930551,0.254637,-0.042919364,0.3628296
685952491,0.24867187,-0.042919364,0.36595908
685974551,0.24867187,-0.04584496,0.37221813
685996481,0.24568932,-0.048770558,0.3753476
686018552,0.23674165,-0.048770558,0.3753476
686040482,0.23674165,-0.048770558,0.37847716
686063525,0.23077653,-0.048770558,0.37847716
686085489,0.22779398,-0.05169616,0.38473618
686109490,0.22481142,-0.05169616,0.38160667
686133481,0.2188463,-0.05169616,0.39412472
686157488,0.21586375,-0.05169616,0.3878657
686180491,0.2128812,-0.054621752,0.39412472
686201642,0.20691608,-0.054621752,0.39412472
686224491,0.20989864,-0.054621752,0.39725423
686247482,0.20393352,-0.054621752,0.3909952
686269481,0.20095097,-0.05754735,0.40038374
686291482,0.20095097,-0.05754735,0.39725423
686313523,0.19796841,-0.05754735,0.40038374
686336489,0.19796841,-0.05754735,0.39412472
686358552,0.19498585,-0.05754735,0.39725423
686381522,0.1920033,-0.060472947,0.40664276
686403482,0.1920033,-0.060472947,0.40351325
686425499,0.18603818,-0.05754735,0.40351325
686448482,0.18902074,-0.060472947,0.40664276
686470539,0.18902074,-0.05754735,0.40351325
686491482,0.18603818,-0.05754735,0.40038374
686513481,0.18603818,-0.060472947,0.40351325
686536482,0.18305562,-0.060472947,0.4097723
686558552,0.18305562,-0.060472947,0.40351325
686582624,0.18305562,-0.06339855,0.40038374
686606582,0.18305562,-0.06339855,0.40351325
686630586,0.18305562,-0.06339855,0.4097723
686654591,0.18007307,-0.066324145,0.40038374
686677537,0.18007307,-0.06339855,0.40664276
686701526,0.17709051,-0.06339855,0.40351325
686723490,0.18305562,-0.06339855,0.40351325
686744492,0.18902074,-0.06339855,0.39725423
686766587,0.20393352,-0.06339855,0.39412472
686789840,0.2128812,-0.06339855,0.3878657
686813489,0.22481142,-0.066324145,0.3878657
686837482,0.23674165,-0.06339855,0.38160667
686861489,0.23674165,-0.06339855,0.37847716
686883489,0.24568932,-0.066324145,0.38160667
686904489,0.24568932,-0.06339855,0.37221813
686926544,0.24270676,-0.066324145,0.37221813
686949524,0.23674165,-0.06339855,0.37221813
686971482,0.23077653,-0.06339855,0.37847716
686992481,0.23375909,-0.06339855,0.38160667
687014484,0.22779398,-0.060472947,0.38473618
687037519,0.22779398,-0.06339855,0.3878657
687058916,0.22182886,-0.06339855,0.3878657
687081481,0.2188463,-0.060472947,0.3878657
687104481,0.21586375,-0.060472947,0.3878657
687126488,0.21586375,-0.05754735,0.3878657
687147481,0.20989864,-0.060472947,0.39412472
687169489,0.20989864,-0.060472947,0.3909952
687192481,0.20691608,-0.060472947,0.3909952
687214551,0.20691608,-0.05754735,0.40038374
687237482,0.20393352,-0.060472947,0.39725423
687259485,0.20393352,-0.05754735,0.40038374
687281481,0.20095097,-0.05754735,0.3878657
687303482,0.20095097,-0.05754735,0.39725423
687325528,0.19796841,-0.05754735,0.39725423
687349491,0.20095097,-0.05754735,0.39725423
687371487,0.19796841,-0.05754735,0.39412472
687393491,0.19498585,-0.05754735,0.40038374
687415693,0.19796841,-0.05754735,0.40038374
687439598,0.19796841,-0.05754735,0.40038374
687461489,0.19498585,-0.054621752,0.40038374
687482537,0.20095097,-0.05754735,0.40038374
687504488,0.19796841,-0.05754735,0.39725423
687527581,0.19796841,-0.054621752,0.39725423
687549482,0.19796841,-0.054621752,0.40038374
687572197,0.19796841,-0.05169616,0.40038374
687592482,0.19498585,-0.05169616,0.40038374
687614528,0.19796841,-0.054621752,0.40038374
687637485,0.19498585,-0.05169616,0.39725423
687660518,0.19498585,-0.05169616,0.40038374
687681481,0.19796841,-0.048770558,0.40351325
687703600,0.19796841,-0.05169616,0.40038374
687724481,0.19796841,-0.048770558,0.39725423
687745490,0.20095097,-0.048770558,0.39725423
687767597,0.20095097,-0.048770558,0.39412472
687788481,0.20393352,-0.048770558,0.39725423
687809484,0.20095097,-0.05169616,0.39725423
687831620,0.20691608,-0.05169616,0.40038374
687855694,0.20393352,-0.05169616,0.39725423
687879612,0.20691608,-0.054621752,0.39725423
687904482,0.20989864,-0.054621752,0.39725423
687927704,0.20691608,-0.054621752,0.39412472
687950586,0.20989864,-0.05754735,0.39725423
687973493,0.2128812,-0.05754735,0.39725423
687996837,0.20989864,-0.05754735,0.39725423
688018548,0.2128812,-0.05754735,0.3909952
688041489,0.21586375,-0.05754735,0.3878657
688063608,0.2128812,-0.060472947,0.3909952
688085481,0.21586375,-0.060472947,0.3909952
688108146,0.22182886,-0.05754735,0.3878657
688130544,0.2188463,-0.05754735,0.3878657
688153492,0.22182886,-0.060472947,0.3878657
688175709,0.22182886,-0.060472947,0.3878657
688199593,0.22182886,-0.060472947,0.38160667
688221481,0.22481142,-0.06339855,0.3909952
688243481,0.22481142,-0.06339855,0.3878657
688266545,0.22481142,-0.06339855,0.3878657
688288482,0.23077653,-0.06339855,0.3878657
688310547,0.23375909,-0.06339855,0.37847716
688331482,0.23077653,-0.06339855,0.38473618
688354544,0.23077653,-0.066324145,0.38160667
688376481,0.23375909,-0.066324145,0.38160667
688398548,0.23674165,-0.066324145,0.38160667
688419489,0.23674165,-0.066324145,0.37847716
688441492,0.2397242,-0.066324145,0.37847716
688463487,0.2397242,-0.066324145,0.3753476
688485527,0.2397242,-0.06924974,0.3753476
688509002,0.24270676,-0.066324145,0.3753476
688531481,0.2397242,-0.06924974,0.37221813
688552487,0.24568932,-0.06924974,0.37847716
688574541,0.24568932,-0.06924974,0.37221813
688595490,0.24568932,-0.06924974,0.37221813
688616489,0.24568932,-0.06924974,0.3753476
688637489,0.24568932,-0.06924974,0.37221813
688658544,0.24568932,-0.06924974,0.37221813
688680484,0.24568932,-0.06924974,0.37221813
688701852,0.24568932,-0.06924974,0.36908862
688722560,0.24568932,-0.06924974,0.36908862
688743495,0.24867187,-0.06924974,0.36595908
688765911,0.25165442,-0.07217533,0.37221813
688787536,0.24867187,-0.06924974,0.3753476
688808485,0.25165442,-0.06924974,0.36908862
688829736,0.254637,-0.06924974,0.37221813
688851525,0.254637,-0.06924974,0.37221813
688872488,0.254637,-0.06924974,0.36908862
688893952,0.254637,-0.07217533,0.36595908
688914539,0.254637,-0.07217533,0.37221813
688936511,0.25761953,-0.07217533,0.36595908
688957519,0.254637,-0.07510093,0.36595908
688978539,0.254637,-0.07510093,0.36595908
689000481,0.25761953,-0.07510093,0.36595908
689021752,0.25761953,-0.07510093,0.36908862
689042540,0.25761953,-0.078026526,0.3628296
689064492,0.2606021,-0.07510093,0.36595908
689086473,0.2606021,-0.07510093,0.35970008
689108958,0.2606021,-0.08095213,0.35970008
689131369,0.2606021,-0.078026526,0.36595908
689154528,0.2606021,-0.078026526,0.3628296
689176493,0.26358467,-0.078026526,0.35970008
689198485,0.26656723,-0.08095213,0.36595908
689221047,0.2606021,-0.08095213,0.3628296
689243489,0.26358467,-0.08095213,0.3628296
689265530,0.26358467,-0.08095213,0.35970008
689288490,0.26656723,-0.078026526,0.3628296
689310487,0.26656723,-0.078026526,0.35344103
689332844,0.26656723,-0.08095213,0.35657057
689355488,0.26656723,-0.08387772,0.3628296
689378547,0.26656723,-0.08095213,0.35970008
689401484,0.26358467,-0.08095213,0.35657057
689422484,0.26954976,-0.08095213,0.35657057
689443489,0.26656723,-0.08095213,0.35657057
689464481,0.26656723,-0.08095213,0.35031155
689486535,0.26656723,-0.08095213,0.35344103
689507482,0.2725323,-0.08095213,0.35344103
689529339,0.26954976,-0.08095213,0.35344103
689551404,0.26954976,-0.08095213,0.35657057
689573786,0.26954976,-0.08095213,0.35657057
689596327,0.26954976,-0.08387772,0.35344103
689619529,0.2725323,-0.08095213,0.35657057
689641623,0.2725323,-0.08387772,0.35344103
689665730,0.2725323,-0.08387772,0.35031155
689688488,0.26954976,-0.08387772,0.3440525
689710538,0.26954976,-0.08095213,0.35970008
689732481,0.2725323,-0.08387772,0.3440525
689755491,0.2725323,-0.08387772,0.35344103
689777331,0.2725323,-0.08387772,0.35657057
689799391,0.26954976,-0.08095213,0.35031155
689821750,0.2725323,-0.08095213,0.35031155
689844331,0.2725323,-0.08387772,0.35344103
689867490,0.2725323,-0.08095213,0.35344103
689889626,0.2725323,-0.08095213,0.34718204
689913522,0.2725323,-0.08095213,0.35657057
689936489,0.2755149,-0.08095213,0.35344103
689958540,0.2755149,-0.08095213,0.35657057
689980481,0.2755149,-0.078026526,0.35344103
690003488,0.2755149,-0.08095213,0.35344103
690025324,0.27849743,-0.078026526,0.35657057
690047385,0.2755149,-0.078026526,0.35657057
690069796,0.2725323,-0.07510093,0.3628296
690092335,0.2755149,-0.07510093,0.35344103
690115488,0.26954976,-0.078026526,0.35344103
690137527,0.2755149,-0.08387772,0.35657057
690161521,0.26954976,-0.08387772,0.35344103
690185525,0.26656723,-0.08680332,0.35657057
690208488,0.2606021,-0.089728914,0.35970008
690230551,0.25761953,-0.089728914,0.35970008
690252489,0.25761953,-0.09265451,0.35657057
690275489,0.25761953,-0.098505706,0.35970008
690297490,0.2606021,-0.1014313,0.3628296
690320489,0.25761953,-0.1072825,0.35657057
690341768,0.2606021,-0.11313369,0.35344103
690364523,0.2606021,-0.118984886,0.35344103
690387481,0.2606021,-0.13068728,0.35031155
690409483,0.2606021,-0.13653846,0.35344103
690433487,0.26358467,-0.14238966,0.35344103
690456491,0.26358467,-0.15116645,0.35031155
690478544,0.26358467,-0.15701765,0.34718204
690500489,0.26358467,-0.16579443,0.34092298
690522551,0.2606021,-0.16872004,0.34092298
690545482,0.2606021,-0.17749682,0.3440525
690567482,0.25761953,-0.18334803,0.34092298
690589483,0.254637,-0.18627362,0.3440525
690611521,0.25165442,-0.1921248,0.34092298
690634550,0.25165442,-0.2009016,0.3377935
690657491,0.24568932,-0.2038272,0.334664
690679481,0.24270676,-0.2096784,0.334664
690701489,0.23375909,-0.21552959,0.334664
690724489,0.22779398,-0.22138077,0.334664
690746550,0.22182886,-0.22723198,0.34092298
690770587,0.22182886,-0.23015757,0.34092298
690791489,0.2128812,-0.23600876,0.34092298
690813481,0.20989864,-0.24185996,0.3440525
690834590,0.20691608,-0.24478556,0.3440525
690857490,0.19796841,-0.25063676,0.34718204
690879482,0.19498585,-0.25356233,0.34718204
690901482,0.18902074,-0.25648797,0.3440525
690924482,0.18305562,-0.26233912,0.34092298
690946541,0.17709051,-0.26526475,0.34092298
690970571,0.1711254,-0.27111593,0.3440525
690993491,0.16814284,-0.27111593,0.3440525
691017524,0.16217773,-0.27404153,0.34718204
691039489,0.15621261,-0.27696714,0.34718204
691061490,0.1502475,-0.2798927,0.35344103
691084530,0.14726494,-0.2798927,0.35031155
691105520,0.14428239,-0.28281832,0.35657057
691129490,0.14129983,-0.28281832,0.34718204
691153492,0.13235216,-0.28281832,0.35657057
691174554,0.1293696,-0.28574392,0.35344103
691196491,0.12340449,-0.28574392,0.35970008
691218550,0.117439374,-0.28281832,0.35657057
691241522,0.114456825,-0.28574392,0.35657057
691265489,0.11147427,-0.28574392,0.35970008
691287482,0.10550915,-0.28574392,0.35657057
691308480,0.10252659,-0.2886695,0.3628296
691330537,0.10252659,-0.2886695,0.35970008
691353839,0.09357892,-0.28574392,0.36595908
691378551,0.09357892,-0.2886695,0.36908862
691401523,0.096561484,-0.28574392,0.3628296
691422571,0.09059636,-0.2886695,0.36595908
691444489,0.09059636,-0.28574392,0.3628296
691466613,0.09357892,-0.28574392,0.35970008
691489524,0.09059636,-0.28574392,0.35970008
691511482,0.09059636,-0.28574392,0.3628296
691533481,0.09357892,-0.28574392,0.3628296
691556531,0.09357892,-0.28574392,0.3628296
691578575,0.09357892,-0.28574392,0.35970008
691599481,0.096561484,-0.28574392,0.3628296
691621481,0.096561484,-0.28574392,0.3628296
691643528,0.096561484,-0.28574392,0.36595908
691664523,0.09954404,-0.28574392,0.36595908
691684532,0.09954404,-0.28574392,0.35970008
691706064,0.10252659,-0.28281832,0.36595908
691730016,0.10252659,-0.28281832,0.35657057
691753884,0.10550915,-0.2798927,0.35970008
691776351,0.10550915,-0.28281832,0.35970008
691798426,0.108491704,-0.28281832,0.35970008
691820500,0.108491704,-0.28281832,0.36595908
691844487,0.11147427,-0.28281832,0.35344103
691868482,0.108491704,-0.2798927,0.3628296
691891754,0.11147427,-0.2798927,0.36595908
691914458,0.11147427,-0.2798927,0.35970008
691937484,0.11147427,-0.2798927,0.35970008
691960249,0.11147427,-0.2798927,0.35970008
691982550,0.114456825,-0.2798927,0.35657057
692005528,0.114456825,-0.2798927,0.3628296
692027715,0.114456825,-0.27696714,0.35970008
692050544,0.117439374,-0.2798927,0.35970008
692073490,0.117439374,-0.2798927,0.35970008
692096212,0.117439374,-0.2798927,0.35657057
692118537,0.117439374,-0.2798927,0.35657057
692140488,0.114456825,-0.2798927,0.35970008
692163654,0.114456825,-0.2798927,0.35970008
692188484,0.117439374,-0.2798927,0.35970008
692210569,0.12042193,-0.2798927,0.3628296
692233481,0.12042193,-0.2798927,0.3628296
692256193,0.12042193,-0.2798927,0.35657057
692277482,0.12340449,-0.2798927,0.3628296
692299623,0.12042193,-0.2798927,0.35344103
692323619,0.12340449,-0.2798927,0.3628296
692347619,0.12340449,-0.2798927,0.3628296
692369489,0.12638704,-0.2798927,0.35657057
692392146,0.12638704,-0.28281832,0.35344103
692414558,0.1293696,-0.2798927,0.35970008
692437481,0.1293696,-0.28281832,0.35970008
692458537,0.1293696,-0.28281832,0.35657057
692481491,0.1293696,-0.28281832,0.35657057
692503490,0.13235216,-0.28281832,0.35657057
692525491,0.13235216,-0.28281832,0.35344103
692546547,0.1293696,-0.28574392,0.34718204
692568531,0.1293696,-0.28574392,0.35031155
692589489,0.13235216,-0.28281832,0.35657057
692611489,0.13533473,-0.28574392,0.35344103
692633483,0.13533473,-0.2886695,0.35344103
692656484,0.13533473,-0.2886695,0.35031155
692676992,0.13533473,-0.2886695,0.35031155
692699490,0.13831727,-0.2915951,0.3377935
692721481,0.14129983,-0.2915951,0.34092298
692744490,0.14129983,-0.2915951,0.34092298
692766548,0.14129983,-0.2915951,0.35031155
692787489,0.13831727,-0.2915951,0.3440525
692809488,0.14129983,-0.2945207,0.34718204
692831480,0.14428239,-0.2945207,0.3440525
692854304,0.14129983,-0.2945207,0.34092298
692877055,0.14129983,-0.2945207,0.3377935
692899489,0.14726494,-0.2974463,0.34092298
692922611,0.14428239,-0.2945207,0.33153445
692944516,0.14726494,-0.2974463,0.3377935
692966540,0.14726494,-0.2974463,0.3377935
692989021,0.14726494,-0.2974463,0.33153445
693009481,0.1502475,-0.2974463,0.3377935
693031489,0.14726494,-0.2974463,0.3377935
693053519,0.14726494,-0.2974463,0.33153445
693074573,0.14726494,-0.3003719,0.34092298
693095521,0.1502475,-0.2974463,0.334664
693117005,0.15323006,-0.3003719,0.334664
693139381,0.15323006,-0.3003719,0.33153445
693162544,0.1502475,-0.3003719,0.334664
693184488,0.15323006,-0.3003719,0.33153445
693205807,0.1502475,-0.3003719,0.32840493
693228977,0.14726494,-0.3003719,0.33153445
693251393,0.1502475,-0.3032975,0.3377935
693274547,0.15323006,-0.3032975,0.334664
693296482,0.15323006,-0.3032975,0.334664
693318538,0.1502475,-0.3003719,0.334664
693341077,0.1502475,-0.3032975,0.334664
693363484,0.14428239,-0.3032975,0.334664
693385533,0.14428239,-0.3062231,0.334664
693408481,0.14129983,-0.3062231,0.3377935
693430526,0.13831727,-0.3062231,0.33153445
693453312,0.13533473,-0.3062231,0.3377935
693475497,0.13235216,-0.3062231,0.3377935
693498583,0.1293696,-0.3062231,0.334664
693520503,0.1293696,-0.3062231,0.34092298
693542548,0.12638704,-0.3091487,0.34092298
693563482,0.12042193,-0.3091487,0.3377935
693585481,0.12042193,-0.3091487,0.3440525
693607491,0.117439374,-0.31207427,0.34718204
693630554,0.11147427,-0.3091487,0.34092298
693652491,0.11147427,-0.3091487,0.34092298
693674589,0.108491704,-0.31207427,0.3440525
693697490,0.108491704,-0.31207427,0.3440525
693721493,0.10252659,-0.31207427,0.34092298
693745491,0.10252659,-0.31207427,0.34092298
693768489,0.09954404,-0.31207427,0.34718204
693790484,0.09954404,-0.31207427,0.3440525
693812491,0.096561484,-0.31207427,0.3440525
693835481,0.09059636,-0.31207427,0.34718204
693857488,0.09059636,-0.3149999,0.35031155
693878556,0.09059636,-0.31207427,0.34718204
693900481,0.09059636,-0.3149999,0.34718204
693923534,0.087613806,-0.3149999,0.35031155
693944520,0.08463126,-0.3149999,0.34718204
693966545,0.08463126,-0.3149999,0.3440525
693988489,0.08463126,-0.31207427,0.35344103
694011537,0.08463126,-0.3149999,0.35031155
694033489,0.0816487,-0.3149999,0.35031155
694057481,0.078666136,-0.31207427,0.35344103
694080481,0.0816487,-0.3149999,0.34718204
694102539,0.078666136,-0.3149999,0.34718204
694124483,0.07568358,-0.3149999,0.34718204
694147483,0.07568358,-0.3149999,0.34718204
694169608,0.07568358,-0.31207427,0.34718204
694193528,0.07270102,-0.3149999,0.3440525
694216489,0.07568358,-0.3149999,0.35031155
694238490,0.07568358,-0.3149999,0.35344103
694260492,0.06971847,-0.3149999,0.3440525
694283481,0.06971847,-0.3149999,0.35031155
694305490,0.06971847,-0.3149999,0.35657057
694328489,0.07270102,-0.3149999,0.3440525
694350575,0.07270102,-0.31207427,0.35031155
694372482,0.07270102,-0.31207427,0.34718204
694395489,0.06971847,-0.31207427,0.35344103
694417489,0.06971847,-0.3149999,0.35344103
694441481,0.06971847,-0.3149999,0.35344103
694465489,0.06971847,-0.3149999,0.35344103
694487490,0.06971847,-0.31207427,0.35031155
694509822,0.06971847,-0.3149999,0.34718204
694532488,0.066735916,-0.3149999,0.35344103
694555481,0.066735916,-0.31207427,0.34718204
694577481,0.06375336,-0.31207427,0.34718204
694600491,0.06375336,-0.3149999,0.35031155
694621754,0.066735916,-0.3149999,0.35344103
694644526,0.06375336,-0.3149999,0.35031155
694667481,0.06375336,-0.31207427,0.35344103
694689481,0.06375336,-0.31207427,0.35344103
694713489,0.0607708,-0.3149999,0.35031155
694737521,0.06375336,-0.3149999,0.34718204
694760493,0.06375336,-0.3149999,0.3440525
694782563,0.06375336,-0.3149999,0.35031155
694805489,0.0607708,-0.31207427,0.35657057
694827490,0.066735916,-0.31207427,0.35344103
694848491,0.06375336,-0.3149999,0.3628296
694870548,0.06375336,-0.31207427,0.35344103
694893528,0.0607708,-0.3149999,0.34718204
694914589,0.0607708,-0.31207427,0.34718204
694936481,0.0607708,-0.3149999,0.35657057
694958544,0.06375336,-0.31207427,0.35031155
694982594,0.0607708,-0.31207427,0.35657057
695006588,0.0607708,-0.31207427,0.35344103
695029522,0.0607708,-0.31207427,0.35970008
695051482,0.0607708,-0.31207427,0.35970008
695073481,0.0607708,-0.31207427,0.35970008
695096495,0.06375336,-0.31207427,0.35970008
695118554,0.0607708,-0.3149999,0.35344103
695141520,0.0607708,-0.31207427,0.35344103
695162612,0.0607708,-0.31207427,0.35344103
695184499,0.0607708,-0.3149999,0.35344103
695206535,0.06375336,-0.31207427,0.35657057
695229481,0.0607708,-0.31207427,0.35031155
695253481,0.0607708,-0.31207427,0.35657057
695275605,0.06375336,-0.31207427,0.35344103
695296490,0.06375336,-0.31207427,0.35657057
695318551,0.0607708,-0.3149999,0.35344103
695341490,0.06375336,-0.31207427,0.34718204
695363482,0.06375336,-0.31207427,0.35344103
695385491,0.06375336,-0.31207427,0.35344103
695408492,0.0607708,-0.31207427,0.35657057
695430552,0.0607708,-0.31207427,0.35031155
695453529,0.0607708,-0.3091487,0.3628296
695474664,0.06375336,-0.31207427,0.35970008
695497490,0.05778824,-0.3091487,0.35657057
695520491,0.0607708,-0.3091487,0.35344103
695542549,0.06375336,-0.31207427,0.35657057
695565489,0.06375336,-0.31207427,0.35657057
695590584,0.06375336,-0.31207427,0.35031155
695613524,0.06375336,-0.31207427,0.35657057
695635481,0.0607708,-0.3091487,0.35657057
695657521,0.06375336,-0.31207427,0.35344103
695680489,0.06375336,-0.31207427,0.35344103
695702548,0.06375336,-0.3091487,0.35657057
695725523,0.0607708,-0.3091487,0.35031155
695749531,0.0607708,-0.3091487,0.35657057
695771486,0.06375336,-0.31207427,0.34718204
695793490,0.06375336,-0.31207427,0.35970008
695816489,0.06375336,-0.31207427,0.35657057
695838538,0.0607708,-0.31207427,0.35657057
695859482,0.0607708,-0.3091487,0.35344103
695879482,0.06375336,-0.31207427,0.35657057
695901522,0.0607708,-0.3091487,0.35657057
695921482,0.06375336,-0.3062231,0.35657057
695943615,0.066735916,-0.3091487,0.35970008
695964987,0.06375336,-0.3062231,0.35970008
695986549,0.0607708,-0.3062231,0.35657057
696010545,0.06375336,-0.3062231,0.35657057
696034537,0.06375336,-0.3062231,0.35344103
696055721,0.06375336,-0.3091487,0.35344103
696078558,0.06375336,-0.3062231,0.3628296
696101482,0.05778824,-0.3062231,0.3628296
