timestamp,baro_alt_meter,baro_temp_celcius,baro_pressure_pa,rho
665250873,44.805813,27.97,100788.0,1.1975281
665274119,44.805813,27.97,100788.0,1.1975281
665285380,44.72126,27.97,100788.99,1.1975399
665295903,45.05419,27.97,100785.0,1.1974925
665318839,44.636703,27.97,100790.0,1.197552
665330435,44.805813,27.97,100788.0,1.1975281
665340828,44.636703,27.97,100790.0,1.197552
665362851,44.72126,27.97,100788.99,1.1975399
665374574,44.636703,27.97,100790.0,1.197552
665386063,45.30521,27.97,100782.0,1.1974568
665407807,44.805813,27.97,100788.0,1.1975281
665419396,44.887726,27.97,100787.0,1.1975163
665430659,44.887726,27.97,100787.0,1.1975163
665454999,44.636703,27.97,100790.0,1.197552
665466560,45.05419,27.97,100785.0,1.1974925
665478658,44.97228,27.97,100786.0,1.1975044
665502608,44.97228,27.97,100786.0,1.1975044
665514548,45.138744,27.97,100784.0,1.1974807
665524834,44.97228,27.97,100786.0,1.1975044
665546094,44.805813,27.97,100788.0,1.1975281
665557327,44.805813,27.97,100788.0,1.1975281
665567775,44.72126,27.97,100788.99,1.1975399
665590775,44.805813,27.98,100788.0,1.1975281
665602686,44.97228,27.98,100786.0,1.1975044
665614652,44.636703,27.98,100790.0,1.197552
665638597,44.887726,27.97,100787.0,1.1975163
665649338,45.05419,27.97,100785.0,1.1974925
665659779,44.97228,27.97,100786.0,1.1975044
665682313,44.303772,27.98,100794.0,1.1975994
665693333,44.887726,27.98,100787.0,1.1975163
665703819,44.887726,27.98,100787.0,1.1975163
665726791,44.636703,27.98,100790.0,1.197552
665738553,45.223297,27.98,100782.99,1.1974686
665750737,45.223297,27.98,100782.99,1.1974686
665774644,44.887726,27.98,100787.0,1.1975163
665786554,44.805813,27.98,100788.0,1.1975281
665798633,44.887726,27.98,100787.0,1.1975163
665822545,45.05419,27.98,100785.0,1.1974925
665833326,45.30521,27.98,100782.0,1.1974568
665843782,45.30521,27.98,100782.0,1.1974568
665866892,45.223297,27.99,100782.99,1.1974686
665878619,44.805813,27.99,100788.0,1.1975281
665890010,45.223297,27.99,100782.99,1.1974686
665911795,45.640785,27.99,100778.0,1.1974094
665923410,45.223297,27.99,100782.99,1.1974686
665934613,45.05419,27.99,100785.0,1.1974925
665958624,45.30521,27.99,100782.0,1.1974568
665970537,45.05419,27.99,100785.0,1.1974925
665980827,45.640785,27.99,100778.0,1.1974094
666002098,45.138744,27.99,100784.0,1.1974807
666013337,45.223297,27.99,100782.99,1.1974686
666023788,45.389767,27.99,100781.0,1.197445
666046813,44.134663,27.99,100796.0,1.1976233
666058459,45.47432,27.99,100780.0,1.1974331
666068830,44.385685,27.99,100793.0,1.1975876
666090830,44.97228,27.99,100786.0,1.1975044
666101329,44.470238,27.99,100792.0,1.1975757
666111778,44.97228,27.99,100786.0,1.1975044
666133780,44.134663,28.0,100796.0,1.1976233
666144337,44.134663,28.0,100796.0,1.1976233
666154869,44.887726,28.0,100787.0,1.1975163
666176144,45.30521,28.0,100782.0,1.1974568
666188191,45.47432,28.0,100780.0,1.1974331
666198880,45.05419,28.0,100785.0,1.1974925
666221007,44.72126,28.0,100788.99,1.1975399
666233354,44.97228,28.0,100786.0,1.1975044
666244945,44.97228,28.0,100786.0,1.1975044
666267430,44.636703,28.0,100790.0,1.197552
666279686,45.223297,28.0,100782.99,1.1974686
666290841,45.389767,28.0,100781.0,1.197445
666312826,45.05419,28.0,100785.0,1.1974925
666324962,44.72126,28.0,100788.99,1.1975399
666336026,44.805813,28.0,100788.0,1.1975281
666358836,44.805813,28.01,100788.0,1.1975281
666370427,44.97228,28.01,100786.0,1.1975044
666380836,44.97228,28.01,100786.0,1.1975044
666402826,45.223297,28.01,100782.99,1.1974686
666414431,44.470238,28.01,100792.0,1.1975757
666424025,45.30521,28.01,100782.0,1.1974568
666446881,45.389767,28.01,100781.0,1.197445
666458425,45.05419,28.01,100785.0,1.1974925
666468642,44.97228,28.01,100786.0,1.1975044
666490779,44.636703,28.01,100790.0,1.197552
666501341,45.138744,28.01,100784.0,1.1974807
666511922,45.389767,28.01,100781.0,1.197445
666534838,45.389767,28.01,100781.0,1.197445
666545327,45.30521,28.01,100782.0,1.1974568
666556688,45.809895,28.01,100775.99,1.1973855
666578830,45.389767,28.019999,100781.0,1.197445
666590430,46.142826,28.019999,100772.0,1.1973381
666600810,45.389767,28.019999,100781.0,1.197445
666623892,45.725338,28.019999,100776.99,1.1973974
666636238,45.809895,28.019999,100775.99,1.1973855
666646839,45.47432,28.019999,100780.0,1.1974331
666668601,45.809895,28.01,100775.99,1.1973855
666679637,45.809895,28.01,100775.99,1.1973855
666690824,45.556232,28.01,100779.0,1.1974212
666712823,45.640785,28.019999,100778.0,1.1974094
666724982,46.058273,28.019999,100773.0,1.1973499
666734868,46.058273,28.019999,100773.0,1.1973499
666756732,46.30929,28.019999,100769.99,1.1973143
666768454,45.389767,28.019999,100781.0,1.197445
666778831,45.97636,28.019999,100774.0,1.1973618
666800936,46.058273,28.029999,100773.0,1.1973499
666812978,45.97636,28.029999,100774.0,1.1973618
666824040,46.30929,28.029999,100769.99,1.1973143
666846842,46.142826,28.029999,100772.0,1.1973381
666858429,45.891808,28.029999,100775.0,1.1973737
666868828,46.644867,28.029999,100766.0,1.1972668
666892609,46.560314,28.029999,100767.0,1.1972786
666904521,46.72678,28.029999,100765.0,1.1972549
666916656,46.30929,28.029999,100769.99,1.1973143
666940476,46.895885,28.029999,100763.0,1.1972312
666951670,46.895885,28.029999,100763.0,1.1972312
666962869,46.72678,28.029999,100765.0,1.1972549
666984133,47.146908,28.029999,100760.0,1.1971955
666995403,47.062355,28.029999,100761.0,1.1972073
667006408,47.22882,28.029999,100759.0,1.1971836
667026866,46.811333,28.029999,100763.99,1.1972429
667038429,46.72678,28.029999,100765.0,1.1972549
667048946,46.644867,28.029999,100766.0,1.1972668
667071796,46.811333,28.029999,100763.99,1.1972429
667083404,47.062355,28.029999,100761.0,1.1972073
667094161,46.644867,28.029999,100766.0,1.1972668
667115821,46.895885,28.039999,100763.0,1.1972312
667127392,47.22882,28.039999,100759.0,1.1971836
667137808,47.313374,28.039999,100757.99,1.1971716
667159796,46.9778,28.039999,100762.0,1.1972193
667170431,46.895885,28.039999,100763.0,1.1972312
667181934,47.64895,28.039999,100754.0,1.1971242
667203798,47.564396,28.039999,100755.0,1.197136
667215394,46.9778,28.039999,100762.0,1.1972193
667225846,46.895885,28.039999,100763.0,1.1972312
667247795,47.22882,28.039999,100759.0,1.1971836
667258430,47.564396,28.039999,100755.0,1.197136
667270096,47.062355,28.039999,100761.0,1.1972073
667290816,47.313374,28.039999,100757.99,1.1971716
667301871,47.564396,28.039999,100755.0,1.197136
667312482,47.98188,28.039999,100750.0,1.1970767
667333423,47.73086,28.039999,100753.0,1.1971123
667344432,47.47984,28.039999,100756.0,1.197148
667355490,48.15099,28.039999,100748.0,1.197053
667376423,47.64895,28.05,100754.0,1.1971242
667389016,47.815414,28.05,100751.99,1.1971003
667399859,47.64895,28.05,100754.0,1.1971242
667421805,47.899967,28.05,100750.99,1.1970885
667433336,47.564396,28.05,100755.0,1.197136
667443791,47.564396,28.05,100755.0,1.197136
667465846,47.564396,28.05,100755.0,1.197136
667477842,47.564396,28.05,100755.0,1.197136
667488826,48.15099,28.05,100748.0,1.197053
667511796,48.066433,28.05,100749.0,1.1970648
667522415,48.066433,28.05,100749.0,1.1970648
667533948,47.815414,28.05,100751.99,1.1971003
667555788,48.066433,28.05,100749.0,1.1970648
667567385,48.402008,28.05,100744.99,1.1970172
667577801,48.402008,28.05,100744.99,1.1970172
667600830,48.232903,28.05,100747.0,1.197041
667613043,48.402008,28.05,100744.99,1.1970172
667623816,48.317455,28.05,100746.0,1.1970291
667646081,48.402008,28.06,100744.99,1.1970172
667657329,48.568474,28.06,100743.0,1.1969935
667667787,48.317455,28.06,100746.0,1.1970291
667689778,48.317455,28.06,100746.0,1.1970291
667701048,48.819496,28.06,100740.0,1.1969578
667711816,48.985962,28.06,100738.0,1.1969341
667733934,48.48392,28.06,100744.0,1.1970054
667744533,48.48392,28.06,100744.0,1.1970054
667755827,48.734943,28.06,100741.0,1.1969697
667777797,48.819496,28.06,100740.0,1.1969578
667789048,48.819496,28.06,100740.0,1.1969578
667799818,48.985962,28.06,100738.0,1.1969341
667821928,48.90405,28.07,100738.99,1.1969459
667833368,49.488003,28.07,100732.0,1.1968628
667843775,49.321537,28.07,100734.0,1.1968865
667865852,48.48392,28.06,100744.0,1.1970054
667877049,48.734943,28.06,100741.0,1.1969697
667887822,48.650387,28.06,100742.0,1.1969817
667910043,48.985962,28.06,100738.0,1.1969341
667920539,49.23698,28.06,100735.0,1.1968985
667931774,49.23698,28.06,100735.0,1.1968985
667953802,48.48392,28.07,100744.0,1.1970054
667965830,48.985962,28.07,100738.0,1.1969341
667976815,49.070515,28.07,100737.0,1.1969222
667999826,48.734943,28.07,100741.0,1.1969697
668011397,48.568474,28.07,100743.0,1.1969935
668022096,49.321537,28.07,100734.0,1.1968865
668042874,49.572556,28.07,100731.0,1.1968509
668054428,49.23698,28.07,100735.0,1.1968985
668063812,49.65447,28.07,100730.0,1.196839
668086026,49.152428,28.07,100736.0,1.1969104
668097328,49.572556,28.07,100731.0,1.1968509
668107793,49.488003,28.07,100732.0,1.1968628
668131414,48.819496,28.07,100740.0,1.1969578
668143390,50.074596,28.07,100725.0,1.1967796
668155374,49.90813,28.07,100726.99,1.1968033
668175784,49.152428,28.08,100736.0,1.1969104
668187462,49.572556,28.08,100731.0,1.1968509
668198012,49.40609,28.08,100732.99,1.1968746
668219554,49.572556,28.08,100731.0,1.1968509
668231400,49.488003,28.08,100732.0,1.1968628
668243528,49.65447,28.08,100730.0,1.196839
668266869,49.23698,28.08,100735.0,1.1968985
668279404,49.65447,28.08,100730.0,1.196839
668290844,50.15651,28.08,100724.0,1.1967677
668314882,49.990044,28.08,100725.99,1.1967914
668327412,50.322975,28.08,100722.0,1.196744
668337127,50.492085,28.08,100719.99,1.1967201
668359130,49.23698,28.08,100735.0,1.1968985
668371483,49.488003,28.08,100732.0,1.1968628
668382424,50.241062,28.08,100723.0,1.1967559
668404005,50.322975,28.08,100722.0,1.196744
668416245,50.15651,28.08,100724.0,1.1967677
668427697,50.743103,28.08,100717.0,1.1966846
668449128,50.074596,28.08,100725.0,1.1967796
668461167,50.492085,28.08,100719.99,1.1967201
668471136,50.65855,28.08,100718.0,1.1966964
668494295,49.990044,28.09,100725.99,1.1967914
668506611,50.407528,28.09,100721.0,1.196732
668518018,50.407528,28.09,100721.0,1.196732
668539624,50.743103,28.08,100717.0,1.1966846
668551357,50.322975,28.08,100722.0,1.196744
668561124,50.322975,28.08,100722.0,1.196744
668583126,50.82766,28.09,100716.0,1.1966727
668595450,50.994125,28.09,100713.99,1.1966488
668606339,50.82766,28.09,100716.0,1.1966727
668630023,51.327057,28.09,100710.0,1.1966014
668641326,50.492085,28.09,100719.99,1.1967201
668651911,50.65855,28.09,100718.0,1.1966964
668675628,50.82766,28.09,100716.0,1.1966727
668687426,51.327057,28.09,100710.0,1.1966014
668699552,50.90957,28.09,100715.0,1.1966608
668720827,51.327057,28.09,100710.0,1.1966014
668731359,51.747185,28.09,100705.0,1.196542
668742093,51.58072,28.09,100707.0,1.1965657
668763536,51.496166,28.09,100707.99,1.1965775
668775393,51.662632,28.09,100706.0,1.1965538
668787369,51.41161,28.09,100709.0,1.1965895
668808828,51.662632,28.099998,100706.0,1.1965538
668820330,51.91365,28.099998,100703.0,1.1965182
668830837,51.16059,28.099998,100712.0,1.1966251
668851784,51.58072,28.099998,100707.0,1.1965657
668862415,51.747185,28.099998,100705.0,1.196542
668872825,51.662632,28.099998,100706.0,1.1965538
668894850,51.16059,28.099998,100712.0,1.1966251
668906653,51.327057,28.099998,100710.0,1.1966014
668918030,51.83174,28.099998,100704.0,1.1965301
668939779,51.747185,28.099998,100705.0,1.196542
668950579,52.164673,28.099998,100700.0,1.1964825
668960835,51.998207,28.099998,100701.99,1.1965063
668983232,51.83174,28.099998,100704.0,1.1965301
668994433,51.83174,28.099998,100704.0,1.1965301
669004830,51.83174,28.099998,100704.0,1.1965301
669029149,52.33114,28.099998,100698.0,1.1964588
669039618,52.08276,28.099998,100700.99,1.1964943
669050833,52.41569,28.099998,100697.0,1.1964469
669072823,52.41569,28.099998,100697.0,1.1964469
669085029,52.5848,28.099998,100694.99,1.196423
669096024,52.500248,28.099998,100696.0,1.1964351
669118917,52.666714,28.109999,100694.0,1.1964113
669129359,53.08684,28.109999,100688.99,1.1963518
669141591,52.751266,28.109999,100693.0,1.1963995
669165521,52.249226,28.109999,100699.0,1.1964707
669177611,53.168755,28.109999,100688.0,1.19634
669188833,52.917732,28.109999,100691.0,1.1963756
669212151,52.5848,28.109999,100694.99,1.196423
669223685,52.500248,28.109999,100696.0,1.1964351
669234870,52.917732,28.109999,100691.0,1.1963756
669256812,52.917732,28.109999,100691.0,1.1963756
669268966,52.500248,28.109999,100696.0,1.1964351
669279926,53.50433,28.109999,100684.0,1.1962925
669302821,52.5848,28.109999,100694.99,1.196423
669314426,52.917732,28.109999,100691.0,1.1963756
669325447,53.08684,28.109999,100688.99,1.1963518
669346898,52.917732,28.109999,100691.0,1.1963756
669358431,53.253307,28.109999,100687.0,1.1963282
669368825,53.08684,28.109999,100688.99,1.1963518
669389813,53.50433,28.109999,100684.0,1.1962925
669401335,53.50433,28.109999,100684.0,1.1962925
669410877,54.00637,28.109999,100678.0,1.1962212
669432328,53.670795,28.119999,100682.0,1.1962687
669445078,53.588882,28.119999,100682.99,1.1962805
669455696,53.253307,28.119999,100687.0,1.1963282
669478849,53.75535,28.109999,100681.0,1.1962569
669489339,54.00637,28.109999,100678.0,1.1962212
669501426,53.670795,28.109999,100682.0,1.1962687
669525426,54.423855,28.119999,100673.0,1.1961617
669537446,53.83726,28.119999,100680.0,1.196245
669549302,54.592964,28.119999,100671.0,1.196138
669573295,53.670795,28.119999,100682.0,1.1962687
669585345,54.00637,28.119999,100678.0,1.1962212
669596825,54.677517,28.119999,100669.99,1.196126
669619419,54.423855,28.119999,100673.0,1.1961617
669631693,54.592964,28.119999,100671.0,1.196138
669642828,54.25739,28.119999,100675.0,1.1961856
669664178,54.592964,28.119999,100671.0,1.196138
669677139,54.843983,28.119999,100668.0,1.1961024
669687610,54.677517,28.119999,100669.99,1.196126
669710904,54.25739,28.119999,100675.0,1.1961856
669722440,54.592964,28.119999,100671.0,1.196138
669733229,54.843983,28.119999,100668.0,1.1961024
669757277,55.095005,28.119999,100665.0,1.1960667
669768560,54.75943,28.119999,100669.0,1.1961143
669780354,54.843983,28.119999,100668.0,1.1961024
669802877,54.75943,28.119999,100669.0,1.1961143
669814429,54.50841,28.119999,100672.0,1.19615
669824830,54.423855,28.119999,100673.0,1.1961617
669847854,55.597046,28.119999,100659.0,1.1959955
669859420,54.843983,28.119999,100668.0,1.1961024
669870048,54.843983,28.119999,100668.0,1.1961024
669890895,55.095005,28.13,100665.0,1.1960667
669902434,54.843983,28.13,100668.0,1.1961024
669912826,55.26147,28.13,100663.0,1.196043
669935788,54.843983,28.13,100668.0,1.1961024
669947400,55.179558,28.13,100663.99,1.1960547
669958021,55.095005,28.13,100665.0,1.1960667
669979775,55.848064,28.13,100656.0,1.1959598
669991362,55.76351,28.13,100657.0,1.1959717
670001803,55.848064,28.13,100656.0,1.1959598
670023774,55.597046,28.13,100659.0,1.1959955
670034430,55.51249,28.13,100660.0,1.1960074
670046074,55.427937,28.13,100661.0,1.1960192
670067792,55.427937,28.14,100661.0,1.1960192
670079383,55.427937,28.14,100661.0,1.1960192
670089798,55.427937,28.14,100661.0,1.1960192
670111775,55.929977,28.14,100655.0,1.1959479
670122412,56.268196,28.14,100650.99,1.1959003
670134036,55.929977,28.14,100655.0,1.1959479
670154816,56.51657,28.14,100648.0,1.1958647
670165859,56.770237,28.14,100644.99,1.195829
670176430,57.18772,28.14,100640.0,1.1957697
670197612,56.18364,28.14,100651.99,1.1959121
670209344,56.350105,28.14,100650.0,1.1958885
670219139,56.099087,28.14,100653.0,1.1959242
670241130,56.51657,28.15,100648.0,1.1958647
670253905,56.18364,28.15,100651.99,1.1959121
670264424,56.01453,28.15,100654.0,1.1959361
670287787,56.51657,28.14,100648.0,1.1958647
670299407,56.770237,28.14,100644.99,1.195829
670309946,56.68568,28.14,100646.0,1.195841
670330834,57.269634,28.14,100638.99,1.1957577
670341819,56.936703,28.14,100643.0,1.1958053
670352474,57.18772,28.14,100640.0,1.1957697
670375790,56.51657,28.15,100648.0,1.1958647
670387420,56.770237,28.15,100644.99,1.195829
670398045,57.269634,28.15,100638.99,1.1957577
670419801,56.936703,28.15,100643.0,1.1958053
670431397,57.018612,28.15,100642.0,1.1957934
670441778,56.770237,28.15,100644.99,1.195829
670464829,57.354187,28.15,100638.0,1.195746
670477047,57.60521,28.15,100635.0,1.1957103
670487776,57.856228,28.15,100632.0,1.1956747
670509923,57.523296,28.15,100636.0,1.1957221
670520500,57.60521,28.15,100635.0,1.1957103
670531816,57.354187,28.15,100638.0,1.195746
670552837,57.523296,28.15,100636.0,1.1957221
670565038,57.689762,28.15,100634.0,1.1956984
670575792,57.354187,28.15,100638.0,1.195746
670597929,57.60521,28.15,100635.0,1.1957103
670609327,58.442825,28.15,100625.0,1.1955914
670619798,58.025337,28.15,100630.0,1.1956508
670641790,58.025337,28.15,100630.0,1.1956508
670654076,57.940784,28.15,100631.0,1.1956627
670663777,58.10725,28.15,100629.0,1.195639
670686160,58.191803,28.16,100628.0,1.1956271
670696421,58.10725,28.16,100629.0,1.195639
670706833,58.276356,28.16,100626.99,1.1956152
670728810,57.60521,28.16,100635.0,1.1957103
670739463,58.10725,28.16,100629.0,1.195639
670749821,58.276356,28.16,100626.99,1.1956152
670771774,58.191803,28.16,100628.0,1.1956271
670783374,58.276356,28.16,100626.99,1.1956152
670793799,59.111332,28.16,100617.0,1.1954964
670816848,58.693844,28.16,100622.0,1.1955558
670828982,59.02942,28.16,100618.0,1.1955082
670839790,58.862953,28.16,100619.99,1.195532
670861800,59.02942,28.16,100618.0,1.1955082
670872428,58.862953,28.16,100619.99,1.195532
670882834,58.862953,28.16,100619.99,1.195532
670904824,58.693844,28.16,100622.0,1.1955558
670917009,58.778397,28.16,100621.0,1.1955439
670927858,58.944862,28.16,100619.0,1.1955202
670950049,59.195885,28.16,100616.0,1.1954845
670961342,58.944862,28.16,100619.0,1.1955202
670970904,59.613373,28.16,100611.0,1.1954252
670991831,59.53146,28.17,100612.0,1.195437
671002711,59.697926,28.17,100610.0,1.1954132
671012828,59.867035,28.17,100607.99,1.1953894
671035645,59.280437,28.17,100615.0,1.1954726
671047403,59.53146,28.17,100612.0,1.195437
671059537,59.867035,28.17,100607.99,1.1953894
671081131,59.613373,28.17,100611.0,1.1954252
671093166,60.0335,28.17,100606.0,1.1953657
671103129,59.78248,28.17,100609.0,1.1954013
671126330,59.951588,28.17,100607.0,1.1953776
671137212,59.867035,28.17,100607.99,1.1953894
671147996,59.53146,28.17,100612.0,1.195437
671170873,59.53146,28.17,100612.0,1.195437
671183356,59.951588,28.17,100607.0,1.1953776
671193136,60.620094,28.17,100599.0,1.1952826
671215130,60.53554,28.17,100600.0,1.1952944
671227544,60.369076,28.17,100601.99,1.1953181
671238304,60.53554,28.17,100600.0,1.1952944
671262138,59.867035,28.17,100607.99,1.1953894
671273372,60.369076,28.17,100601.99,1.1953181
671283527,60.53554,28.17,100600.0,1.1952944
671305128,60.28452,28.17,100603.0,1.19533
671317184,60.70465,28.17,100598.0,1.1952707
671327123,60.45363,28.17,100600.99,1.1953062
671350424,60.369076,28.18,100601.99,1.1953181
671362667,60.53554,28.18,100600.0,1.1952944
671374028,60.78656,28.18,100597.0,1.1952587
671395780,61.122135,28.18,100593.0,1.1952113
671407423,61.624176,28.18,100587.0,1.19514
671419235,60.620094,28.18,100599.0,1.1952826
671439777,60.45363,28.18,100600.99,1.1953062
671451416,60.70465,28.18,100598.0,1.1952707
671462025,61.122135,28.18,100593.0,1.1952113
671483655,61.037582,28.18,100594.0,1.1952231
671495414,61.037582,28.18,100594.0,1.1952231
671507693,61.45771,28.18,100588.99,1.1951636
671531670,61.624176,28.18,100587.0,1.19514
671543383,61.539623,28.18,100588.0,1.1951518
671553140,61.624176,28.18,100587.0,1.19514
671575223,61.793285,28.18,100585.0,1.1951162
671587501,61.95975,28.18,100582.99,1.1950923
671598406,61.624176,28.18,100587.0,1.19514
671622023,61.624176,28.18,100587.0,1.19514
671633332,61.793285,28.18,100585.0,1.1951162
671643786,62.044304,28.18,100582.0,1.1950805
671667379,61.95975,28.18,100582.99,1.1950923
671677348,62.546345,28.18,100575.99,1.1950091
671687795,62.21077,28.18,100580.0,1.1950568
671710070,61.95975,28.18,100582.99,1.1950923
671721335,61.8752,28.18,100584.0,1.1951044
671731791,62.461792,28.18,100576.99,1.195021
671755362,62.21077,28.18,100580.0,1.1950568
671765326,62.21077,28.18,100580.0,1.1950568
671775789,62.797367,28.18,100573.0,1.1949736
671798882,62.37988,28.189999,100578.0,1.1950331
671810660,61.8752,28.189999,100584.0,1.1951044
671821817,62.461792,28.189999,100576.99,1.195021
671845136,62.37988,28.18,100578.0,1.1950331
671856556,62.546345,28.18,100575.99,1.1950091
671866866,62.546345,28.18,100575.99,1.1950091
671888825,62.546345,28.18,100575.99,1.1950091
671900148,62.295326,28.18,100579.0,1.1950449
671910828,62.797367,28.18,100573.0,1.1949736
671933148,62.6309,28.189999,100575.0,1.1949974
671943634,63.21485,28.189999,100568.0,1.1949142
671954841,63.299408,28.189999,100567.0,1.1949023
671976830,63.38396,28.189999,100566.0,1.1948905
671989013,63.468513,28.189999,100565.0,1.1948786
672000144,62.88192,28.189999,100572.0,1.1949618
672022841,63.468513,28.189999,100565.0,1.1948786
672033326,63.38396,28.189999,100566.0,1.1948905
672044598,63.299408,28.189999,100567.0,1.1949023
672068641,63.468513,28.189999,100565.0,1.1948786
672080445,63.80145,28.189999,100561.0,1.194831
672090873,63.468513,28.189999,100565.0,1.1948786
672112811,63.634983,28.199999,100563.0,1.1948547
672124997,63.468513,28.199999,100565.0,1.1948786
672136147,63.55307,28.199999,100563.99,1.1948665
672158818,63.299408,28.189999,100567.0,1.1949023
672170431,63.55307,28.189999,100563.99,1.1948665
672180817,64.38805,28.189999,100554.0,1.1947478
672204695,64.38805,28.189999,100554.0,1.1947478
672216563,64.55715,28.189999,100551.99,1.194724
672228601,63.886,28.189999,100560.0,1.1948191
672250847,64.55715,28.199999,100551.99,1.194724
672262432,63.970554,28.199999,100559.0,1.1948073
672272820,64.472595,28.199999,100553.0,1.194736
672296039,64.64171,28.199999,100550.99,1.1947122
672308140,64.30613,28.199999,100555.0,1.1947597
672318845,64.72362,28.199999,100550.0,1.1947004
672340706,64.22157,28.199999,100556.0,1.1947716
672352456,64.38805,28.199999,100554.0,1.1947478
672364260,64.38805,28.199999,100554.0,1.1947478
672385524,64.72362,28.199999,100550.0,1.1947004
672396520,65.05919,28.199999,100546.0,1.1946528
672407609,65.47668,28.199999,100541.0,1.1945934
672428568,64.89008,28.199999,100548.0,1.1946765
672440452,65.56123,28.199999,100540.0,1.1945815
672450828,64.89008,28.199999,100548.0,1.1946765
672472826,64.72362,28.199999,100550.0,1.1947004
672484986,65.143745,28.199999,100544.99,1.1946409
672496010,65.64579,28.199999,100538.99,1.1945696
672518884,65.31021,28.199999,100543.0,1.1946172
672530425,65.56123,28.199999,100540.0,1.1945815
672540631,65.56123,28.199999,100540.0,1.1945815
672564660,66.06327,28.199999,100534.0,1.1945102
672576566,65.31021,28.199999,100543.0,1.1946172
672586849,65.31021,28.199999,100543.0,1.1946172
672608828,65.31021,28.199999,100543.0,1.1946172
672620982,65.225655,28.199999,100544.0,1.1946291
672630863,66.06327,28.199999,100534.0,1.1945102
672652964,65.812256,28.21,100537.0,1.1945459
672663425,65.56123,28.21,100540.0,1.1945815
672673802,65.56123,28.21,100540.0,1.1945815
672695787,65.64579,28.21,100538.99,1.1945696
672707344,66.06327,28.21,100534.0,1.1945102
672717804,65.896805,28.21,100536.0,1.194534
672739774,66.31693,28.21,100531.0,1.1944746
672751380,66.4834,28.21,100529.0,1.1944509
672761813,65.812256,28.21,100537.0,1.1945459
672784950,66.23238,28.21,100532.0,1.1944865
672796967,66.65251,28.21,100526.99,1.194427
672807778,65.896805,28.21,100536.0,1.194534
672829803,66.23238,28.21,100532.0,1.1944865
672841334,66.06327,28.21,100534.0,1.1945102
672851789,66.903534,28.21,100524.0,1.1943914
672873806,66.903534,28.21,100524.0,1.1943914
672885695,66.903534,28.21,100524.0,1.1943914
672896827,66.567955,28.21,100528.0,1.1944389
672919790,67.07,28.22,100522.0,1.1943676
672931420,67.07,28.22,100522.0,1.1943676
672941804,66.65251,28.22,100526.99,1.194427
672963795,66.81898,28.21,100525.0,1.1944033
672975396,67.239105,28.21,100519.99,1.1943438
672985853,66.98544,28.21,100523.0,1.1943796
673007819,66.81898,28.21,100525.0,1.1944033
673019423,67.48748,28.21,100517.0,1.1943083
673029803,67.48748,28.21,100517.0,1.1943083
673051826,68.07672,28.22,100510.0,1.1942251
673063394,67.74114,28.22,100513.99,1.1942725
673072826,67.74114,28.22,100513.99,1.1942725
673095825,67.48748,28.22,100517.0,1.1943083
673107428,67.74114,28.22,100513.99,1.1942725
673117804,68.07672,28.22,100510.0,1.1942251
673139790,67.82306,28.22,100513.0,1.1942607
673151393,67.321014,28.22,100519.0,1.194332
673160831,68.32774,28.22,100507.0,1.1941894
673183793,67.48748,28.22,100517.0,1.1943083
673195437,67.74114,28.22,100513.99,1.1942725
673205923,68.24319,28.22,100507.99,1.1942012
673227790,67.992165,28.22,100511.0,1.194237
673239419,68.07672,28.22,100510.0,1.1942251
673249791,68.49421,28.22,100505.0,1.1941657
673272827,68.15863,28.22,100509.0,1.1942132
673285134,68.40965,28.22,100506.0,1.1941775
673295815,68.745224,28.22,100501.99,1.19413
673317385,68.57876,28.22,100504.0,1.1941538
673328427,68.99625,28.22,100499.0,1.1940944
673338829,68.40965,28.22,100506.0,1.1941775
673360832,68.32774,28.22,100507.0,1.1941894
673373021,68.745224,28.22,100501.99,1.19413
673383775,68.745224,28.22,100501.99,1.19413
673405832,69.24991,28.23,100496.0,1.1940588
673417327,68.91434,28.23,100500.0,1.1941062
673427777,68.91434,28.23,100500.0,1.1941062
673448830,68.82978,28.23,100500.99,1.194118
673459478,68.49421,28.23,100505.0,1.1941657
673469788,68.91434,28.23,100500.0,1.1941062
673491790,68.660675,28.23,100503.0,1.1941419
673503396,69.24991,28.23,100496.0,1.1940588
673513804,69.24991,28.23,100496.0,1.1940588
673536810,68.57876,28.23,100504.0,1.1941538
673547413,69.0808,28.23,100498.0,1.1940825
673557805,69.58549,28.23,100492.0,1.1940112
673579796,69.6674,28.23,100491.0,1.1939993
673591382,69.416374,28.23,100494.0,1.1940349
673601839,69.6674,28.23,100491.0,1.1939993
673624810,69.416374,28.24,100494.0,1.1940349
673637061,69.6674,28.24,100491.0,1.1939993
673647774,69.50093,28.24,100493.0,1.1940231
673669437,69.75195,28.23,100490.0,1.1939875
673680489,70.00297,28.23,100487.0,1.1939518
673691787,70.087524,28.23,100486.0,1.1939399
673713800,69.91842,28.24,100488.0,1.1939636
673724831,70.16944,28.24,100485.0,1.193928
673735785,69.6674,28.24,100491.0,1.1939993
673757803,70.25399,28.23,100484.0,1.1939162
673769327,70.087524,28.23,100486.0,1.1939399
673779781,70.33855,28.23,100482.99,1.1939042
673801805,70.25399,28.23,100484.0,1.1939162
673812376,70.58957,28.23,100480.0,1.1938686
673822916,70.25399,28.23,100484.0,1.1939162
673843791,70.00297,28.24,100487.0,1.1939518
673856197,70.50501,28.24,100481.0,1.1938806
673866865,70.84323,28.24,100476.99,1.1938329
673889843,71.091606,28.24,100474.0,1.1937973
673901738,70.758675,28.24,100478.0,1.1938449
673913210,70.92514,28.24,100475.99,1.193821
673934857,70.758675,28.24,100478.0,1.1938449
673946426,70.58957,28.24,100480.0,1.1938686
673957949,70.92514,28.24,100475.99,1.193821
673978842,70.92514,28.24,100475.99,1.193821
673989739,70.758675,28.24,100478.0,1.1938449
674001214,70.84323,28.24,100476.99,1.1938329
674022820,71.34263,28.24,100471.0,1.1937617
674034434,71.84731,28.24,100465.0,1.1936904
674045973,71.26072,28.24,100472.0,1.1937735
674067790,71.429825,28.24,100469.99,1.1937497
674079423,71.17616,28.24,100473.0,1.1937854
674089802,71.84731,28.24,100465.0,1.1936904
674111830,71.68085,28.24,100467.0,1.1937141
674123380,71.93186,28.24,100463.99,1.1936784
674133955,72.43391,28.24,100457.99,1.1936071
674155789,72.34935,28.24,100459.0,1.1936191
674167380,71.511734,28.24,100469.0,1.1937379
674177852,71.429825,28.24,100469.99,1.1937497
674201225,72.182884,28.24,100461.0,1.1936429
674212334,72.43391,28.24,100457.99,1.1936071
674222857,72.34935,28.24,100459.0,1.1936191
674245972,72.26744,28.25,100460.0,1.1936309
674256366,72.60301,28.25,100456.0,1.1935835
674266829,72.60301,28.25,100456.0,1.1935835
674289224,72.60301,28.24,100456.0,1.1935835
674300328,72.43391,28.24,100457.99,1.1936071
674310835,72.34935,28.24,100459.0,1.1936191
674333954,72.60301,28.25,100456.0,1.1935835
674345334,72.34935,28.25,100459.0,1.1936191
674355789,72.43391,28.25,100457.99,1.1936071
674377811,72.76948,28.25,100454.0,1.1935596
674389777,73.0205,28.25,100450.99,1.193524
674399822,72.76948,28.25,100454.0,1.1935596
674422009,72.43391,28.25,100457.99,1.1936071
674433338,72.854034,28.25,100453.0,1.1935478
674443797,73.27152,28.25,100448.0,1.1934884
674465863,72.93859,28.25,100451.99,1.1935358
674477758,72.93859,28.25,100451.99,1.1935358
674489217,73.35607,28.25,100447.0,1.1934766
674510844,73.69165,28.25,100443.0,1.193429
674522412,73.27152,28.25,100448.0,1.1934884
674533944,73.35607,28.25,100447.0,1.1934766
674554859,73.189606,28.25,100449.0,1.1935003
674565898,73.0205,28.25,100450.99,1.193524
674577227,73.35607,28.25,100447.0,1.1934766
674598776,73.77621,28.25,100442.0,1.1934171
674610437,73.35607,28.25,100447.0,1.1934766
674621981,73.77621,28.25,100442.0,1.1934171
674643804,73.860756,28.25,100441.0,1.1934053
674655398,74.196335,28.25,100437.0,1.1933577
674665849,74.11178,28.25,100438.0,1.1933696
674687823,74.278244,28.25,100436.0,1.1933458
674699384,74.278244,28.25,100436.0,1.1933458
674709963,74.278244,28.25,100436.0,1.1933458
674731793,73.44063,28.25,100446.0,1.1934646
674743389,73.69165,28.25,100443.0,1.193429
674753861,74.196335,28.25,100437.0,1.1933577
674777215,73.94267,28.25,100440.0,1.1933933
674788337,74.949394,28.25,100428.0,1.1932508
674798880,74.44735,28.25,100434.0,1.1933221
674821964,74.44735,28.25,100434.0,1.1933221
674832375,74.531906,28.25,100432.99,1.1933101
674842835,74.69837,28.25,100431.0,1.1932864
674865212,74.78029,28.25,100430.0,1.1932745
674876339,75.284966,28.25,100424.0,1.1932032
674886846,75.620544,28.25,100419.99,1.1931556
674909901,74.613815,28.25,100432.0,1.1932983
674921328,75.20042,28.25,100425.0,1.1932151
674931785,75.45143,28.25,100422.0,1.1931795
674954046,75.1185,28.26,100425.99,1.1932269
674965334,75.70509,28.26,100419.0,1.1931438
674975818,75.03395,28.26,100426.99,1.1932389
674998739,75.20042,28.25,100425.0,1.1932151
675010435,75.20042,28.25,100425.0,1.1932151
675020810,75.03395,28.25,100426.99,1.1932389
675042842,75.70509,28.26,100419.0,1.1931438
675053381,75.36952,28.26,100423.0,1.1931914
675063787,75.36952,28.26,100423.0,1.1931914
675086811,75.03395,28.26,100426.99,1.1932389
675098434,76.20714,28.26,100413.0,1.1930726
675108821,75.53599,28.26,100421.0,1.1931676
675130018,75.87157,28.26,100417.0,1.1931201
675141370,75.53599,28.26,100421.0,1.1931676
675151778,76.291695,28.26,100412.0,1.1930606
675174686,75.78701,28.26,100418.0,1.1931319
675186574,75.87157,28.26,100417.0,1.1931201
675198753,76.45816,28.26,100410.0,1.1930369
675222796,75.78701,28.26,100418.0,1.1931319
675234569,76.45816,28.26,100410.0,1.1930369
675246754,75.956116,28.26,100416.0,1.1931082
675268826,76.627266,28.26,100407.99,1.1930131
675280337,76.71182,28.26,100407.0,1.1930013
675290072,76.45816,28.26,100410.0,1.1930369
675311779,76.291695,28.26,100412.0,1.1930606
675323400,76.962845,28.26,100404.0,1.1929656
675334779,76.54271,28.26,100409.0,1.193025
675358663,76.79373,28.26,100406.0,1.1929893
675370433,77.04739,28.26,100403.0,1.1929537
675380833,76.37624,28.26,100411.0,1.1930488
675402840,76.45816,28.26,100410.0,1.1930369
675414561,77.04739,28.26,100403.0,1.1929537
675426061,77.298416,28.26,100400.0,1.1929181
675447775,76.87829,28.26,100405.0,1.1929775
675459389,77.63399,28.26,100396.0,1.1928706
675470724,77.54944,28.26,100397.0,1.1928824
675494673,77.298416,28.26,100400.0,1.1929181
675506593,77.298416,28.26,100400.0,1.1929181
675516824,77.54944,28.26,100397.0,1.1928824
675538033,77.46488,28.26,100398.0,1.1928943
675549333,77.298416,28.26,100400.0,1.1929181
675558990,78.13603,28.26,100390.0,1.1927992
675580834,77.21386,28.269999,100400.99,1.1929299
675592326,77.298416,28.269999,100400.0,1.1929181
675602830,76.962845,28.269999,100404.0,1.1929656
675626099,77.718544,28.26,100394.99,1.1928586
675637327,78.30514,28.26,100388.0,1.1927755
675647775,77.298416,28.26,100400.0,1.1929181
675670679,78.13603,28.26,100390.0,1.1927992
675682552,78.30514,28.26,100388.0,1.1927755
675694717,77.80045,28.26,100394.0,1.1928468
675718745,77.718544,28.269999,100394.99,1.1928586
675730587,78.13603,28.269999,100390.0,1.1927992
675742646,78.4716,28.269999,100386.0,1.1927518
675763783,77.88501,28.269999,100393.0,1.192835
675775419,78.725266,28.269999,100382.99,1.192716
675786062,78.22059,28.269999,100388.99,1.1927873
675807780,78.13603,28.269999,100390.0,1.1927992
675819386,78.22059,28.269999,100388.99,1.1927873
675830676,78.64072,28.269999,100384.0,1.1927279
675854937,78.4716,28.269999,100386.0,1.1927518
675866549,78.30514,28.269999,100388.0,1.1927755
675878592,78.13603,28.269999,100390.0,1.1927992
675899775,79.0582,28.269999,100379.0,1.1926686
675911399,78.97629,28.269999,100380.0,1.1926805
675922003,78.64072,28.269999,100384.0,1.1927279
675943819,79.0582,28.269999,100379.0,1.1926686
675955424,78.89173,28.269999,100381.0,1.1926923
675966765,79.14275,28.269999,100378.0,1.1926566
675988828,79.14275,28.269999,100378.0,1.1926566
676000329,79.64744,28.269999,100372.0,1.1925853
676010859,79.47833,28.269999,100374.0,1.1926092
676032829,78.89173,28.269999,100381.0,1.1926923
676044328,78.64072,28.269999,100384.0,1.1927279
676056315,79.98301,28.269999,100368.0,1.1925379
676078842,79.47833,28.269999,100374.0,1.1926092
676090428,80.23403,28.269999,100365.0,1.1925023
676100828,79.393776,28.269999,100375.0,1.192621
676122864,79.731995,28.269999,100371.0,1.1925735
676134427,79.89846,28.269999,100369.0,1.1925497
676144830,80.064926,28.269999,100367.0,1.192526
676168028,80.23403,28.269999,100365.0,1.1925023
676180255,80.149475,28.269999,100366.0,1.1925141
676190833,80.23403,28.269999,100365.0,1.1925023
676212829,80.31859,28.269999,100363.99,1.1924902
676224509,80.149475,28.269999,100366.0,1.1925141
676236532,80.31859,28.269999,100363.99,1.1924902
676258847,80.4005,28.269999,100363.0,1.1924784
676270430,80.65416,28.269999,100360.0,1.1924428
676280826,80.31859,28.269999,100363.99,1.1924902
676303903,80.738716,28.269999,100359.0,1.192431
676316266,80.485054,28.269999,100362.0,1.1924666
676326874,80.65416,28.269999,100360.0,1.1924428
676348813,81.156204,28.279999,100354.0,1.1923715
676360464,80.90518,28.279999,100357.0,1.1924071
676370848,80.738716,28.279999,100359.0,1.192431
676392811,80.65416,28.279999,100360.0,1.1924428
676404961,80.31859,28.279999,100363.99,1.1924902
676414879,80.90518,28.279999,100357.0,1.1924071
676436815,80.90518,28.279999,100357.0,1.1924071
676448443,80.98974,28.279999,100356.0,1.1923953
676457822,80.82327,28.279999,100357.99,1.1924189
676478868,81.156204,28.279999,100354.0,1.1923715
676489341,81.32531,28.279999,100351.99,1.1923476
676500464,81.57633,28.279999,100349.0,1.1923121
676522843,81.491776,28.279999,100350.0,1.192324
676534430,81.57633,28.279999,100349.0,1.1923121
676544810,81.32531,28.279999,100351.99,1.1923476
676567896,81.40987,28.279999,100350.99,1.1923358
676580145,81.57633,28.279999,100349.0,1.1923121
676590837,82.08102,28.279999,100343.0,1.1922408
676612811,81.491776,28.279999,100350.0,1.192324
676624546,81.7428,28.279999,100347.0,1.1922884
676636569,81.9119,28.279999,100344.99,1.1922646
676660739,81.57633,28.279999,100349.0,1.1923121
676672504,82.162926,28.279999,100342.0,1.1922289
676684325,82.24748,28.279999,100341.0,1.1922171
676706874,81.66089,28.279999,100348.0,1.1923002
676718425,81.827354,28.279999,100346.0,1.1922765
676728048,82.162926,28.279999,100342.0,1.1922289
676750823,82.162926,28.279999,100342.0,1.1922289
676761343,82.4985,28.279999,100338.0,1.1921815
676772707,82.91863,28.279999,100332.99,1.1921219
676794860,82.08102,28.279999,100343.0,1.1922408
676806427,81.827354,28.279999,100346.0,1.1922765
676816827,82.41659,28.279999,100338.99,1.1921933
676839910,82.4985,28.279999,100338.0,1.1921815
676850452,82.834076,28.279999,100334.0,1.1921339
676860959,82.24748,28.279999,100341.0,1.1922171
676882833,82.91863,28.279999,100332.99,1.1921219
676894427,82.66761,28.279999,100336.0,1.1921576
676904937,83.08774,28.279999,100331.0,1.1920983
676927787,82.58305,28.289999,100337.0,1.1921695
676939394,83.172295,28.289999,100330.0,1.1920863
676949804,82.75217,28.289999,100335.0,1.1921458
676971789,82.834076,28.289999,100334.0,1.1921339
676983403,82.91863,28.289999,100332.99,1.1921219
676993829,83.2542,28.289999,100329.0,1.1920745
677016950,83.507866,28.289999,100325.99,1.1920388
677028860,82.58305,28.289999,100337.0,1.1921695
677039793,83.507866,28.289999,100325.99,1.1920388
677062199,83.172295,28.289999,100330.0,1.1920863
677073371,83.42331,28.289999,100326.99,1.1920506
677083821,83.925354,28.289999,100321.0,1.1919794
677105844,83.925354,28.279999,100321.0,1.1919794
677117859,83.75889,28.279999,100323.0,1.1920033
677128951,83.589775,28.279999,100325.0,1.192027
677151787,83.843445,28.289999,100322.0,1.1919913
677163404,84.34548,28.289999,100316.0,1.19192
677173815,84.179016,28.289999,100318.0,1.1919438
677194834,84.00991,28.289999,100319.99,1.1919675
677206448,83.67433,28.289999,100324.0,1.192015
677216829,84.09446,28.289999,100319.0,1.1919557
677238877,84.43004,28.289999,100315.0,1.1919081
677250412,84.51459,28.289999,100313.99,1.1918962
677259825,84.51459,28.289999,100313.99,1.1918962
677281804,84.43004,28.289999,100315.0,1.1919081
677293760,84.43004,28.289999,100315.0,1.1919081
677304827,84.43004,28.289999,100315.0,1.1919081
677326863,84.43004,28.289999,100315.0,1.1919081
677338412,84.43004,28.289999,100315.0,1.1919081
677349460,84.260925,28.289999,100317.0,1.191932
677370863,85.10119,28.289999,100307.0,1.1918131
677382444,84.932076,28.289999,100309.0,1.1918368
677392962,84.51459,28.289999,100313.99,1.1918962
677413803,84.76561,28.289999,100311.0,1.1918607
677424432,85.18574,28.289999,100306.0,1.1918012
677434829,84.932076,28.289999,100309.0,1.1918368
677456830,84.85017,28.289999,100310.0,1.1918488
677468959,84.76561,28.289999,100311.0,1.1918607
677479790,85.01663,28.289999,100307.99,1.1918249
677501791,85.3522,28.289999,100304.0,1.1917775
677513337,85.77233,28.289999,100299.0,1.191718
677523791,85.267654,28.289999,100305.0,1.1917894
677545955,86.02335,28.289999,100296.0,1.1916823
677557826,85.3522,28.289999,100304.0,1.1917775
677568829,85.267654,28.289999,100305.0,1.1917894
677591793,85.605865,28.3,100300.99,1.1917417
677603397,85.52132,28.3,100301.99,1.1917536
677613793,85.77233,28.3,100299.0,1.191718
677635788,85.85689,28.3,100298.0,1.1917062
677647382,86.02335,28.3,100296.0,1.1916823
677657788,85.941444,28.3,100297.0,1.1916943
677680953,85.43676,28.289999,100303.0,1.1917655
677692987,85.85689,28.289999,100298.0,1.1917062
677703790,86.11055,28.289999,100294.99,1.1916704
677725830,85.68778,28.289999,100300.0,1.1917299
677736430,86.52804,28.289999,100290.0,1.191611
677746868,86.35893,28.289999,100292.0,1.1916349
677768924,86.277016,28.289999,100293.0,1.1916467
677781052,86.44348,28.289999,100291.0,1.191623
677790881,86.277016,28.289999,100293.0,1.1916467
677811826,86.44348,28.289999,100291.0,1.191623
677823394,86.44348,28.289999,100291.0,1.191623
677832839,86.612595,28.289999,100288.99,1.1915991
677855787,86.69714,28.3,100288.0,1.1915873
677867404,86.612595,28.3,100288.99,1.1915991
677877815,87.619316,28.3,100276.99,1.1914566
677899788,86.52804,28.3,100290.0,1.191611
677911392,86.69714,28.3,100288.0,1.1915873
677921802,87.03272,28.3,100284.0,1.1915398
677944848,87.19919,28.3,100282.0,1.191516
677956977,87.19919,28.3,100282.0,1.191516
677967808,86.948166,28.3,100285.0,1.1915517
677989802,87.619316,28.3,100276.99,1.1914566
678001338,87.53476,28.3,100278.0,1.1914685
678011789,87.19919,28.3,100282.0,1.191516
678034690,87.95489,28.3,100273.0,1.1914091
678045336,87.19919,28.3,100282.0,1.191516
678055791,87.36829,28.3,100280.0,1.1914923
678078034,87.70387,28.3,100275.99,1.1914446
678089345,87.95489,28.3,100273.0,1.1914091
678099827,87.53476,28.3,100278.0,1.1914685
678122795,87.78842,28.3,100275.0,1.1914328
678134431,88.20855,28.3,100269.99,1.1913733
678144824,87.45021,28.3,100279.0,1.1914804
678166870,87.87298,28.3,100274.0,1.191421
678178608,87.53476,28.3,100278.0,1.1914685
678190022,87.70387,28.3,100275.99,1.1914446
678211782,88.20855,28.3,100269.99,1.1913733
678222475,88.20855,28.3,100269.99,1.1913733
678232825,88.20855,28.3,100269.99,1.1913733
678254832,88.124,28.3,100271.0,1.1913854
678266586,88.20855,28.3,100269.99,1.1913733
678278023,88.45957,28.3,100267.0,1.1913378
678299788,88.37502,28.3,100268.0,1.1913497
678311406,88.8797,28.3,100262.0,1.1912785
678322821,88.54413,28.3,100266.0,1.1913259
678345480,88.710594,28.3,100263.99,1.1913021
678356488,88.710594,28.3,100263.99,1.1913021
678367481,88.79515,28.3,100263.0,1.1912903
678389481,88.710594,28.3,100263.99,1.1913021
678400491,89.13072,28.3,100259.0,1.1912428
678411484,88.96426,28.3,100261.0,1.1912665
678433481,88.96426,28.3,100261.0,1.1912665
678444481,88.710594,28.3,100263.99,1.1913021
678455481,88.79515,28.3,100263.0,1.1912903
678477488,89.4663,28.3,100255.0,1.1911952
678488526,89.13072,28.3,100259.0,1.1912428
678498754,89.381744,28.3,100256.0,1.1912072
678520826,89.63541,28.3,100253.0,1.1911715
678531448,89.4663,28.3,100255.0,1.1911952
678542013,89.80451,28.3,100250.99,1.1911477
678563779,89.13072,28.3,100259.0,1.1912428
678575381,89.13072,28.3,100259.0,1.1912428
678586682,89.29983,28.3,100257.0,1.191219
678608827,89.88643,28.3,100250.0,1.1911359
678620334,89.88643,28.3,100250.0,1.1911359
678630775,90.14009,28.3,100247.0,1.1911002
678654026,89.63541,28.31,100253.0,1.1911715
678665335,90.222,28.31,100246.0,1.1910883
678675040,90.64213,28.31,100241.0,1.191029
678698705,89.97098,28.3,100249.0,1.191124
678710415,90.55757,28.3,100242.0,1.1910408
678720825,89.97098,28.3,100249.0,1.191124
678742015,90.14009,28.3,100247.0,1.1911002
678753329,89.88643,28.3,100250.0,1.1911359
678763779,90.81124,28.3,100238.99,1.191005
678786864,90.64213,28.3,100241.0,1.191029
678798418,90.055534,28.3,100248.0,1.191112
678808828,90.89315,28.3,100238.0,1.1909933
678830022,91.14681,28.3,100235.0,1.1909577
678841326,90.726685,28.3,100240.0,1.191017
678851775,90.726685,28.3,100240.0,1.191017
678874703,90.391106,28.31,100244.0,1.1910646
678886435,91.397835,28.31,100232.0,1.190922
678896946,91.23137,28.31,100234.0,1.1909457
678918848,90.89315,28.3,100238.0,1.1909933
678930424,90.89315,28.3,100238.0,1.1909933
678940828,91.14681,28.3,100235.0,1.1909577
678962878,91.14681,28.31,100235.0,1.1909577
678974426,91.062256,28.31,100236.0,1.1909695
678984147,91.14681,28.31,100235.0,1.1909577
679006865,91.81796,28.3,100226.99,1.1908624
679018429,91.6515,28.3,100229.0,1.1908864
679028828,91.48238,28.3,100231.0,1.1909101
679053280,91.733406,28.3,100228.0,1.1908745
679064542,91.31592,28.3,100232.99,1.1909337
679074894,91.48238,28.3,100231.0,1.1909101
679096830,91.733406,28.31,100228.0,1.1908745
679109000,91.56694,28.31,100230.0,1.1908982
679119885,91.81796,28.31,100226.99,1.1908624
679142833,91.733406,28.3,100228.0,1.1908745
679154426,92.153534,28.3,100223.0,1.1908151
679164815,92.407196,28.3,100219.99,1.1907793
679188731,92.068985,28.3,100224.0,1.1908269
679200451,91.90252,28.3,100225.99,1.1908506
679210837,92.153534,28.3,100223.0,1.1908151
679232814,92.32265,28.3,100221.0,1.1907912
679245333,92.407196,28.3,100219.99,1.1907793
679256031,92.742775,28.3,100216.0,1.1907319
679278830,92.153534,28.3,100223.0,1.1908151
679290432,92.91188,28.3,100213.99,1.190708
679300825,92.742775,28.3,100216.0,1.1907319
679324612,92.57366,28.3,100218.0,1.1907556
679336538,92.91188,28.3,100213.99,1.190708
679348497,93.07835,28.3,100212.0,1.1906843
679370864,92.91188,28.31,100213.99,1.190708
679382426,93.07835,28.31,100212.0,1.1906843
679392811,93.07835,28.31,100212.0,1.1906843
679414871,93.24746,28.3,100210.0,1.1906606
679426481,93.24746,28.3,100210.0,1.1906606
679436735,93.07835,28.3,100212.0,1.1906843
679460589,93.32937,28.31,100209.0,1.1906487
679472464,93.1629,28.31,100211.0,1.1906724
679482849,93.1629,28.31,100211.0,1.1906724
679504824,93.1629,28.31,100211.0,1.1906724
679517049,93.75214,28.31,100204.0,1.1905893
679527886,93.66759,28.31,100205.0,1.1906011
679548834,93.24746,28.3,100210.0,1.1906606
679560430,94.00316,28.3,100200.99,1.1905535
679570837,93.9186,28.3,100201.99,1.1905655
679592823,94.00316,28.3,100200.99,1.1905535
679604990,94.33874,28.3,100197.0,1.1905061
679616014,94.42329,28.3,100196.0,1.1904942
679636827,94.169624,28.3,100199.0,1.1905298
679648455,94.00316,28.3,100200.99,1.1905535
679658838,94.087715,28.3,100200.0,1.1905417
679679903,94.169624,28.31,100199.0,1.1905298
679692040,94.25418,28.31,100198.0,1.190518
679702871,94.00316,28.31,100200.99,1.1905535
679724630,94.33874,28.31,100197.0,1.1905061
679736485,94.42329,28.31,100196.0,1.1904942
679747774,94.50784,28.31,100194.99,1.1904823
679769803,94.42329,28.31,100196.0,1.1904942
679781842,94.758865,28.31,100192.0,1.1904467
679792826,94.758865,28.31,100192.0,1.1904467
679815780,94.58975,28.31,100194.0,1.1904705
679826543,94.67431,28.31,100193.0,1.1904585
679837805,94.843414,28.31,100191.0,1.1904348
679859775,94.758865,28.31,100192.0,1.1904467
679871388,94.758865,28.31,100192.0,1.1904467
679881800,94.758865,28.31,100192.0,1.1904467
679904826,94.92797,28.31,100190.0,1.1904229
679917096,94.843414,28.31,100191.0,1.1904348
679927858,94.67431,28.31,100193.0,1.1904585
679949425,95.26355,28.31,100186.0,1.1903754
679960418,95.430016,28.31,100184.0,1.1903516
679969822,95.26355,28.31,100186.0,1.1903754
679992827,95.17899,28.31,100187.0,1.1903872
680005021,95.01253,28.31,100188.99,1.190411
680015818,95.01253,28.31,100188.99,1.190411
680037804,95.17899,28.31,100187.0,1.1903872
680049375,95.59912,28.31,100182.0,1.1903279
680059788,95.09444,28.31,100188.0,1.1903992
680081810,95.3481,28.31,100185.0,1.1903635
680092981,95.514565,28.31,100182.99,1.1903397
680103789,95.26355,28.31,100186.0,1.1903754
680125985,94.843414,28.31,100191.0,1.1904348
680137335,95.430016,28.31,100184.0,1.1903516
680147790,95.68368,28.31,100181.0,1.190316
680169810,95.430016,28.31,100184.0,1.1903516
680181901,96.01925,28.31,100176.99,1.1902684
680192835,95.3481,28.31,100185.0,1.1903635
680215792,95.09444,28.31,100188.0,1.1903992
680227391,95.17899,28.31,100187.0,1.1903872
680237822,95.59912,28.31,100182.0,1.1903279
680259826,95.26355,28.31,100186.0,1.1903754
680271398,95.85014,28.31,100179.0,1.1902922
680280830,95.85014,28.31,100179.0,1.1902922
680303787,95.85014,28.31,100179.0,1.1902922
680315393,95.85014,28.31,100179.0,1.1902922
680326087,96.43938,28.31,100172.0,1.190209
680347795,95.85014,28.31,100179.0,1.1902922
680359383,96.103806,28.31,100175.99,1.1902565
680369778,96.01925,28.31,100176.99,1.1902684
680392827,95.85014,28.31,100179.0,1.1902922
680404987,95.93469,28.31,100178.0,1.1902803
680415791,95.68368,28.31,100181.0,1.190316
680437932,96.60849,28.31,100169.99,1.1901852
680449333,96.188354,28.31,100175.0,1.1902447
680459792,96.43938,28.31,100172.0,1.190209
680481794,96.188354,28.32,100175.0,1.1902447
680493875,96.6904,28.32,100169.0,1.1901734
680504831,96.35483,28.32,100173.0,1.190221
680525956,96.27027,28.31,100174.0,1.1902329
680537338,96.6904,28.31,100169.0,1.1901734
680547800,96.52393,28.31,100171.0,1.1901972
680569828,96.35483,28.31,100173.0,1.190221
680581004,96.188354,28.31,100175.0,1.1902447
680590868,95.93469,28.31,100178.0,1.1902803
680611823,96.188354,28.32,100175.0,1.1902447
680622662,96.188354,28.32,100175.0,1.1902447
680633127,96.43938,28.32,100172.0,1.190209
680656406,95.68368,28.31,100181.0,1.190316
680669028,96.01925,28.31,100176.99,1.1902684
680679792,95.68368,28.31,100181.0,1.190316
680701930,96.27027,28.31,100174.0,1.1902329
680713339,96.103806,28.31,100175.99,1.1902565
680723791,96.103806,28.31,100175.99,1.1902565
680745850,96.188354,28.32,100175.0,1.1902447
680757870,95.76823,28.32,100180.0,1.1903042
680768817,95.85014,28.32,100179.0,1.1902922
680790024,96.188354,28.31,100175.0,1.1902447
680800425,95.93469,28.31,100178.0,1.1902803
680810836,96.188354,28.31,100175.0,1.1902447
680832511,96.35483,28.32,100173.0,1.190221
680845269,95.93469,28.32,100178.0,1.1902803
680855791,95.93469,28.32,100178.0,1.1902803
680878746,95.85014,28.32,100179.0,1.1902922
680890431,96.35483,28.32,100173.0,1.190221
680902659,95.76823,28.32,100180.0,1.1903042
680923856,95.93469,28.31,100178.0,1.1902803
680935466,96.27027,28.31,100174.0,1.1902329
680946553,96.188354,28.31,100175.0,1.1902447
680968522,95.76823,28.32,100180.0,1.1903042
680979525,95.59912,28.32,100182.0,1.1903279
680990567,96.43938,28.32,100172.0,1.190209
681012491,96.01925,28.31,100176.99,1.1902684
681023489,96.188354,28.31,100175.0,1.1902447
681034533,95.76823,28.31,100180.0,1.1903042
681056523,95.85014,28.32,100179.0,1.1902922
681067525,96.01925,28.32,100176.99,1.1902684
681078462,95.93469,28.32,100178.0,1.1902803
681100490,96.188354,28.32,100175.0,1.1902447
681110663,95.76823,28.32,100180.0,1.1903042
681121802,96.103806,28.32,100175.99,1.1902565
681143775,96.103806,28.32,100175.99,1.1902565
681155424,96.103806,28.32,100175.99,1.1902565
681166261,95.93469,28.32,100178.0,1.1902803
681187798,95.85014,28.32,100179.0,1.1902922
681199387,96.01925,28.32,100176.99,1.1902684
681209243,95.85014,28.32,100179.0,1.1902922
681230888,96.01925,28.32,100176.99,1.1902684
681243358,95.93469,28.32,100178.0,1.1902803
681254959,95.59912,28.32,100182.0,1.1903279
681276149,95.514565,28.32,100182.99,1.1903397
681287553,96.01925,28.32,100176.99,1.1902684
681298097,96.35483,28.32,100173.0,1.190221
681321746,96.6904,28.32,100169.0,1.1901734
681333796,96.103806,28.32,100175.99,1.1902565
681345295,95.514565,28.32,100182.99,1.1903397
681366907,95.93469,28.32,100178.0,1.1902803
681378426,96.27027,28.32,100174.0,1.1902329
681390331,95.76823,28.32,100180.0,1.1903042
681410845,96.103806,28.32,100175.99,1.1902565
681422737,96.103806,28.32,100175.99,1.1902565
681433801,96.103806,28.32,100175.99,1.1902565
681457211,95.76823,28.32,100180.0,1.1903042
681468369,95.59912,28.32,100182.0,1.1903279
681478843,95.85014,28.32,100179.0,1.1902922
681502567,95.93469,28.32,100178.0,1.1902803
681513353,95.85014,28.32,100179.0,1.1902922
681523816,96.188354,28.32,100175.0,1.1902447
681545849,96.188354,28.32,100175.0,1.1902447
681557878,95.93469,28.32,100178.0,1.1902803
681569218,95.85014,28.32,100179.0,1.1902922
681590846,96.01925,28.32,100176.99,1.1902684
681603337,95.59912,28.32,100182.0,1.1903279
681614817,96.01925,28.32,100176.99,1.1902684
681636150,96.01925,28.32,100176.99,1.1902684
681648215,96.01925,28.32,100176.99,1.1902684
681658091,96.01925,28.32,100176.99,1.1902684
681681625,95.76823,28.32,100180.0,1.1903042
681693862,96.27027,28.32,100174.0,1.1902329
681705244,96.60849,28.32,100169.99,1.1901852
681726878,95.93469,28.32,100178.0,1.1902803
681739357,95.59912,28.32,100182.0,1.1903279
681750777,96.188354,28.32,100175.0,1.1902447
681775116,96.35483,28.32,100173.0,1.190221
681786182,96.188354,28.32,100175.0,1.1902447
681796156,96.188354,28.32,100175.0,1.1902447
681818075,95.85014,28.32,100179.0,1.1902922
681830618,95.85014,28.32,100179.0,1.1902922
681841509,96.188354,28.32,100175.0,1.1902447
681865224,95.85014,28.32,100179.0,1.1902922
681876339,95.514565,28.32,100182.99,1.1903397
681886992,95.430016,28.32,100184.0,1.1903516
681910532,95.59912,28.32,100182.0,1.1903279
681922429,95.93469,28.32,100178.0,1.1902803
681934532,95.3481,28.32,100185.0,1.1903635
681954822,95.68368,28.31,100181.0,1.190316
681966615,96.27027,28.31,100174.0,1.1902329
681977781,95.85014,28.31,100179.0,1.1902922
682000813,95.68368,28.32,100181.0,1.190316
682011399,95.85014,28.32,100179.0,1.1902922
682022018,95.01253,28.32,100188.99,1.190411
682044024,95.26355,28.32,100186.0,1.1903754
682054432,95.76823,28.32,100180.0,1.1903042
682064812,95.514565,28.32,100182.99,1.1903397
682086053,95.430016,28.32,100184.0,1.1903516
682097332,95.17899,28.32,100187.0,1.1903872
682108033,95.01253,28.32,100188.99,1.190411
682129125,96.103806,28.32,100175.99,1.1902565
682141173,95.430016,28.32,100184.0,1.1903516
682151133,95.17899,28.32,100187.0,1.1903872
682174428,95.76823,28.32,100180.0,1.1903042
682186628,95.59912,28.32,100182.0,1.1903279
682198086,95.3481,28.32,100185.0,1.1903635
682219536,95.514565,28.32,100182.99,1.1903397
682231355,95.59912,28.32,100182.0,1.1903279
682241127,95.59912,28.32,100182.0,1.1903279
682263128,95.01253,28.32,100188.99,1.190411
682275445,95.85014,28.32,100179.0,1.1902922
682286537,95.85014,28.32,100179.0,1.1902922
682310019,95.59912,28.32,100182.0,1.1903279
682321332,95.68368,28.32,100181.0,1.190316
682331677,95.514565,28.32,100182.99,1.1903397
682353121,95.09444,28.32,100188.0,1.1903992
682365167,95.3481,28.32,100185.0,1.1903635
682375131,95.76823,28.32,100180.0,1.1903042
682398553,95.59912,28.32,100182.0,1.1903279
682410563,95.59912,28.32,100182.0,1.1903279
682422018,95.514565,28.32,100182.99,1.1903397
682443941,95.59912,28.32,100182.0,1.1903279
682455341,95.430016,28.32,100184.0,1.1903516
682465130,95.3481,28.32,100185.0,1.1903635
682487122,95.59912,28.32,100182.0,1.1903279
682499518,95.17899,28.32,100187.0,1.1903872
682510533,95.59912,28.32,100182.0,1.1903279
682534097,95.26355,28.32,100186.0,1.1903754
682545332,95.17899,28.32,100187.0,1.1903872
682555669,95.3481,28.32,100185.0,1.1903635
682579907,95.26355,28.32,100186.0,1.1903754
682592300,95.59912,28.32,100182.0,1.1903279
682604013,95.76823,28.32,100180.0,1.1903042
682625113,95.430016,28.32,100184.0,1.1903516
682637174,95.09444,28.32,100188.0,1.1903992
682647206,95.26355,28.32,100186.0,1.1903754
682670312,96.103806,28.31,100175.99,1.1902565
682682571,95.59912,28.31,100182.0,1.1903279
682694031,95.59912,28.31,100182.0,1.1903279
682715694,95.59912,28.32,100182.0,1.1903279
682727414,96.01925,28.32,100176.99,1.1902684
682739932,95.26355,28.32,100186.0,1.1903754
682763907,95.17899,28.32,100187.0,1.1903872
682775346,95.59912,28.32,100182.0,1.1903279
682785130,95.26355,28.32,100186.0,1.1903754
682806449,95.514565,28.31,100182.99,1.1903397
682818556,95.17899,28.31,100187.0,1.1903872
682830020,95.68368,28.31,100181.0,1.190316
682852199,95.3481,28.31,100185.0,1.1903635
682863364,95.430016,28.31,100184.0,1.1903516
682873125,95.17899,28.31,100187.0,1.1903872
682895253,95.430016,28.32,100184.0,1.1903516
682906633,95.01253,28.32,100188.99,1.190411
682918155,95.59912,28.32,100182.0,1.1903279
682938920,95.514565,28.31,100182.99,1.1903397
682951360,95.85014,28.31,100179.0,1.1902922
682963392,95.26355,28.31,100186.0,1.1903754
682987416,94.843414,28.31,100191.0,1.1904348
682997336,95.59912,28.31,100182.0,1.1903279
683007774,95.3481,28.31,100185.0,1.1903635
683030038,95.09444,28.31,100188.0,1.1903992
683041324,95.514565,28.31,100182.99,1.1903397
683051861,95.17899,28.31,100187.0,1.1903872
683073129,95.3481,28.32,100185.0,1.1903635
683084330,95.09444,28.32,100188.0,1.1903992
683095221,94.843414,28.32,100191.0,1.1904348
683118426,95.430016,28.32,100184.0,1.1903516
683130246,95.59912,28.32,100182.0,1.1903279
683140637,95.26355,28.32,100186.0,1.1903754
683165062,95.01253,28.32,100188.99,1.190411
683176536,95.430016,28.32,100184.0,1.1903516
683189157,95.68368,28.32,100181.0,1.190316
683210831,95.68368,28.31,100181.0,1.190316
683222433,95.59912,28.31,100182.0,1.1903279
683232827,95.85014,28.31,100179.0,1.1902922
683253792,95.68368,28.31,100181.0,1.190316
683265328,95.68368,28.31,100181.0,1.190316
683277297,96.01925,28.31,100176.99,1.1902684
683301159,95.430016,28.32,100184.0,1.1903516
683312464,95.85014,28.32,100179.0,1.1902922
683322844,95.59912,28.32,100182.0,1.1903279
683344826,95.514565,28.31,100182.99,1.1903397
683357105,96.01925,28.31,100176.99,1.1902684
683367900,96.01925,28.31,100176.99,1.1902684
683390882,95.68368,28.31,100181.0,1.190316
683402452,95.76823,28.31,100180.0,1.1903042
683413182,95.76823,28.31,100180.0,1.1903042
683437277,96.27027,28.31,100174.0,1.1902329
683448543,95.85014,28.31,100179.0,1.1902922
683460527,95.85014,28.31,100179.0,1.1902922
683484552,95.430016,28.31,100184.0,1.1903516
683495734,95.85014,28.31,100179.0,1.1902922
683506830,95.76823,28.31,100180.0,1.1903042
683528809,95.430016,28.31,100184.0,1.1903516
683540985,96.27027,28.31,100174.0,1.1902329
683550889,95.85014,28.31,100179.0,1.1902922
683573376,95.76823,28.31,100180.0,1.1903042
683584517,95.59912,28.31,100182.0,1.1903279
683596646,95.93469,28.31,100178.0,1.1902803
683618830,95.93469,28.31,100178.0,1.1902803
683630430,95.430016,28.31,100184.0,1.1903516
683639893,96.27027,28.31,100174.0,1.1902329
683664010,95.430016,28.31,100184.0,1.1903516
683676262,95.85014,28.31,100179.0,1.1902922
683686837,95.59912,28.31,100182.0,1.1903279
683709289,95.93469,28.31,100178.0,1.1902803
683720529,96.60849,28.31,100169.99,1.1901852
683733308,96.01925,28.31,100176.99,1.1902684
683754881,95.514565,28.31,100182.99,1.1903397
683766601,96.01925,28.31,100176.99,1.1902684
683776836,95.3481,28.31,100185.0,1.1903635
683798890,95.85014,28.31,100179.0,1.1902922
683810427,96.27027,28.31,100174.0,1.1902329
683821262,96.27027,28.31,100174.0,1.1902329
683845514,96.01925,28.31,100176.99,1.1902684
683857334,95.85014,28.31,100179.0,1.1902922
683869512,95.85014,28.31,100179.0,1.1902922
683890874,96.103806,28.3,100175.99,1.1902565
683902426,96.27027,28.3,100174.0,1.1902329
683912831,96.60849,28.3,100169.99,1.1901852
683934777,96.188354,28.31,100175.0,1.1902447
683946431,96.103806,28.31,100175.99,1.1902565
683957370,96.103806,28.31,100175.99,1.1902565
683979793,96.01925,28.31,100176.99,1.1902684
683990460,96.188354,28.31,100175.0,1.1902447
684000826,95.93469,28.31,100178.0,1.1902803
684023827,95.76823,28.31,100180.0,1.1903042
684035381,96.01925,28.31,100176.99,1.1902684
684045363,95.59912,28.31,100182.0,1.1903279
684066832,96.52393,28.31,100171.0,1.1901972
684078428,96.6904,28.31,100169.0,1.1901734
684088827,96.35483,28.31,100173.0,1.190221
684111788,96.35483,28.31,100173.0,1.190221
684123402,96.27027,28.31,100174.0,1.1902329
684133830,96.188354,28.31,100175.0,1.1902447
684155793,96.188354,28.31,100175.0,1.1902447
684167395,96.35483,28.31,100173.0,1.190221
684177805,95.93469,28.31,100178.0,1.1902803
684200833,95.85014,28.31,100179.0,1.1902922
684211402,96.188354,28.31,100175.0,1.1902447
684222069,96.52393,28.31,100171.0,1.1901972
684243796,95.76823,28.31,100180.0,1.1903042
684255400,95.68368,28.31,100181.0,1.190316
684265845,96.188354,28.31,100175.0,1.1902447
684288826,96.27027,28.31,100174.0,1.1902329
684301028,96.01925,28.31,100176.99,1.1902684
684311828,96.43938,28.31,100172.0,1.190209
684334114,96.103806,28.31,100175.99,1.1902565
684345366,96.27027,28.31,100174.0,1.1902329
684355818,95.93469,28.31,100178.0,1.1902803
684377805,96.103806,28.32,100175.99,1.1902565
684388986,96.35483,28.32,100173.0,1.190221
684399788,95.85014,28.32,100179.0,1.1902922
684422064,96.01925,28.31,100176.99,1.1902684
684433327,95.93469,28.31,100178.0,1.1902803
684442831,96.01925,28.31,100176.99,1.1902684
684463790,96.103806,28.31,100175.99,1.1902565
684474413,96.103806,28.31,100175.99,1.1902565
684485234,96.52393,28.31,100171.0,1.1901972
684506137,96.188354,28.32,100175.0,1.1902447
684518859,96.103806,28.32,100175.99,1.1902565
684529129,96.01925,28.32,100176.99,1.1902684
684552488,96.01925,28.31,100176.99,1.1902684
684563343,96.103806,28.31,100175.99,1.1902565
684573528,96.6904,28.31,100169.0,1.1901734
684595786,96.01925,28.31,100176.99,1.1902684
684607409,96.103806,28.31,100175.99,1.1902565
684617796,96.103806,28.31,100175.99,1.1902565
684640948,96.188354,28.31,100175.0,1.1902447
684651378,96.01925,28.31,100176.99,1.1902684
684661791,96.52393,28.31,100171.0,1.1901972
684683780,95.59912,28.31,100182.0,1.1903279
684694700,96.188354,28.31,100175.0,1.1902447
684705131,96.27027,28.31,100174.0,1.1902329
684728415,95.514565,28.31,100182.99,1.1903397
684741042,95.68368,28.31,100181.0,1.190316
684751816,96.27027,28.31,100174.0,1.1902329
684774036,96.188354,28.31,100175.0,1.1902447
684785342,96.188354,28.31,100175.0,1.1902447
684795781,96.27027,28.31,100174.0,1.1902329
684817790,95.93469,28.31,100178.0,1.1902803
684829869,96.27027,28.31,100174.0,1.1902329
684840809,96.103806,28.31,100175.99,1.1902565
684863828,96.43938,28.31,100172.0,1.190209
684875390,95.85014,28.31,100179.0,1.1902922
684886053,96.188354,28.31,100175.0,1.1902447
684907789,96.103806,28.31,100175.99,1.1902565
684919378,95.59912,28.31,100182.0,1.1903279
684929802,95.85014,28.31,100179.0,1.1902922
