timestamp,time_utc_usec,lat,lon,alt,alt_ellipsoid,s_variance_m_s,c_variance_rad,eph,epv,hdop,vdop,noise_per_ms,jamming_indicator,vel_m_s,vel_n_m_s,vel_e_m_s,vel_d_m_s,cog_rad,timestamp_time_relative,heading,fix_type,vel_ned_valid,satellites_used
665194031,1537372480400322,323874058,-1170764249,18996,-15448,0.21300001,0.7446229,0.62600005,0.74,0.59999996,0.94,92,4,0.045,0.040000003,0.022000002,-0.035,5.650929,0,nan,3,1,18
665394076,1537372480600322,323874058,-1170764249,19003,-15441,0.22900002,0.74463123,0.62600005,0.74200004,0.59999996,0.94,92,4,0.010000001,0.009000001,0.004,-0.0050000004,5.650929,0,nan,3,1,18
665593514,1537372480800321,323874058,-1170764249,19011,-15433,0.20700002,0.7446389,0.62700003,0.74100006,0.59999996,0.94,92,4,0.013,0.002,-0.013,-0.015000001,5.650929,0,nan,3,1,18
665796519,1537372481000321,323874058,-1170764250,19018,-15426,0.22900002,0.74464744,0.62700003,0.74300003,0.59999996,0.94,92,4,0.013,0.003,-0.013,-0.093,5.650929,0,nan,3,1,18
665996562,1537372481200321,323874058,-1170764250,19028,-15417,0.20300001,0.74465495,0.628,0.74300003,0.59999996,0.94,92,4,0.057000004,0.057000004,-0.004,-0.025,5.650929,0,nan,3,1,18
666196455,1537372481400321,323874057,-1170764248,19116,-15328,0.193,0.7099456,0.628,0.74300003,0.59999996,0.94,92,1,0.28800002,-0.179,0.22600001,-0.48700002,0.87274,0,nan,3,1,18
666396442,1537372481600321,323874051,-1170764242,19380,-15064,0.22100002,0.4092064,0.629,0.74600005,0.59999996,0.94,92,1,0.57900006,-0.48100004,0.323,-2.181,2.1323426,0,nan,3,1,18
666597516,1537372481800321,323874041,-1170764232,19901,-14543,0.21300001,0.27247608,0.63000005,0.74600005,0.59999996,0.94,92,1,0.822,-0.56200004,0.6,-2.8300002,2.2651832,0,nan,3,1,18
666817634,1537372482000321,323874032,-1170764218,20449,-13995,0.22100002,0.29321006,0.63100004,0.748,0.59999996,0.94,92,1,0.75600004,-0.40300003,0.64000005,-2.736,2.2040234,0,nan,3,1,18
666993514,1537372482200321,323874025,-1170764206,20992,-13452,0.22600001,0.32331192,0.632,0.75000006,0.59999996,0.94,92,1,0.65800005,-0.36900002,0.544,-2.775,2.1872916,0,nan,3,1,18
667189062,1537372482400321,323874018,-1170764197,21579,-12866,0.22700001,0.37589782,0.632,0.75100005,0.59999996,0.94,92,5,0.526,-0.44500002,0.28100002,-2.8860002,2.3534417,0,nan,3,1,18
667397078,1537372482600321,323874011,-1170764189,22150,-12294,0.22600001,0.36064312,0.632,0.753,0.59999996,0.94,92,5,0.61,-0.33200002,0.512,-2.8690002,2.2449808,0,nan,3,1,18
667599561,1537372482800321,323874006,-1170764178,22714,-11731,0.21900001,0.3307746,0.633,0.753,0.59999996,0.94,92,5,0.64500004,-0.34600002,0.544,-2.914,2.186837,0,nan,3,1,18
667797518,1537372483000321,323874000,-1170764167,23288,-11156,0.224,0.3599942,0.633,0.754,0.59999996,0.94,92,5,0.57600003,-0.26200002,0.513,-2.8880002,2.1210155,0,nan,3,1,18
667999584,1537372483200321,323873995,-1170764157,23872,-10573,0.22800002,0.4238874,0.633,0.75500005,0.59999996,0.94,92,5,0.499,-0.24800001,0.43300003,-2.9250002,2.1087284,0,nan,3,1,18
668198079,1537372483400321,323873992,-1170764146,24426,-10018,0.22700001,0.34427786,0.633,0.757,0.59999996,0.94,92,4,0.605,-0.128,0.592,-2.8660002,1.91243,0,nan,3,1,18
668391587,1537372483600321,323873990,-1170764137,25029,-9415,0.22100002,0.5776708,0.634,0.75600004,0.59999996,0.94,92,4,0.34300002,-0.07,0.33600003,-2.9380002,1.8763435,0,nan,3,1,18
668588536,1537372483800321,323873991,-1170764133,25617,-8827,0.268,0.57781583,0.638,0.76100004,0.59999996,0.94,92,4,0.193,0.18800001,0.043,-3.0470002,1.8763435,0,nan,3,1,18
668790225,1537372484000321,323873994,-1170764135,26226,-8218,0.277,0.57796645,0.646,0.76600003,0.59999996,0.94,92,4,0.367,0.172,-0.32500002,-3.154,1.8763435,0,nan,3,1,18
668993593,1537372484200321,323873999,-1170764143,26848,-7597,0.287,0.69211286,0.65400004,0.77400005,0.59999996,0.94,92,4,0.55200005,0.326,-0.446,-3.3000002,0.71880436,0,nan,3,1,18
669194576,1537372484400321,323874004,-1170764153,27512,-6932,0.259,0.40499124,0.65900004,0.776,0.59999996,0.94,93,4,0.54300004,0.31800002,-0.44000003,-3.4050002,5.7622476,0,nan,3,1,18
669393511,1537372484600321,323874008,-1170764163,28229,-6215,0.24200001,0.41228217,0.65900004,0.77400005,0.59999996,0.94,93,4,0.508,0.27100003,-0.42900002,-3.676,5.5233293,0,nan,3,1,18
669596524,1537372484800321,323874012,-1170764174,28996,-5448,0.23300001,0.3936897,0.65900004,0.77400005,0.59999996,0.94,93,4,0.53900003,0.268,-0.467,-3.913,5.3717065,0,nan,3,1,18
669797009,1537372485000321,323874017,-1170764185,29819,-4625,0.23,0.40592098,0.65900004,0.77300006,0.59999996,0.94,93,4,0.526,0.264,-0.455,-4.1470003,5.30713,0,nan,3,1,18
669997524,1537372485200321,323874022,-1170764194,30638,-3806,0.23700002,0.47294894,0.66,0.77500004,0.59999996,0.94,93,4,0.49,0.29900002,-0.38900003,-4.294,5.3326864,0,nan,3,1,18
670189026,1537372485400321,323874027,-1170764203,31455,-2990,0.24000001,0.41088015,0.66,0.776,0.59999996,0.94,93,3,0.526,0.26000002,-0.45800003,-4.2790003,5.2738395,0,nan,3,1,18
670394569,1537372485600321,323874031,-1170764212,32275,-2169,0.246,0.4877277,0.661,0.77900004,0.59999996,0.94,93,3,0.45800003,0.21100001,-0.407,-4.302,5.2396994,0,nan,3,1,18
670595512,1537372485800321,323874035,-1170764219,33112,-1332,0.26000002,0.70410085,0.66200006,0.78200006,0.59999996,0.94,93,3,0.35000002,0.24800001,-0.24700001,-4.227,5.3244205,0,nan,3,1,18
670797849,1537372486000321,323874039,-1170764224,33933,-511,0.25800002,0.63753194,0.66300005,0.78400004,0.59999996,0.94,93,3,0.35300002,0.20300001,-0.289,-4.255,5.3251753,0,nan,3,1,18
670998010,1537372486200321,323874043,-1170764230,34755,311,0.259,0.6377089,0.66400003,0.78700006,0.59999996,0.94,93,3,0.279,0.16700001,-0.223,-4.104,5.3251753,0,nan,3,1,18
671197521,1537372486400321,323874045,-1170764233,35585,1140,0.25500003,0.6378862,0.665,0.78800005,0.59999996,0.94,88,5,0.162,0.136,-0.08800001,-4.122,5.3251753,0,nan,3,1,18
671398041,1537372486600321,323874047,-1170764236,36395,1951,0.25300002,0.6380611,0.665,0.79,0.59999996,0.94,88,5,0.119,0.052,-0.10700001,-4.0680003,5.3251753,0,nan,3,1,18
671595432,1537372486800321,323874048,-1170764238,37203,2759,0.24900001,0.63823736,0.666,0.79,0.59999996,0.94,88,5,0.16800001,0.086,-0.14500001,-4.1000004,5.3251753,0,nan,3,1,18
671794618,1537372487000321,323874048,-1170764242,38060,3616,0.25,0.63841647,0.666,0.79200006,0.59999996,0.94,88,5,0.16700001,-0.004,-0.16700001,-4.1660004,5.3251753,0,nan,3,1,18
671996514,1537372487200321,323874048,-1170764243,38889,4445,0.24400002,0.63859814,0.66700006,0.79200006,0.59999996,0.94,88,5,0.033,0.030000001,-0.013,-4.2310004,5.3251753,0,nan,3,1,18
672196351,1537372487400321,323874049,-1170764244,39754,5309,0.24400002,0.63878053,0.66700006,0.79300004,0.59999996,0.94,88,5,0.032,0.031000001,-0.007,-4.249,5.3251753,0,nan,3,1,18
672396207,1537372487600321,323874049,-1170764245,40634,6190,0.24100001,0.63896656,0.66800004,0.794,0.59999996,0.94,88,5,0.012,-0.004,0.011000001,-4.333,5.3251753,0,nan,3,1,18
672594602,1537372487800321,323874049,-1170764244,41474,7030,0.25100002,0.63914806,0.669,0.79600006,0.59999996,0.94,88,5,0.058000002,0.05,0.030000001,-4.23,5.3251753,0,nan,3,1,18
672794575,1537372488000321,323874049,-1170764245,42339,7895,0.259,0.6393336,0.671,0.799,0.59999996,0.94,88,5,0.124000005,-0.033,-0.120000005,-4.322,5.3251753,0,nan,3,1,18
672999514,1537372488200321,323874048,-1170764247,43172,8728,0.25800002,0.63951755,0.671,0.80100006,0.59999996,0.94,88,5,0.025,0.025,-0.001,-4.293,5.3251753,0,nan,3,1,18
673198576,1537372488400321,323874049,-1170764246,44005,9561,0.254,0.6396989,0.67200005,0.80300003,0.59999996,0.94,88,4,0.08800001,0.046000004,0.075,-4.228,5.3251753,0,nan,3,1,18
673398623,1537372488600321,323874049,-1170764246,44826,10382,0.24800001,0.6398768,0.67200005,0.804,0.59999996,0.94,88,4,0.038000003,0.015000001,0.035,-4.15,5.3251753,0,nan,3,1,18
673598581,1537372488800321,323874048,-1170764246,45647,11203,0.245,0.64005494,0.67200005,0.80500007,0.59999996,0.94,88,4,0.115,0.053000003,0.102000006,-4.156,5.3251753,0,nan,3,1,18
673800513,1537372489000321,323874050,-1170764245,46526,12081,0.23700002,0.7658199,0.67200005,0.80500007,0.59999996,0.94,88,4,0.18400002,0.117000006,0.142,-4.196,6.08125,0,nan,3,1,18
673999514,1537372489200321,323874051,-1170764243,47383,12939,0.23400001,0.76597226,0.67200005,0.804,0.59999996,0.94,88,4,0.117000006,-0.017,0.116000004,-4.255,6.08125,0,nan,3,1,18
674203567,1537372489400321,323874050,-1170764244,48231,13787,0.23700002,0.7661253,0.671,0.804,0.59999996,0.94,88,4,0.008,0.008,0.002,-4.2730002,6.08125,0,nan,3,1,18
674405823,1537372489600321,323874050,-1170764243,49072,14628,0.24000001,0.76627505,0.671,0.80500007,0.59999996,0.94,88,4,0.016,0.013,0.010000001,-4.1850004,6.08125,0,nan,3,1,18
674603518,1537372489800321,323874050,-1170764245,49920,15476,0.246,0.7664269,0.67200005,0.808,0.59999996,0.94,88,4,0.071,-0.018000001,-0.069000006,-4.242,6.08125,0,nan,3,1,18
674803518,1537372490000321,323874050,-1170764247,50717,16273,0.24400002,0.76657563,0.67300004,0.808,0.59999996,0.94,88,4,0.083000004,0.083000004,0.003,-4.157,6.08125,0,nan,3,1,18
674998773,1537372490200321,323874052,-1170764246,51518,17073,0.24200001,0.76671994,0.67300004,0.809,0.59999996,0.94,88,4,0.133,0.09200001,0.096,-4.03,6.08125,0,nan,3,1,18
675195518,1537372490400321,323874053,-1170764246,52353,17908,0.24200001,0.76686376,0.67200005,0.81000006,0.59999996,0.94,88,5,0.149,0.104,0.106000006,-4.02,6.08125,0,nan,3,1,18
675392516,1537372490600321,323874055,-1170764246,53178,18734,0.231,0.7670112,0.67200005,0.808,0.59999996,0.94,88,5,0.062000003,0.060000002,0.014,-4.123,6.08125,0,nan,3,1,18
675596517,1537372490800321,323874056,-1170764245,54061,19616,0.22100002,0.7671582,0.671,0.80600005,0.59999996,0.94,88,5,0.21700001,-0.018000001,0.21700001,-4.1080003,6.08125,0,nan,3,1,18
675797518,1537372491000321,323874057,-1170764241,54907,20463,0.223,0.74345994,0.669,0.804,0.59999996,0.94,88,5,0.185,0.079,0.16700001,-4.1530004,0.48589912,0,nan,3,1,18
675992517,1537372491200321,323874057,-1170764240,55778,21334,0.23,0.74361145,0.66800004,0.80200005,0.59999996,0.94,88,5,0.14,0.025,0.13800001,-4.105,0.48589912,0,nan,3,1,18
676197518,1537372491400321,323874058,-1170764238,56596,22152,0.238,0.74376035,0.66700006,0.80100006,0.59999996,0.94,88,5,0.078,0.064,0.045,-4.0350003,0.48589912,0,nan,3,1,18
676398571,1537372491600321,323874058,-1170764238,57420,22975,0.24200001,0.7439144,0.66700006,0.80200005,0.59999996,0.94,88,5,0.034,0.032,0.012,-4.181,0.48589912,0,nan,3,1,18
676598607,1537372491800320,323874058,-1170764238,58238,23794,0.24000001,0.7440633,0.66700006,0.80300003,0.59999996,0.94,88,5,0.108,0.065000005,0.085,-4.04,0.48589912,0,nan,3,1,18
676802573,1537372492000320,323874059,-1170764237,59044,24600,0.23700002,0.7442113,0.666,0.80300003,0.59999996,0.94,88,5,0.018000001,0.015000001,-0.010000001,-4.0160003,0.48589912,0,nan,3,1,18
676999534,1537372492200320,323874059,-1170764237,59817,25373,0.23,0.7443558,0.665,0.80200005,0.59999996,0.94,88,5,0.012,0.006,-0.010000001,-3.9180002,0.48589912,0,nan,3,1,18
677202582,1537372492400320,323874058,-1170764239,60653,26208,0.22700001,0.74450105,0.66400003,0.80100006,0.59999996,0.94,88,4,0.048,-0.026,-0.040000003,-3.9470003,0.48589912,0,nan,3,1,18
677402643,1537372492600320,323874057,-1170764241,61515,27070,0.231,0.74465024,0.66400003,0.80100006,0.59999996,0.94,88,4,0.125,-0.125,0.003,-4.0480003,0.48589912,0,nan,3,1,18
677605074,1537372492800320,323874055,-1170764241,62331,27887,0.23400001,0.7448002,0.66300005,0.80100006,0.59999996,0.94,88,4,0.071,-0.010000001,0.071,-4.0740004,0.48589912,0,nan,3,1,18
677802680,1537372493000320,323874055,-1170764240,63173,28729,0.223,0.7449543,0.661,0.79800004,0.59999996,0.94,88,4,0.105000004,-0.09900001,-0.037,-4.182,0.48589912,0,nan,3,1,18
677989050,1537372493200320,323874054,-1170764241,63995,29551,0.24400002,0.7451023,0.66200006,0.8,0.59999996,0.94,88,4,0.09,-0.076000005,-0.049000002,-4.0210004,0.48589912,0,nan,3,1,18
678199520,1537372493400320,323874053,-1170764242,64844,30400,0.23900001,0.7452531,0.66200006,0.799,0.59999996,0.94,88,3,0.14500001,-0.074,-0.125,-4.0940003,0.48589912,0,nan,3,1,18
678398026,1537372493600320,323874052,-1170764243,65630,31186,0.24000001,0.7454044,0.66,0.799,0.59999996,0.94,88,3,0.076000005,-0.057000004,-0.051000003,-4.116,0.48589912,0,nan,3,1,18
678598007,1537372493800320,323874051,-1170764244,66462,32018,0.25,0.74555695,0.66,0.8,0.59999996,0.94,88,3,0.017,0.017,-0.002,-4.1460004,0.48589912,0,nan,3,1,18
678809517,1537372494000320,323874052,-1170764244,67260,32816,0.24800001,0.7457045,0.66,0.8,0.59999996,0.94,88,3,0.075,0.075,0.003,-4.01,0.48589912,0,nan,3,1,18
678993513,1537372494200320,323874052,-1170764244,68067,33622,0.24400002,0.7458507,0.65900004,0.8,0.59999996,0.94,88,3,0.049000002,-0.048,-0.009000001,-3.979,0.48589912,0,nan,3,1,18
679189515,1537372494400320,323874051,-1170764246,68921,34476,0.272,0.7460015,0.66200006,0.804,0.59999996,0.94,74,3,0.124000005,-0.09200001,-0.083000004,-4.1000004,0.48589912,0,nan,3,1,18
679389517,1537372494600320,323874048,-1170764249,69752,35308,0.264,0.74614024,0.666,0.80700004,0.59999996,0.94,74,3,0.179,-0.16900001,-0.057000004,-3.7700002,0.48589912,0,nan,3,1,18
679586579,1537372494800320,323874046,-1170764251,70471,36027,0.26000002,0.74625385,0.66700006,0.809,0.62,0.94,74,3,0.021000002,-0.021000002,0.001,-3.0930002,0.48589912,0,nan,3,1,17
679794566,1537372495000320,323874046,-1170764253,71077,36633,0.286,0.7463497,0.67,0.813,0.62,0.94,74,3,0.11400001,-0.033,-0.109000005,-2.6060002,0.48589912,0,nan,3,1,17
679989635,1537372495200320,323874046,-1170764256,71502,37058,0.28100002,0.746423,0.67300004,0.81700003,0.65,0.96999997,74,3,0.095000006,0.022000002,-0.09200001,-1.9930001,0.48589912,0,nan,3,1,16
680186575,1537372495400320,323874045,-1170764259,71861,37417,0.277,0.7464776,0.675,0.81900007,0.62,0.94,74,4,0.028,0.002,-0.028,-1.4840001,0.48589912,0,nan,3,1,17
680383589,1537372495600320,323874046,-1170764260,72115,37671,0.268,0.74651235,0.675,0.82000005,0.59999996,0.94,74,4,0.128,0.126,0.022000002,-0.94000006,0.48589912,0,nan,3,1,18
680589516,1537372495800320,323874049,-1170764262,72298,37854,0.25300002,0.74653506,0.67600006,0.81900007,0.62,0.95,74,4,0.22700001,0.223,-0.043,-0.573,0.48589912,0,nan,3,1,17
680789777,1537372496000320,323874053,-1170764265,72385,37941,0.24900001,0.74655265,0.67700005,0.81900007,0.59999996,0.94,74,4,0.24900001,0.23400001,-0.085,-0.40600002,0.48589912,0,nan,3,1,18
680988518,1537372496200320,323874057,-1170764266,72435,37990,0.279,0.7465628,0.68200004,0.82400006,0.59999996,0.94,74,4,0.23700002,0.21900001,0.09,-0.036000002,0.48589912,0,nan,3,1,18
681187553,1537372496400320,323874061,-1170764267,72397,37952,0.22100002,0.74657345,0.68700004,0.827,0.59999996,0.94,74,2,0.264,0.261,0.044000003,0.11800001,0.48589912,0,nan,3,1,18
681388549,1537372496600320,323874070,-1170764263,72275,37831,0.20500001,0.47022465,0.68700004,0.82900006,0.59999996,0.94,74,2,0.43400002,0.40800002,0.148,0.157,0.3867897,0,nan,3,1,18
681588581,1537372496800320,323874081,-1170764255,72151,37706,0.20600002,0.45437706,0.68700004,0.83100003,0.59999996,0.94,74,2,0.597,0.55,0.23200001,0.18100001,0.3929207,0,nan,3,1,18
681792518,1537372497000320,323874095,-1170764250,72147,37703,0.179,0.18165298,0.68600005,0.83000004,0.59999996,0.94,74,2,0.9990001,0.961,0.273,0.18300001,0.29258505,0,nan,3,1,18
681988543,1537372497200320,323874117,-1170764242,72126,37682,0.19000001,0.13427393,0.684,0.82900006,0.59999996,0.94,74,2,1.411,1.376,0.314,0.158,0.24828476,0,nan,3,1,18
682190040,1537372497400320,323874144,-1170764233,72149,37705,0.192,0.10025415,0.68200004,0.827,0.59999996,0.94,81,2,1.779,1.718,0.46300003,0.155,0.25774655,0,nan,3,1,18
682391533,1537372497600320,323874180,-1170764231,72273,37829,0.185,0.07363334,0.679,0.82400006,0.59999996,0.94,81,2,2.1910002,2.141,0.469,0.19600001,0.23032969,0,nan,3,1,18
682591514,1537372497800320,323874219,-1170764235,72457,38013,0.185,0.06447926,0.674,0.82000005,0.59999996,0.94,81,2,2.653,2.6120002,0.46500003,0.177,0.19939373,0,nan,3,1,18
682791515,1537372498000320,323874271,-1170764236,72616,38172,0.187,0.046159767,0.671,0.81600004,0.59999996,0.94,81,2,3.1510003,3.1090002,0.514,0.179,0.17561764,0,nan,3,1,18
682989514,1537372498200320,323874329,-1170764236,72717,38273,0.216,0.041581593,0.66800004,0.81200004,0.59999996,0.94,81,2,3.6360002,3.5920002,0.564,0.148,0.16425222,0,nan,3,1,18
683190570,1537372498400320,323874397,-1170764221,72687,38243,0.31,0.072715126,0.67,0.814,0.59999996,0.94,81,3,3.9110003,3.8500001,0.68700004,0.13700001,0.16757691,0,nan,3,1,18
683393515,1537372498600320,323874471,-1170764206,72637,38193,0.23600002,0.0442612,0.67300004,0.814,0.59999996,0.94,81,3,4.334,4.276,0.70600003,0.25300002,0.16461979,0,nan,3,1,18
683590574,1537372498800320,323874553,-1170764189,72579,38134,0.22800002,0.04389974,0.67300004,0.814,0.59999996,0.94,81,3,4.697,4.651,0.66200006,0.155,0.1521721,0,nan,3,1,18
683790619,1537372499000320,323874638,-1170764176,72532,38088,0.192,0.041599397,0.674,0.814,0.59999996,0.94,81,3,4.874,4.8170004,0.74100006,0.148,0.15241297,0,nan,3,1,18
683989610,1537372499200320,323874726,-1170764166,72548,38104,0.19600001,0.039000425,0.674,0.81500006,0.59999996,0.94,81,3,5.1210003,5.076,0.67700005,0.120000005,0.14107461,0,nan,3,1,18
684190577,1537372499400320,323874815,-1170764165,72715,38271,0.23200001,0.038916126,0.674,0.81500006,0.59999996,0.94,81,2,5.164,5.1060004,0.772,0.15400001,0.14594059,0,nan,3,1,18
684391515,1537372499600320,323874908,-1170764160,72794,38350,0.18200001,0.030932294,0.67300004,0.81200004,0.59999996,0.94,81,2,5.2570004,5.202,0.758,0.20600002,0.14507368,0,nan,3,1,18
684589178,1537372499800320,323875001,-1170764156,72887,38443,0.20600002,0.033040304,0.671,0.81100005,0.59999996,0.94,81,2,5.418,5.354,0.83300006,0.098000005,0.15000895,0,nan,3,1,18
684792547,1537372500000320,323875095,-1170764151,73031,38587,0.22200002,0.037450224,0.671,0.81100005,0.61,1.01,81,2,5.3450003,5.294,0.73800004,0.246,0.14432895,0,nan,3,1,17
684986598,1537372500200320,323875192,-1170764140,73030,38586,0.202,0.04195108,0.67300004,0.81500006,0.61,1.01,81,2,5.493,5.459,0.606,0.18900001,0.12769003,0,nan,3,1,17
685187550,1537372500400320,323875289,-1170764125,72986,38542,0.36800003,0.062247686,0.67800003,0.823,0.59999996,0.94,81,3,5.464,5.399,0.841,0.216,0.13703242,0,nan,3,1,18
685399582,1537372500600320,323875387,-1170764106,72923,38479,0.187,0.03514168,0.684,0.82400006,0.59999996,0.94,81,3,5.447,5.3880005,0.79300004,0.25300002,0.14411323,0,nan,3,1,18
685588514,1537372500800320,323875486,-1170764089,72908,38464,0.18100001,0.034322422,0.683,0.82500005,0.59999996,0.94,81,3,5.55,5.477,0.897,0.081,0.15441118,0,nan,3,1,18
685786718,1537372501000320,323875585,-1170764069,72894,38450,0.22200002,0.046163958,0.684,0.82800007,0.59999996,0.94,81,3,5.4690003,5.4110003,0.794,0.116000004,0.15080778,0,nan,3,1,18
685990625,1537372501200320,323875683,-1170764050,72899,38455,0.21900001,0.04814281,0.68700004,0.83300006,0.59999996,0.94,81,3,5.3180003,5.235,0.93600005,0.091000006,0.16417247,0,nan,3,1,18
686198595,1537372501400320,323875778,-1170764033,72925,38481,0.23600002,0.055419438,0.69100004,0.83800006,0.59999996,0.94,122,4,5.0070004,4.9490004,0.76000005,-0.031000001,0.15877417,0,nan,3,1,18
686397516,1537372501600320,323875864,-1170764021,72904,38460,0.16900001,0.048164975,0.693,0.83800006,0.59999996,0.94,122,4,4.545,4.499,0.642,-0.091000006,0.14880624,0,nan,3,1,18
686595871,1537372501800320,323875939,-1170764013,72926,38482,0.157,0.049453203,0.69200003,0.83800006,0.59999996,0.94,122,4,4.004,3.9680002,0.54300004,-0.177,0.1422698,0,nan,3,1,18
686797512,1537372502000320,323876003,-1170764000,72943,38499,0.185,0.0592904,0.69200003,0.83900005,0.59999996,0.94,122,4,3.482,3.4450002,0.50600004,-0.14400001,0.14383973,0,nan,3,1,18
686996517,1537372502200320,323876061,-1170763989,72972,38528,0.19700001,0.07741372,0.693,0.84200007,0.59999996,0.94,122,4,3.193,3.1690001,0.39200002,-0.109000005,0.1358676,0,nan,3,1,18
687198026,1537372502400320,323876111,-1170763979,72911,38467,0.186,0.08061291,0.693,0.84300005,0.59999996,0.94,113,3,2.677,2.6520002,0.363,-0.109000005,0.13587789,0,nan,3,1,18
687392513,1537372502600319,323876153,-1170763973,72860,38417,0.17600001,0.08939471,0.693,0.84200007,0.59999996,0.94,113,3,2.298,2.2700002,0.36200002,-0.091000006,0.14589049,0,nan,3,1,18
687599695,1537372502800319,323876189,-1170763968,72835,38391,0.18200001,0.114042945,0.693,0.84200007,0.59999996,0.94,113,3,1.8870001,1.8750001,0.21100001,-0.136,0.13288185,0,nan,3,1,18
687797519,1537372503000319,323876218,-1170763963,72851,38407,0.20300001,0.18170518,0.69500005,0.845,0.59999996,0.94,113,3,1.4000001,1.3820001,0.224,-0.047000002,0.14083235,0,nan,3,1,18
687999715,1537372503200319,323876242,-1170763958,72856,38412,0.15300001,0.17043628,0.69500005,0.84300005,0.59999996,0.94,113,3,1.0450001,1.033,0.15900001,-0.058000002,0.14727244,0,nan,3,1,18
688199688,1537372503400319,323876259,-1170763952,72837,38393,0.15900001,0.26353946,0.69200003,0.84200007,0.59999996,0.94,106,4,0.67200005,0.656,0.142,-0.004,0.16683078,0,nan,3,1,18
688398603,1537372503600319,323876271,-1170763947,72827,38383,0.16700001,0.46418494,0.69100004,0.841,0.59999996,0.94,106,4,0.43,0.416,0.11000001,0.013,0.18937571,0,nan,3,1,18
688598575,1537372503800319,323876280,-1170763940,72829,38385,0.171,0.63967675,0.689,0.83900005,0.62,0.96999997,106,4,0.27,0.23500001,0.134,0.162,0.3031635,0,nan,3,1,17
688798607,1537372504000319,323876284,-1170763934,72786,38342,0.224,0.63968915,0.68700004,0.837,0.62,0.96999997,106,4,0.149,0.048,0.141,0.24800001,0.3031635,0,nan,3,1,17
688995616,1537372504200319,323876285,-1170763927,72758,38314,0.22700001,0.63970447,0.684,0.83300006,0.62,0.96999997,106,4,0.14500001,-0.078,0.123,0.326,0.3031635,0,nan,3,1,17
689197523,1537372504400319,323876284,-1170763921,72693,38249,0.22800002,0.6397272,0.68200004,0.82900006,0.62,0.96999997,105,7,0.18900001,-0.163,0.095000006,0.49600002,0.3031635,0,nan,3,1,17
689395514,1537372504600319,323876281,-1170763916,72602,38158,0.23300001,0.5923279,0.679,0.82600003,0.62,0.96999997,105,7,0.27,-0.25100002,0.09900001,0.47900003,1.6294914,0,nan,3,1,17
689594573,1537372504800319,323876278,-1170763913,72552,38108,0.24000001,0.6876414,0.67800003,0.82500005,0.59999996,0.94,105,7,0.252,-0.24100001,0.076000005,0.41700003,2.143601,0,nan,3,1,18
689796517,1537372505000319,323876276,-1170763911,72480,38036,0.23200001,0.6876604,0.67700005,0.82400006,0.59999996,0.94,105,7,0.187,-0.177,0.061000004,0.44000003,2.143601,0,nan,3,1,18
689988586,1537372505200319,323876273,-1170763912,72389,37945,0.256,0.7600835,0.67700005,0.82600003,0.59999996,0.94,105,7,0.26200002,-0.2,-0.16900001,0.528,2.9087458,0,nan,3,1,18
690196564,1537372505400319,323876271,-1170763911,72240,37796,0.24300002,0.76010984,0.67600006,0.82600003,0.62,0.96999997,105,1,0.11100001,-0.11100001,0.009000001,0.72200006,2.9087458,0,nan,3,1,17
690392517,1537372505600319,323876270,-1170763910,72107,37664,0.24000001,0.76013345,0.67600006,0.82600003,0.62,0.96999997,105,1,0.18300001,-0.11100001,-0.14500001,0.628,2.9087458,0,nan,3,1,17
690596559,1537372505800319,323876271,-1170763911,72006,37562,0.24000001,0.7601628,0.674,0.82500005,0.59999996,0.94,105,1,0.057000004,-0.021000002,-0.053000003,0.814,2.9087458,0,nan,3,1,18
690804565,1537372506000319,323876272,-1170763909,71819,37375,0.24200001,0.6417006,0.671,0.823,0.59999996,0.94,105,1,0.261,-0.098000005,0.24200001,0.952,2.3535004,0,nan,3,1,18
690994153,1537372506200319,323876269,-1170763905,71621,37178,0.23900001,0.6417439,0.669,0.822,0.59999996,0.94,105,1,0.25500003,-0.18800001,0.172,0.97900003,2.3535004,0,nan,3,1,18
691197517,1537372506400319,323876265,-1170763902,71410,36966,0.21000001,0.2936492,0.666,0.82000005,0.59999996,0.94,98,4,0.523,0.238,0.46600002,0.89500004,1.3160996,0,nan,3,1,18
691395623,1537372506600319,323876266,-1170763894,71203,36759,0.21100001,0.2688854,0.66300005,0.81700003,0.59999996,0.94,98,4,0.56600004,0.23700002,0.514,0.97300005,1.2201903,0,nan,3,1,18
691598562,1537372506800319,323876268,-1170763886,71089,36645,0.20400001,0.20405184,0.66,0.81600004,0.59999996,0.94,98,4,0.75200003,0.24100001,0.712,0.9760001,1.2359018,0,nan,3,1,18
691800291,1537372507000319,323876266,-1170763873,70943,36499,0.2,0.1499243,0.65800005,0.81600004,0.59999996,0.94,98,4,1.011,0.15200001,1.0,0.933,1.3554192,0,nan,3,1,18
691997514,1537372507200319,323876265,-1170763856,70873,36430,0.165,0.13423064,0.656,0.81500006,0.59999996,0.94,98,4,1.182,-0.001,1.182,0.717,1.4756488,0,nan,3,1,18
692205519,1537372507400319,323876263,-1170763830,70743,36300,0.25,0.1732398,0.657,0.81700003,0.59999996,0.94,98,4,1.3740001,-0.1,1.3700001,0.70500004,1.5388033,0,nan,3,1,18
692397529,1537372507600319,323876258,-1170763796,70662,36218,0.17600001,0.09023247,0.657,0.818,0.62,0.95,98,4,1.8110001,-0.14,1.8060001,0.38900003,1.624752,0,nan,3,1,17
692594574,1537372507800319,323876252,-1170763754,70636,36192,0.187,0.06842982,0.656,0.81900007,0.62,0.96999997,98,4,2.3230002,-0.158,2.318,0.29000002,1.633674,0,nan,3,1,17
692797517,1537372508000319,323876248,-1170763709,70746,36303,0.172,0.07007671,0.65500003,0.818,0.59999996,0.94,98,4,2.6460001,-0.25800002,2.634,0.058000002,1.6508927,0,nan,3,1,18
692994579,1537372508200319,323876246,-1170763653,70885,36441,0.18800001,0.060268834,0.65400004,0.81700003,0.59999996,0.94,98,4,3.16,-0.11800001,3.1580002,-0.079,1.625921,0,nan,3,1,18
693199575,1537372508400319,323876242,-1170763585,71001,36557,0.215,0.057777375,0.65400004,0.818,0.59999996,0.94,98,6,3.5210001,-0.24200001,3.5130002,-0.075,1.6332077,0,nan,3,1,18
693395516,1537372508600319,323876239,-1170763505,71135,36691,0.172,0.04575712,0.65400004,0.81700003,0.59999996,0.94,98,6,4.086,-0.148,4.084,-0.163,1.6167722,0,nan,3,1,18
693595515,1537372508800319,323876239,-1170763413,71238,36794,0.16700001,0.043226045,0.652,0.81500006,0.59999996,0.94,98,6,4.446,-0.049000002,4.446,-0.238,1.5974036,0,nan,3,1,18
693798805,1537372509000319,323876241,-1170763315,71317,36874,0.171,0.03641123,0.651,0.814,0.59999996,0.94,98,6,4.747,0.019000001,4.747,-0.25100002,1.5785347,0,nan,3,1,18
693995515,1537372509200319,323876241,-1170763209,71364,36920,0.209,0.037715167,0.651,0.81500006,0.59999996,0.94,98,6,5.012,-0.003,5.012,-0.321,1.5748,0,nan,3,1,18
694196522,1537372509400319,323876243,-1170763098,71408,36964,0.15,0.031280663,0.64900005,0.813,0.59999996,0.94,98,1,5.0790005,0.047000002,5.0790005,-0.30600002,1.5664079,0,nan,3,1,18
694397832,1537372509600319,323876244,-1170762991,71520,37076,0.17400001,0.033389367,0.647,0.813,0.59999996,0.94,98,1,5.1580005,0.10300001,5.157,-0.36100003,1.5581735,0,nan,3,1,18
694608564,1537372509800319,323876245,-1170762879,71643,37199,0.157,0.032290857,0.646,0.81100005,0.59999996,0.94,98,1,5.2840004,0.124000005,5.2830005,-0.3,1.5519477,0,nan,3,1,18
694794727,1537372510000319,323876249,-1170762767,71794,37351,0.16100001,0.031868838,0.64400005,0.809,0.59999996,0.94,98,1,5.3190002,0.194,5.3160005,-0.374,1.541953,0,nan,3,1,18
694995824,1537372510200319,323876252,-1170762658,71952,37509,0.16900001,0.029071424,0.642,0.808,0.59999996,0.94,98,1,5.3510003,0.25500003,5.3450003,-0.37100002,1.5304785,0,nan,3,1,18
695189515,1537372510400319,323876255,-1170762545,72102,37658,0.164,0.030473797,0.64100003,0.80600005,0.59999996,0.94,98,4,5.4150004,0.19800001,5.412,-0.45800003,1.5325826,0,nan,3,1,18
695398130,1537372510600319,323876259,-1170762430,72196,37753,0.18,0.032954957,0.64000005,0.80600005,0.62,0.95,98,4,5.4090004,0.24000001,5.4040003,-0.35000002,1.5293499,0,nan,3,1,17
695597515,1537372510800319,323876263,-1170762316,72294,37851,0.157,0.02935347,0.638,0.804,0.59999996,0.94,98,4,5.4540005,0.298,5.446,-0.284,1.5211868,0,nan,3,1,18
695795513,1537372511000319,323876267,-1170762201,72364,37921,0.20500001,0.036071938,0.63900006,0.80600005,0.59999996,0.94,98,4,5.446,0.28100002,5.439,-0.23900001,1.5202452,0,nan,3,1,18
695998572,1537372511200319,323876271,-1170762085,72418,37975,0.172,0.031752773,0.638,0.80500007,0.59999996,0.94,98,4,5.3900003,0.277,5.3830004,-0.20700002,1.5197412,0,nan,4,1,18
696196270,1537372511400319,323876275,-1170761968,72436,37992,0.16000001,0.03079773,0.63600004,0.80300003,0.59999996,0.94,98,5,5.406,0.25500003,5.4,-0.07,1.5219657,0,nan,4,1,18
696394659,1537372511600319,323876279,-1170761851,72453,38010,0.16100001,0.031635486,0.63500005,0.80100006,0.59999996,0.94,98,5,5.431,0.28100002,5.4240003,0.029000001,1.52035,0,nan,4,1,18
696589517,1537372511800319,323876283,-1170761736,72450,38007,0.303,0.045747172,0.63600004,0.804,0.59999996,0.94,98,5,5.3690004,0.272,5.3620005,0.052,1.5202854,0,nan,4,1,18
696797195,1537372512000319,323876287,-1170761620,72439,37995,0.29900002,0.042202756,0.64100003,0.808,0.59999996,0.94,98,5,5.4500003,0.24000001,5.445,0.047000002,1.5239879,0,nan,4,1,18
696995611,1537372512200319,323876290,-1170761505,72410,37966,0.34100002,0.04920048,0.646,0.814,0.59999996,0.94,98,5,5.348,0.119,5.346,0.22200002,1.5352844,0,nan,4,1,18
697198629,1537372512400319,323876293,-1170761387,72331,37887,0.14400001,0.029856473,0.648,0.809,0.59999996,0.94,88,4,5.3560004,0.16100001,5.354,0.27600002,1.5394152,0,nan,4,1,18
697398600,1537372512600319,323876296,-1170761270,72297,37854,0.14600001,0.02945976,0.64400005,0.80600005,0.59999996,0.94,88,4,5.368,0.112,5.367,0.272,1.5454592,0,nan,4,1,18
697598585,1537372512800319,323876299,-1170761155,72274,37831,0.18400002,0.032582503,0.643,0.80600005,0.59999996,0.94,88,4,5.3980002,0.16100001,5.3950005,0.23400001,1.5431381,0,nan,4,1,18
697798575,1537372513000319,323876303,-1170761037,72259,37816,0.18100001,0.029007893,0.64100003,0.80600005,0.59999996,0.94,88,4,5.4630003,0.23400001,5.458,0.19900002,1.5337436,0,nan,4,1,18
697999578,1537372513200318,323876306,-1170760920,72231,37788,0.20400001,0.032309186,0.64000005,0.80700004,0.59999996,0.94,88,4,5.346,0.066,5.346,0.08400001,1.5465637,0,nan,4,1,18
698191513,1537372513400318,323876308,-1170760802,72188,37744,0.201,0.03183969,0.64000005,0.808,0.59999996,0.94,88,9,5.472,0.172,5.4700003,0.0050000004,1.5425085,0,nan,4,1,18
698400515,1537372513600318,323876311,-1170760684,72137,37694,0.16600001,0.02898311,0.638,0.80700004,0.62,0.95,88,9,5.4550004,0.089,5.4550004,0.041,1.5498619,0,nan,4,1,17
698600515,1537372513800318,323876313,-1170760565,72138,37694,0.141,0.0295287,0.63500005,0.804,0.59999996,0.94,88,9,5.4890003,0.065000005,5.4880004,0.0,1.5550424,0,nan,4,1,18
698803566,1537372514000318,323876314,-1170760445,72118,37674,0.136,0.029851936,0.632,0.80100006,0.59999996,0.94,88,9,5.5330005,0.033,5.5330005,-0.123,1.5606294,0,nan,4,1,18
699003517,1537372514200318,323876316,-1170760325,72107,37664,0.187,0.029773396,0.629,0.80100006,0.59999996,0.94,88,9,5.538,0.13100001,5.5360003,-0.208,1.5528322,0,nan,4,1,18
699199518,1537372514400318,323876319,-1170760205,72118,37674,0.18900001,0.029957179,0.62700003,0.8,0.59999996,0.94,88,5,5.4940004,-0.016,5.4940004,-0.126,1.564726,0,nan,4,1,18
699399610,1537372514600318,323876321,-1170760086,72119,37676,0.192,0.0299769,0.625,0.8,0.59999996,0.94,88,5,5.491,-0.011000001,5.491,-0.21700001,1.5693748,0,nan,4,1,18
699599534,1537372514800318,323876323,-1170759966,72123,37679,0.18100001,0.028668428,0.623,0.799,0.59999996,0.94,88,5,5.4870005,0.033,5.4870005,-0.15900001,1.5666821,0,nan,4,1,18
699802616,1537372515000318,323876325,-1170759846,72105,37662,0.16100001,0.028385336,0.62,0.79800004,0.59999996,0.94,88,5,5.4760003,0.0050000004,5.4760003,-0.113000005,1.5685886,0,nan,4,1,18
700001514,1537372515200318,323876327,-1170759726,72099,37656,0.16800001,0.029023428,0.61800003,0.79700005,0.59999996,0.94,88,5,5.465,-0.034,5.465,-0.047000002,1.5733774,0,nan,4,1,18
700200518,1537372515400318,323876328,-1170759607,72068,37624,0.141,0.028971765,0.614,0.794,0.59999996,0.94,89,5,5.4080005,0.010000001,5.4080005,-0.066,1.5708479,0,nan,4,1,18
700398715,1537372515600318,323876328,-1170759489,72048,37604,0.15200001,0.02983361,0.611,0.79200006,0.59999996,0.94,89,5,5.451,-0.014,5.451,-0.112,1.5722967,0,nan,4,1,18
700599722,1537372515800318,323876329,-1170759370,72041,37598,0.13900001,0.029494317,0.60800004,0.78900003,0.59999996,0.94,89,5,5.505,0.0050000004,5.505,-0.202,1.5709188,0,nan,4,1,18
700794578,1537372516000318,323876330,-1170759250,72039,37596,0.14500001,0.031026715,0.606,0.78700006,0.59999996,0.94,89,5,5.4810004,-0.034,5.4810004,-0.051000003,1.574293,0,nan,4,1,18
701002570,1537372516200318,323876330,-1170759133,72040,37597,0.16600001,0.03188053,0.60400003,0.78700006,0.59999996,0.94,89,5,5.4830003,-0.058000002,5.4830003,-0.074,1.5782208,0,nan,4,1,18
701202564,1537372516400318,323876330,-1170759016,72042,37599,0.18100001,0.03229976,0.60300004,0.786,0.59999996,0.94,89,9,5.511,-0.031000001,5.511,-0.018000001,1.5772284,0,nan,4,1,18
701402572,1537372516600318,323876330,-1170758899,72006,37563,0.141,0.028233841,0.6,0.78200006,0.59999996,0.94,89,9,5.3890004,-0.017,5.3890004,0.05,1.5751245,0,nan,4,1,18
701600517,1537372516800318,323876330,-1170758783,71978,37535,0.149,0.028784318,0.597,0.78000003,0.59999996,0.94,89,9,5.427,0.009000001,5.427,0.080000006,1.5717139,0,nan,4,1,18
701799532,1537372517000318,323876330,-1170758668,71977,37534,0.149,0.028786587,0.595,0.77900004,0.59999996,0.94,89,9,5.458,-0.040000003,5.458,0.089,1.5754167,0,nan,4,1,18
702002573,1537372517200318,323876329,-1170758554,71953,37509,0.19900002,0.033379942,0.59400004,0.78000003,0.59999996,0.94,89,9,5.3750005,-0.112,5.374,0.052,1.5835745,0,nan,4,1,18
702202609,1537372517400318,323876327,-1170758439,71920,37477,0.16600001,0.02979975,0.59300005,0.77800006,0.59999996,0.94,89,8,5.465,0.011000001,5.465,0.049000002,1.5745274,0,nan,4,1,18
702399541,1537372517600318,323876328,-1170758317,71950,37507,0.133,0.029103886,0.59000003,0.77500004,0.59999996,0.94,89,8,5.393,-0.040000003,5.393,0.21700001,1.5766252,0,nan,4,1,18
702600544,1537372517800318,323876327,-1170758203,71905,37462,0.21300001,0.03424964,0.59000003,0.777,0.59999996,0.94,89,8,5.36,-0.116000004,5.359,0.157,1.5844065,0,nan,4,1,18
702810601,1537372518000318,323876327,-1170758087,71880,37436,0.21100001,0.032684952,0.591,0.77800006,0.59999996,0.94,89,8,5.4090004,-0.029000001,5.4090004,0.11000001,1.5796381,0,nan,4,1,18
702998575,1537372518200318,323876326,-1170757973,71847,37404,0.19100001,0.029756641,0.59000003,0.77900004,0.59999996,0.94,89,8,5.4430003,-0.063,5.4420004,0.044000003,1.5812736,0,nan,4,1,18
703203575,1537372518400318,323876325,-1170757857,71790,37347,0.157,0.0291641,0.588,0.77900004,0.59999996,0.94,89,3,5.3960004,-0.038000003,5.3960004,0.042000003,1.5792434,0,nan,4,1,18
703394668,1537372518600318,323876325,-1170757742,71755,37312,0.17600001,0.029556101,0.587,0.781,0.59999996,0.94,89,3,5.3420005,-0.039,5.341,-0.024,1.5786216,0,nan,4,1,18
703602922,1537372518800318,323876324,-1170757630,71733,37290,0.20400001,0.033365283,0.586,0.78400004,0.59999996,0.94,89,3,5.326,-0.048,5.326,-0.013,1.5792509,0,nan,4,1,18
703802871,1537372519000318,323876322,-1170757516,71755,37312,0.17600001,0.029607764,0.58500004,0.785,0.59999996,0.94,89,3,5.432,-0.057000004,5.432,-0.101,1.5804588,0,nan,4,1,18
704002870,1537372519200318,323876319,-1170757403,71758,37315,0.17400001,0.029146647,0.58400005,0.786,0.59999996,0.94,89,3,5.3820004,-0.034,5.3820004,-0.041,1.5784893,0,nan,4,1,18
704202740,1537372519400318,323876318,-1170757289,71771,37328,0.172,0.029172303,0.582,0.786,0.59999996,0.94,89,4,5.3510003,-0.033,5.3510003,-0.13100001,1.5776582,0,nan,4,1,18
704402983,1537372519600318,323876317,-1170757171,71851,37408,0.14500001,0.03050399,0.58000004,0.78400004,0.59999996,0.94,89,4,5.3970003,-0.056,5.3970003,-0.25100002,1.579647,0,nan,4,1,18
704609590,1537372519800318,323876318,-1170757050,71975,37532,0.15300001,0.03223675,0.57900006,0.78300005,0.64,1.01,89,4,5.4410005,-0.018000001,5.4410005,-0.28100002,1.576657,0,nan,4,1,16
704804359,1537372520000318,323876318,-1170756931,72056,37613,0.15400001,0.03195017,0.578,0.78200006,0.59999996,0.94,89,4,5.4290004,-0.011000001,5.4290004,-0.40800002,1.5744938,0,nan,4,1,18
704998586,1537372520200318,323876319,-1170756814,72103,37660,0.172,0.031396724,0.578,0.78300005,0.59999996,0.94,89,4,5.4820004,0.053000003,5.4810004,-0.41400003,1.5668215,0,nan,3,1,18
705194569,1537372520400318,323876320,-1170756694,72209,37766,0.185,0.032337632,0.57900006,0.78300005,0.59999996,0.94,89,2,5.55,0.0050000004,5.55,-0.54700005,1.568526,0,nan,3,1,18
705394573,1537372520600318,323876322,-1170756575,72254,37811,0.19100001,0.032154374,0.58000004,0.78300005,0.59999996,0.94,89,2,5.386,0.020000001,5.386,-0.47100002,1.5676774,0,nan,3,1,18
705595516,1537372520800318,323876324,-1170756458,72346,37903,0.187,0.03227969,0.58000004,0.78300005,0.59999996,0.94,89,2,5.419,0.089,5.419,-0.526,1.560218,0,nan,3,1,18
705794606,1537372521000318,323876326,-1170756343,72455,38012,0.22700001,0.036072288,0.582,0.785,0.59999996,0.94,89,2,5.3970003,0.029000001,5.3970003,-0.51100004,1.562851,0,nan,3,1,18
705989514,1537372521200318,323876326,-1170756228,72506,38063,0.194,0.033582054,0.58400005,0.785,0.63,1.0,89,2,5.3650002,0.044000003,5.3650002,-0.44700003,1.5627216,0,nan,3,1,17
706194610,1537372521400318,323876327,-1170756110,72614,38171,0.163,0.032569937,0.58400005,0.78400004,0.59999996,0.94,89,2,5.427,-0.022000002,5.427,-0.36400002,1.5696789,0,nan,3,1,18
706399559,1537372521600318,323876327,-1170755995,72687,38244,0.18200001,0.03287083,0.58500004,0.785,0.59999996,0.94,89,2,5.3580003,0.017,5.3580003,-0.38300002,1.5684834,0,nan,3,1,18
706597517,1537372521800318,323876327,-1170755879,72741,38298,0.18200001,0.032907307,0.586,0.786,0.59999996,0.94,89,2,5.4290004,-0.039,5.4290004,-0.386,1.5738046,0,nan,3,1,18
706800519,1537372522000318,323876327,-1170755762,72840,38397,0.149,0.03218387,0.586,0.785,0.59999996,0.94,89,2,5.419,-0.105000004,5.418,-0.38300002,1.5832019,0,nan,3,1,18
706993515,1537372522200318,323876326,-1170755646,72877,38434,0.148,0.03212697,0.58500004,0.78400004,0.59999996,0.94,89,2,5.352,-0.034,5.352,-0.163,1.5797465,0,nan,3,1,18
707191553,1537372522400318,323876326,-1170755531,72908,38465,0.298,0.04932998,0.588,0.78900003,0.59999996,0.94,84,3,5.432,-0.003,5.432,-0.202,1.5767996,0,nan,3,1,18
707390570,1537372522600318,323876325,-1170755416,72929,38486,0.23700002,0.04044399,0.59400004,0.795,0.59999996,0.94,84,3,5.4230003,-0.075,5.4220004,0.024,1.5816445,0,nan,3,1,18
707596491,1537372522800318,323876320,-1170755306,72994,38551,0.20500001,0.033791494,0.597,0.799,0.59999996,0.94,84,3,5.392,0.025,5.392,-0.032,1.5719231,0,nan,3,1,18
707790679,1537372523000318,323876319,-1170755192,73011,38568,0.215,0.036197953,0.59900004,0.804,0.59999996,0.94,84,3,5.413,-0.013,5.413,0.11000001,1.572557,0,nan,3,1,18
707989525,1537372523200318,323876320,-1170755077,72998,38555,0.165,0.033843853,0.6,0.804,0.59999996,0.94,84,3,5.3690004,0.098000005,5.368,0.08800001,1.5608414,0,nan,3,1,18
708186573,1537372523400318,323876321,-1170754958,73044,38601,0.172,0.03298009,0.59900004,0.804,0.59999996,0.94,84,3,5.3750005,0.011000001,5.3750005,0.23200001,1.5653403,0,nan,3,1,18
708386589,1537372523600318,323876322,-1170754839,73103,38660,0.18800001,0.032036215,0.59900004,0.804,0.59999996,0.94,84,3,5.34,0.004,5.34,0.24000001,1.5680374,0,nan,3,1,18
708591514,1537372523800317,323876324,-1170754720,73133,38690,0.18200001,0.03344103,0.59900004,0.80500007,0.59999996,0.94,84,3,5.327,0.052,5.326,0.31,1.564272,0,nan,3,1,18
708798672,1537372524000317,323876325,-1170754604,73098,38655,0.20400001,0.03450568,0.6,0.80600005,0.59999996,0.94,84,3,5.373,0.012,5.373,0.37300003,1.5666286,0,nan,3,1,18
708992514,1537372524200317,323876325,-1170754489,73053,38611,0.15100001,0.030832287,0.6,0.80600005,0.59999996,0.94,84,3,5.3880005,0.054,5.3880005,0.39400002,1.5630193,0,nan,3,1,18
709189518,1537372524400317,323876326,-1170754373,73007,38564,0.171,0.03314729,0.6,0.80600005,0.61,1.01,84,1,5.315,0.020000001,5.315,0.453,1.5651461,0,nan,3,1,17
709392563,1537372524600317,323876327,-1170754259,72940,38498,0.24900001,0.035327904,0.601,0.81000006,0.61,1.01,84,1,5.3750005,0.040000003,5.3750005,0.404,1.5641661,0,nan,3,1,17
709591513,1537372524800317,323876328,-1170754146,72852,38409,0.178,0.031399168,0.60300004,0.81100005,0.61,1.01,84,1,5.287,0.094000004,5.2860003,0.34100002,1.5573511,0,nan,3,1,17
709790131,1537372525000317,323876331,-1170754036,72793,38350,0.18300001,0.039695766,0.60300004,0.81200004,0.61,1.01,84,1,4.979,0.17400001,4.9760003,0.28,1.5478243,0,nan,3,1,17
709991526,1537372525200317,323876335,-1170753932,72760,38317,0.148,0.03503242,0.60300004,0.81100005,0.59999996,0.94,84,1,4.6670003,0.18200001,4.663,0.39600003,1.5381573,0,nan,3,1,18
710191517,1537372525400317,323876338,-1170753837,72713,38271,0.19700001,0.043430597,0.60200006,0.81200004,0.59999996,0.94,84,3,4.235,0.14600001,4.2330003,0.259,1.5373273,0,nan,3,1,18
710392515,1537372525600317,323876341,-1170753752,72608,38165,0.16700001,0.0487261,0.60200006,0.81100005,0.59999996,0.94,84,3,3.8730001,0.127,3.8710003,0.41400003,1.5376899,0,nan,3,1,18
710592514,1537372525800317,323876343,-1170753674,72546,38103,0.15,0.051744122,0.60200006,0.81000006,0.59999996,0.94,84,3,3.3910003,0.15300001,3.387,0.18800001,1.5318005,0,nan,3,1,18
710792513,1537372526000317,323876348,-1170753607,72470,38027,0.171,0.06420368,0.601,0.809,0.59999996,0.94,84,3,2.9670002,0.256,2.956,0.467,1.5125028,0,nan,3,1,18
710986768,1537372526200317,323876353,-1170753550,72328,37886,0.19800001,0.08057521,0.601,0.809,0.59999996,0.94,84,3,2.411,0.31800002,2.39,0.60800004,1.4831632,0,nan,3,1,18
711190023,1537372526400317,323876359,-1170753507,72163,37720,0.24200001,0.12665208,0.60400003,0.81100005,0.59999996,0.94,84,3,1.9290001,0.374,1.8930001,0.554,1.4518596,0,nan,3,1,18
711394614,1537372526600317,323876364,-1170753476,72029,37586,0.18200001,0.13938688,0.605,0.809,0.59999996,0.94,84,3,1.4280001,0.31300002,1.393,0.67800003,1.4054893,0,nan,3,1,18
711591770,1537372526800317,323876368,-1170753451,71888,37445,0.261,0.23312081,0.609,0.81200004,0.59999996,0.94,84,3,1.1780001,0.266,1.148,0.55300003,1.3889494,0,nan,3,1,18
711793517,1537372527000317,323876375,-1170753435,71763,37320,0.209,0.26343718,0.61200005,0.813,0.59999996,0.94,84,3,0.74500006,0.42800003,0.609,0.492,1.1996316,0,nan,3,1,18
711991685,1537372527200317,323876386,-1170753427,71711,37268,0.28800002,0.30603403,0.61600006,0.81700003,0.59999996,0.94,84,3,0.855,0.813,0.266,0.33200002,0.8234222,0,nan,3,1,18
712194579,1537372527400317,323876403,-1170753425,71662,37219,0.282,0.27596778,0.623,0.822,0.59999996,0.94,84,1,1.039,1.0370001,0.069000006,0.36800003,0.4056583,0,nan,3,1,18
712397620,1537372527600317,323876426,-1170753427,71608,37165,0.27800003,0.16154557,0.629,0.82600003,0.59999996,0.94,84,1,1.59,1.59,-0.035,0.126,0.08716593,0,nan,3,1,18
712589515,1537372527800317,323876459,-1170753430,71609,37166,0.30100003,0.14138319,0.63600004,0.83100003,0.59999996,0.94,84,1,2.043,2.0400002,-0.115,-0.015000001,0.005679825,0,nan,3,1,18
712789518,1537372528000317,323876499,-1170753435,71612,37169,0.246,0.09236666,0.64100003,0.83300006,0.59999996,0.94,84,1,2.3930001,2.3890002,-0.134,-0.09900001,6.245393,0,nan,3,1,18
712990570,1537372528200317,323876547,-1170753440,71639,37196,0.185,0.05672372,0.642,0.83000004,0.59999996,0.94,84,1,2.8860002,2.8830001,-0.116000004,-0.162,6.243706,0,nan,3,1,18
713187516,1537372528400317,323876604,-1170753443,71657,37215,0.26000002,0.06096016,0.643,0.83100003,0.59999996,0.94,84,2,3.4160001,3.4140003,-0.12100001,-0.119,6.245684,0,nan,3,1,18
713388966,1537372528600317,323876669,-1170753447,71696,37253,0.29000002,0.06819943,0.647,0.83500004,0.59999996,0.94,84,2,3.8150003,3.8130002,-0.132,-0.24000001,6.246954,0,nan,3,1,18
713587547,1537372528800317,323876743,-1170753447,71740,37297,0.32200003,0.07454161,0.65400004,0.84000003,0.59999996,0.94,84,2,4.387,4.386,0.07700001,-0.22600001,6.272184,0,nan,3,1,18
713787564,1537372529000317,323876823,-1170753448,71789,37346,0.29700002,0.061993044,0.66300005,0.846,0.59999996,0.94,84,2,4.544,4.544,-0.023000002,-0.19700001,6.2757673,0,nan,3,1,18
713989893,1537372529200317,323876907,-1170753448,71850,37407,0.23600002,0.048589267,0.66800004,0.84700006,0.62,0.95,84,2,4.855,4.855,0.016,-0.286,6.2826223,0,nan,3,1,17
714195517,1537372529400317,323876998,-1170753445,71958,37516,0.21900001,0.035837542,0.669,0.84300005,0.62,0.95,84,3,5.085,5.0820003,0.19100001,-0.209,0.025092771,0,nan,3,1,17
714391519,1537372529600317,323877092,-1170753441,72098,37655,0.24800001,0.03942716,0.671,0.84300005,0.59999996,0.94,84,3,5.3180003,5.3180003,0.074,-0.39100003,0.019490091,0,nan,3,1,18
714591516,1537372529800317,323877189,-1170753438,72186,37743,0.185,0.031950343,0.671,0.84200007,0.59999996,0.94,84,3,5.4560003,5.4550004,0.10700001,-0.252,0.01953896,0,nan,3,1,18
714804574,1537372530000317,323877287,-1170753435,72228,37785,0.254,0.051474992,0.674,0.84400004,0.59999996,0.94,84,3,5.432,5.431,0.11000001,-0.163,0.019749273,0,nan,3,1,18
714995514,1537372530200317,323877387,-1170753432,72274,37832,0.22500001,0.03777084,0.67700005,0.845,0.59999996,0.94,84,3,5.6210003,5.6210003,0.055000003,-0.051000003,0.013044939,0,nan,3,1,18
715191342,1537372530400317,323877490,-1170753430,72292,37849,0.19900002,0.035697915,0.679,0.84400004,0.59999996,0.94,84,2,5.6800003,5.6790004,0.053000003,-0.024,0.010915463,0,nan,3,1,18
715388546,1537372530600317,323877593,-1170753428,72297,37855,0.19700001,0.040160723,0.68100005,0.846,0.59999996,0.94,84,2,5.681,5.681,-0.038000003,0.007,0.00221203,0,nan,3,1,18
715588513,1537372530800317,323877696,-1170753429,72291,37849,0.333,0.060470942,0.68600005,0.85200006,0.62,0.95,84,2,5.7330003,5.7330003,-0.079,-0.024,6.2798834,0,nan,3,1,17
715787516,1537372531000317,323877800,-1170753431,72310,37868,0.20700002,0.036281902,0.69100004,0.85300004,0.62,0.96,84,2,5.749,5.747,-0.143,0.033,6.2637253,0,nan,3,1,17
715989169,1537372531200317,323877906,-1170753435,72346,37904,0.19800001,0.035080068,0.69200003,0.85400003,0.62,0.96,84,2,5.7440004,5.7400002,-0.22100002,0.085,6.252836,0,nan,3,1,17
716190604,1537372531400317,323878011,-1170753439,72343,37901,0.21700001,0.044949904,0.69500005,0.85800004,0.64,0.96,84,3,5.8120003,5.808,-0.22000001,0.11100001,6.2495875,0,nan,3,1,16
716388210,1537372531600317,323878119,-1170753445,72361,37918,0.178,0.037668567,0.69600004,0.859,0.64,0.96,84,3,5.834,5.8240004,-0.33200002,0.055000003,6.235007,0,nan,3,1,16
716583673,1537372531800317,323878224,-1170753451,72352,37910,0.254,0.052369997,0.69900006,0.864,0.62,0.96,84,3,5.71,5.7040005,-0.26000002,0.055000003,6.236022,0,nan,3,1,17
716789891,1537372532000317,323878328,-1170753456,72310,37868,0.25,0.044929832,0.703,0.86800003,0.62,0.96,84,3,5.8550005,5.8490005,-0.25500003,0.18,6.2382197,0,nan,3,1,17
716989928,1537372532200317,323878434,-1170753462,72241,37799,0.23500001,0.046125907,0.707,0.87000006,0.64,0.96,84,3,5.801,5.795,-0.27100003,0.29700002,6.2372947,0,nan,3,1,16
717189946,1537372532400317,323878539,-1170753466,72173,37731,0.26900002,0.057464786,0.711,0.87600005,0.64,0.96,85,2,5.7970004,5.7970004,0.011000001,0.437,6.257657,0,nan,3,1,16
717389844,1537372532600317,323878645,-1170753467,72130,37687,0.282,0.050233018,0.71800005,0.88100004,0.64,0.96,85,2,5.951,5.9410005,-0.351,0.569,6.2379494,0,nan,3,1,16
717592555,1537372532800317,323878754,-1170753466,72164,37722,0.185,0.035366476,0.72,0.883,0.65,1.04,85,2,5.8560004,5.8490005,-0.287,0.42400002,6.23528,0,nan,3,1,16
717794562,1537372533000317,323878861,-1170753471,72067,37624,0.26200002,0.053196758,0.72400004,0.88900006,0.64,0.96,85,2,5.9350004,5.933,-0.141,0.47200003,6.2439303,0,nan,3,1,16
717990020,1537372533200317,323878968,-1170753474,71943,37501,0.25100002,0.04755708,0.72900003,0.89300007,0.62,0.96,85,2,5.892,5.8900003,-0.134,0.49300003,6.253575,0,nan,3,1,17
718189514,1537372533400317,323879075,-1170753479,71835,37393,0.273,0.046849694,0.734,0.89800006,0.64,0.96,85,2,5.946,5.9370003,-0.321,0.60300004,6.240329,0,nan,3,1,16
718389516,1537372533600317,323879183,-1170753482,71756,37313,0.32700002,0.061815545,0.74,0.906,0.62,0.96,85,2,5.9360003,5.9360003,0.012,0.38500002,6.258154,0,nan,3,1,17
718590043,1537372533800317,323879290,-1170753485,71651,37208,0.18900001,0.033886265,0.744,0.90500003,0.62,0.96,85,2,5.9420004,5.939,-0.19100001,0.42000002,6.252542,0,nan,3,1,17
718789518,1537372534000317,323879397,-1170753492,71561,37119,0.17,0.031143479,0.74200004,0.90300006,0.62,0.96,85,2,5.9140005,5.912,-0.16000001,0.22900002,6.254737,0,nan,3,1,17
718989515,1537372534200316,323879501,-1170753496,71506,37063,0.264,0.053419463,0.74500006,0.90700006,0.62,0.96,85,2,5.7390003,5.736,-0.162,0.216,6.2548113,0,nan,3,1,17
719189609,1537372534400316,323879606,-1170753499,71463,37021,0.17600001,0.029640576,0.74500006,0.90300006,0.62,0.96,85,2,5.8160005,5.815,-0.11100001,0.057000004,6.262096,0,nan,3,1,17
719388173,1537372534600316,323879708,-1170753503,71378,36935,0.18100001,0.030750431,0.74300003,0.89900005,0.62,0.96,85,2,5.7120004,5.7120004,-0.060000002,0.201,6.268005,0,nan,3,1,17
719590567,1537372534800316,323879810,-1170753504,71344,36902,0.25500003,0.05070321,0.74600005,0.90200007,0.62,0.96,85,2,5.631,5.63,-0.133,0.13800001,6.2652354,0,nan,3,1,17
719789816,1537372535000316,323879916,-1170753512,71304,36862,0.158,0.030475367,0.744,0.896,0.62,0.96,85,2,5.6390004,5.6390004,0.014,0.148,6.2807345,0,nan,3,1,17
720003520,1537372535200316,323880018,-1170753516,71250,36808,0.171,0.034080867,0.74200004,0.89500004,0.65,1.01,85,2,5.6250005,5.6250005,0.040000003,-0.128,0.0025150194,0,nan,3,1,16
720191516,1537372535400316,323880118,-1170753518,71240,36798,0.202,0.041362207,0.74200004,0.896,0.62,0.96,85,2,5.5860004,5.5860004,-0.016,-0.094000004,3.1590458e-05,0,nan,3,1,17
720391513,1537372535600316,323880219,-1170753521,71279,36837,0.23300001,0.050335467,0.74500006,0.89900005,0.62,0.96,85,2,5.505,5.505,0.004,-0.20700002,0.0003717551,0,nan,3,1,17
720592570,1537372535800316,323880316,-1170753521,71265,36823,0.21000001,0.042141844,0.74700004,0.901,0.59999996,0.94,85,2,5.293,5.293,0.035,-0.24900001,0.004230154,0,nan,3,1,18
720797517,1537372536000316,323880412,-1170753520,71317,36875,0.42200002,0.08077418,0.753,0.90900004,0.62,0.96,85,2,5.34,5.34,0.079,-0.112,0.006760358,0,nan,3,1,17
720988521,1537372536200316,323880510,-1170753520,71414,36972,0.22200002,0.047024403,0.762,0.91200006,0.62,0.96,85,2,5.406,5.405,0.104,-0.24000001,0.01616489,0,nan,3,1,17
721191519,1537372536400316,323880608,-1170753517,71510,37068,0.22000001,0.053494863,0.76500005,0.915,0.62,0.97999996,85,2,5.433,5.4280005,0.24800001,-0.314,0.029978298,0,nan,3,1,17
721388526,1537372536600316,323880704,-1170753515,71578,37136,0.216,0.045914374,0.767,0.91600007,0.62,0.96,85,2,5.2370005,5.2330003,0.19900002,-0.386,0.034795232,0,nan,3,1,17
721589531,1537372536800316,323880799,-1170753512,71658,37216,0.21900001,0.04675056,0.76900005,0.91700006,0.59999996,0.94,85,2,5.3440003,5.3430004,0.120000005,-0.326,0.028307842,0,nan,3,1,18
721790608,1537372537000316,323880898,-1170753510,71776,37334,0.21900001,0.045131594,0.77000004,0.919,0.59999996,0.94,85,2,5.3830004,5.381,0.14400001,-0.22800002,0.02748335,0,nan,3,1,18
722009513,1537372537200316,323880995,-1170753511,71886,37445,0.35500002,0.05187764,0.92200005,0.95000005,0.62,0.97999996,85,2,5.2980003,5.293,0.21400002,-0.33600003,0.033506304,0,nan,3,1,16
722183686,1537372537400316,323881091,-1170753513,71963,37521,0.33800003,0.045624647,0.92700005,0.94900006,0.62,0.97999996,85,2,5.2330003,5.228,0.23200001,-0.30900002,0.03984342,0,nan,3,1,16
722386561,1537372537600316,323881190,-1170753508,72077,37635,0.317,0.04407986,0.92700005,0.9480001,0.62,0.97999996,85,2,5.557,5.5470004,0.33900002,-0.22000001,0.05157046,0,nan,3,1,16
722590577,1537372537800316,323881289,-1170753500,72188,37746,0.33800003,0.05272814,0.929,0.952,0.62,0.97999996,85,2,5.367,5.36,0.277,-0.32700002,0.05156156,0,nan,3,1,16
722789027,1537372538000316,323881385,-1170753496,72263,37821,0.33,0.049713083,0.93200004,0.95400006,0.69,1.01,85,2,5.288,5.2850003,0.17300001,-0.37100002,0.041092202,0,nan,3,1,15
722987549,1537372538200316,323881481,-1170753495,72361,37920,0.37800002,0.06681015,0.93600005,0.96000004,0.62,0.97999996,85,2,5.3430004,5.3380003,0.23300001,-0.37600002,0.042084422,0,nan,3,1,16
723189514,1537372538400316,323881582,-1170753494,72467,38025,0.31300002,0.049189135,0.94000006,0.96300006,0.62,0.97999996,85,3,5.5930004,5.5930004,0.075,-0.35300002,0.023107983,0,nan,3,1,16
723386605,1537372538600316,323881683,-1170753495,72574,38132,0.3,0.04186678,0.938,0.96400005,0.62,0.97999996,85,3,5.4280005,5.426,0.132,-0.36200002,0.023856904,0,nan,3,1,16
723586978,1537372538800316,323881783,-1170753493,72643,38201,0.31500003,0.04722721,0.93700004,0.96500003,0.62,0.97999996,85,3,5.3500004,5.348,0.120000005,-0.24700001,0.023134513,0,nan,3,1,16
723788513,1537372539000316,323881884,-1170753494,72774,38333,0.29200003,0.041045256,0.93700004,0.96700007,0.62,0.97999996,85,3,5.701,5.701,0.049000002,-0.40600002,0.014390937,0,nan,3,1,16
723988581,1537372539200316,323881983,-1170753492,72848,38407,0.365,0.061062783,0.94000006,0.97200006,0.64,0.97999996,85,3,5.386,5.3840003,0.117000006,-0.40100002,0.016933009,0,nan,3,1,15
724188517,1537372539400316,323882083,-1170753490,72950,38508,0.305,0.04427167,0.94200003,0.97200006,0.64,0.97999996,85,1,5.4960003,5.4950004,0.104,-0.19700001,0.018310772,0,nan,3,1,15
724388550,1537372539600316,323882185,-1170753488,73017,38575,0.4,0.06449218,0.94600004,0.97800004,0.62,0.97999996,85,1,5.6070004,5.6050005,0.15,-0.134,0.021282718,0,nan,3,1,16
724589524,1537372539800316,323882288,-1170753482,73036,38594,0.275,0.04264258,0.947,0.97700006,0.62,0.97999996,85,1,5.6000004,5.5990005,0.047000002,-0.17300001,0.012174543,0,nan,3,1,16
724789517,1537372540000316,323882389,-1170753479,73024,38582,0.27400002,0.04256753,0.94400007,0.97700006,0.62,0.97999996,85,1,5.616,5.616,0.037,-0.097,0.00911184,0,nan,3,1,16
724985516,1537372540200316,323882490,-1170753479,73104,38662,0.284,0.044874683,0.943,0.97800004,0.62,0.97999996,85,1,5.598,5.598,0.018000001,-0.15900001,0.006070255,0,nan,3,1,16
725185531,1537372540400316,323882591,-1170753480,73170,38729,0.303,0.056414798,0.94200003,0.97800004,0.62,0.97999996,85,2,5.5620003,5.5600004,0.13900001,-0.1,0.014067528,0,nan,3,1,16
725384514,1537372540600316,323882691,-1170753479,73212,38770,0.40600002,0.06581776,0.9480001,0.98300004,0.62,0.97999996,85,2,5.5130005,5.5130005,0.004,-0.23500001,0.008157669,0,nan,3,1,16
725590574,1537372540800316,323882793,-1170753481,73259,38817,0.31300002,0.048712485,0.952,0.984,0.62,0.97999996,85,2,5.675,5.675,-0.042000003,-0.186,6.2809916,0,nan,3,1,16
725787541,1537372541000316,323882896,-1170753483,73265,38823,0.30900002,0.04452928,0.952,0.9850001,0.62,0.97999996,85,2,5.6080003,5.6070004,0.09900001,-0.20600002,0.009189856,0,nan,3,1,16
725989166,1537372541200316,323882998,-1170753485,73305,38864,0.30900002,0.038555194,0.95000005,0.984,0.62,0.97999996,85,2,5.5230002,5.5230002,-0.007,-0.23400001,0.0028946283,0,nan,3,1,16
726184540,1537372541400316,323883099,-1170753485,73314,38872,0.30900002,0.0384688,0.9480001,0.98300004,0.64,0.97999996,85,1,5.532,5.532,0.016,-0.136,0.0029220302,0,nan,3,1,15
726387564,1537372541600316,323883199,-1170753485,73325,38883,0.32500002,0.049590386,0.95000005,0.98600006,0.64,0.97999996,85,1,5.532,5.532,-0.023000002,0.13000001,6.28314,0,nan,3,1,15
726587548,1537372541800316,323883299,-1170753483,73289,38847,0.33,0.042408008,0.95100003,0.98700005,0.64,0.97999996,85,1,5.5680003,5.5680003,-0.018000001,0.087000005,6.2812552,0,nan,3,1,15
726790687,1537372542000316,323883399,-1170753483,73239,38797,0.33100003,0.044626843,0.952,0.98800004,0.62,0.97999996,85,1,5.5230002,5.5230002,-0.053000003,0.16600001,6.277361,0,nan,3,1,16
726988513,1537372542200316,323883498,-1170753483,73171,38730,0.324,0.042194553,0.952,0.98800004,0.62,0.97999996,85,1,5.5280004,5.5280004,0.003,0.15,6.280956,0,nan,3,1,16
727187525,1537372542400316,323883597,-1170753482,73144,38703,0.33900002,0.05521698,0.95400006,0.99100006,0.62,0.97999996,85,1,5.3700004,5.3700004,-0.056,0.20700002,6.277603,0,nan,3,1,16
727386577,1537372542600316,323883695,-1170753479,73062,38620,0.29200003,0.042862665,0.95400006,0.989,0.62,0.97999996,85,1,5.4300003,5.4300003,0.006,0.179,6.281863,0,nan,3,1,16
727585676,1537372542800316,323883793,-1170753476,73014,38573,0.291,0.045553267,0.95500004,0.99000007,0.62,0.97999996,85,1,5.4630003,5.4620004,0.106000006,0.14400001,0.0091807805,0,nan,3,1,16
727789517,1537372543000316,323883889,-1170753473,73005,38564,0.26900002,0.0378986,0.95300007,0.98600006,0.62,0.97999996,85,1,5.359,5.3570004,0.127,0.18800001,0.018166782,0,nan,3,1,16
727988335,1537372543200316,323883985,-1170753472,72972,38530,0.34800002,0.059280455,0.95600003,0.98800004,0.62,0.97999996,85,1,5.3450003,5.3440003,0.102000006,0.273,0.018478323,0,nan,3,1,16
728186611,1537372543400316,323884081,-1170753471,72954,38513,0.34300002,0.052289188,0.95900005,0.989,0.62,0.97999996,91,2,5.328,5.3250003,0.165,0.086,0.02578846,0,nan,3,1,16
728389229,1537372543600316,323884180,-1170753469,72945,38503,0.326,0.045315202,0.961,0.989,0.62,0.97999996,91,2,5.459,5.4560003,0.163,0.124000005,0.028227907,0,nan,3,1,16
728587545,1537372543800316,323884276,-1170753467,72892,38451,0.328,0.04891407,0.96300006,0.99100006,0.62,0.97999996,91,2,5.34,5.339,0.064,0.08400001,0.020177051,0,nan,3,1,16
728789591,1537372544000316,323884371,-1170753467,72839,38398,0.349,0.052729882,0.96500003,0.994,0.62,0.97999996,91,2,5.433,5.433,-0.0050000004,0.19500001,0.00983842,0,nan,3,1,16
728981518,1537372544200316,323884468,-1170753468,72822,38381,0.36800003,0.06544932,0.9710001,0.998,0.62,0.97999996,91,2,5.3240004,5.3230004,0.085,0.059000004,0.012394804,0,nan,3,1,16
729186616,1537372544400316,323884564,-1170753465,72786,38345,0.35000002,0.06248278,0.975,1.0020001,0.62,0.97999996,91,2,5.4170003,5.412,0.22700001,0.08400001,0.028325122,0,nan,3,1,16
729386614,1537372544600316,323884659,-1170753462,72779,38338,0.41300002,0.076126546,0.98200005,1.0090001,0.64,0.97999996,91,2,5.262,5.262,0.066,0.024,0.021736154,0,nan,3,1,15
729584519,1537372544800315,323884755,-1170753462,72760,38318,0.284,0.050560962,0.98600006,1.01,0.64,0.97999996,91,2,5.282,5.282,0.029000001,0.039,0.010343344,0,nan,3,1,15
729786570,1537372545000315,323884855,-1170753464,72840,38399,0.31500003,0.056774683,0.98600006,1.011,0.62,0.97999996,91,2,5.333,5.3320003,-0.025,-0.104,0.0032977995,0,nan,3,1,16
729984514,1537372545200315,323884956,-1170753467,72892,38450,0.342,0.063780434,0.989,1.016,0.62,0.97999996,91,2,5.412,5.412,-0.041,-0.068,6.281418,0,nan,3,1,16
730187512,1537372545400315,323885057,-1170753469,72923,38482,0.3,0.05168984,0.99100006,1.018,0.62,0.97999996,91,2,5.4290004,5.4290004,0.041,-0.135,0.0040495126,0,nan,3,1,16
730383514,1537372545600315,323885158,-1170753468,72900,38459,0.26000002,0.03958581,0.98700005,1.014,0.62,0.97999996,91,2,5.3780003,5.3780003,0.049000002,-0.108,0.0073464396,0,nan,3,1,16
730588515,1537372545800315,323885258,-1170753471,72896,38455,0.252,0.041155733,0.98300004,1.0090001,0.64,0.97999996,91,2,5.379,5.3780003,-0.116000004,0.033,6.2753477,0,nan,3,1,15
730784562,1537372546000315,323885354,-1170753475,72905,38464,0.344,0.06537444,0.98600006,1.0120001,0.64,0.97999996,91,2,5.3620005,5.3620005,-0.044000003,-0.069000006,6.27524,0,nan,3,1,15
730988518,1537372546200315,323885451,-1170753481,72942,38501,0.263,0.04342222,0.98600006,1.0120001,0.62,0.97999996,91,2,5.406,5.405,-0.097,-0.065000005,6.2682037,0,nan,3,1,16
731188519,1537372546400315,323885549,-1170753484,72978,38537,0.38500002,0.067832045,0.989,1.0170001,0.62,0.97999996,91,1,5.3100004,5.3100004,-0.018000001,-0.127,6.271924,0,nan,3,1,16
731386824,1537372546600315,323885646,-1170753485,73015,38574,0.38900003,0.06294652,0.99500006,1.021,0.62,0.97999996,91,1,5.354,5.354,-0.014,-0.09900001,6.276716,0,nan,3,1,16
731586571,1537372546800315,323885743,-1170753485,73035,38594,0.39400002,0.06528474,1.0020001,1.026,0.62,0.97999996,91,1,5.426,5.426,0.083000004,-0.07,0.004387583,0,nan,3,1,16
731789514,1537372547000315,323885840,-1170753487,73065,38623,0.416,0.07627682,1.0090001,1.0320001,0.62,0.97999996,91,1,5.38,5.38,-0.024,-0.115,0.00047123886,0,nan,3,1,16
731993533,1537372547200315,323885935,-1170753500,73069,38628,0.21400002,0.04111402,1.005,1.0270001,0.62,0.97999996,91,1,5.059,5.058,0.029000001,-0.14600001,0.0045581018,0,nan,3,1,16
