timestamp,baro_alt_meter,baro_temp_celcius,baro_pressure_pa,rho
155104936,44.887726,37.27,100787.0,1.1975163
155115837,44.385685,37.27,100793.0,1.1975876
155126997,44.21922,37.27,100794.99,1.1976112
155150043,44.470238,37.27,100792.0,1.1975757
155161939,44.21922,37.27,100794.99,1.1976112
155172942,44.303772,37.27,100794.0,1.1975994
155194971,44.72126,37.27,100788.99,1.1975399
155206486,44.470238,37.27,100792.0,1.1975757
155216946,44.470238,37.27,100792.0,1.1975757
155238046,44.21922,37.28,100794.99,1.1976112
155250102,44.21922,37.28,100794.99,1.1976112
155260938,44.385685,37.28,100793.0,1.1975876
155282976,44.303772,37.28,100794.0,1.1975994
155293593,44.470238,37.28,100792.0,1.1975757
155303935,44.55215,37.28,100791.0,1.1975638
155325932,44.134663,37.28,100796.0,1.1976233
155337487,44.21922,37.28,100794.99,1.1976112
155347940,44.470238,37.28,100792.0,1.1975757
155372049,44.05275,37.28,100797.0,1.197635
155383918,44.385685,37.28,100793.0,1.1975876
155396332,44.636703,37.28,100790.0,1.197552
155420062,44.55215,37.28,100791.0,1.1975638
155431938,44.385685,37.28,100793.0,1.1975876
155444128,44.21922,37.28,100794.99,1.1976112
155468058,44.55215,37.28,100791.0,1.1975638
155479972,44.55215,37.28,100791.0,1.1975638
155491872,44.385685,37.28,100793.0,1.1975876
155515958,44.470238,37.27,100792.0,1.1975757
155526517,44.72126,37.27,100788.99,1.1975399
155536946,44.55215,37.27,100791.0,1.1975638
155559483,44.385685,37.27,100793.0,1.1975876
155570516,44.21922,37.27,100794.99,1.1976112
155581073,44.303772,37.27,100794.0,1.1975994
155604114,44.636703,37.28,100790.0,1.197552
155615931,44.636703,37.28,100790.0,1.197552
155628246,44.470238,37.28,100792.0,1.1975757
155652054,44.55215,37.28,100791.0,1.1975638
155663988,44.21922,37.28,100794.99,1.1976112
155676052,44.385685,37.28,100793.0,1.1975876
155699812,44.470238,37.28,100792.0,1.1975757
155711929,44.05275,37.28,100797.0,1.197635
155723819,44.134663,37.28,100796.0,1.1976233
155746055,44.21922,37.28,100794.99,1.1976112
155757486,44.55215,37.28,100791.0,1.1975638
155767527,44.470238,37.28,100792.0,1.1975757
155788139,44.385685,37.28,100793.0,1.1975876
155799943,44.636703,37.28,100790.0,1.197552
155812030,44.55215,37.28,100791.0,1.1975638
155836033,44.72126,37.28,100788.99,1.1975399
155848015,44.385685,37.28,100793.0,1.1975876
155859995,44.470238,37.28,100792.0,1.1975757
155884000,44.805813,37.28,100788.0,1.1975281
155895919,44.636703,37.28,100790.0,1.197552
155907991,44.636703,37.28,100790.0,1.197552
155929934,44.385685,37.28,100793.0,1.1975876
155941483,44.636703,37.28,100790.0,1.197552
155952281,45.05419,37.28,100785.0,1.1974925
155974055,44.470238,37.28,100792.0,1.1975757
155985494,44.805813,37.28,100788.0,1.1975281
155996743,45.05419,37.28,100785.0,1.1974925
156020801,44.55215,37.28,100791.0,1.1975638
156032688,44.72126,37.28,100788.99,1.1975399
156044641,44.05275,37.28,100797.0,1.197635
156068830,44.636703,37.28,100790.0,1.197552
156080671,44.303772,37.28,100794.0,1.1975994
156092576,44.636703,37.28,100790.0,1.197552
156114942,44.55215,37.28,100791.0,1.1975638
156126635,44.97228,37.28,100786.0,1.1975044
156136971,44.636703,37.28,100790.0,1.197552
156160152,44.21922,37.29,100794.99,1.1976112
156172508,44.385685,37.29,100793.0,1.1975876
156182966,44.05275,37.29,100797.0,1.197635
156204935,44.72126,37.29,100788.99,1.1975399
156216713,44.72126,37.29,100788.99,1.1975399
156228747,44.55215,37.29,100791.0,1.1975638
156252732,44.05275,37.29,100797.0,1.197635
156264757,45.05419,37.29,100785.0,1.1974925
156276627,45.30521,37.29,100782.0,1.1974568
156298958,44.55215,37.29,100791.0,1.1975638
156310484,44.97228,37.29,100786.0,1.1975044
156320946,44.887726,37.29,100787.0,1.1975163
156342994,44.470238,37.29,100792.0,1.1975757
156354517,44.05275,37.29,100797.0,1.197635
156364864,44.636703,37.29,100790.0,1.197552
156388662,44.134663,37.29,100796.0,1.1976233
156400691,44.55215,37.29,100791.0,1.1975638
156410960,44.72126,37.29,100788.99,1.1975399
156434061,44.97228,37.29,100786.0,1.1975044
156445537,45.138744,37.29,100784.0,1.1974807
156456285,45.30521,37.29,100782.0,1.1974568
156477938,43.968197,37.3,100798.0,1.197647
156489540,45.05419,37.3,100785.0,1.1974925
156500874,45.223297,37.3,100782.99,1.1974686
156525009,44.636703,37.29,100790.0,1.197552
156536772,45.47432,37.29,100780.0,1.1974331
156548946,45.809895,37.29,100775.99,1.1973855
156572675,45.138744,37.3,100784.0,1.1974807
156584678,45.138744,37.3,100784.0,1.1974807
156596624,45.30521,37.3,100782.0,1.1974568
156618967,45.640785,37.3,100778.0,1.1974094
156630682,44.805813,37.3,100788.0,1.1975281
156641938,44.97228,37.3,100786.0,1.1975044
156664132,44.805813,37.3,100788.0,1.1975281
156676508,45.725338,37.3,100776.99,1.1973974
156686995,45.389767,37.3,100781.0,1.197445
156709933,45.891808,37.3,100775.0,1.1973737
156721482,45.556232,37.3,100779.0,1.1974212
156732699,45.223297,37.3,100782.99,1.1974686
156755940,45.138744,37.29,100784.0,1.1974807
156767523,45.891808,37.29,100775.0,1.1973737
156777941,46.142826,37.29,100772.0,1.1973381
156801094,45.725338,37.3,100776.99,1.1973974
156813286,45.725338,37.3,100776.99,1.1973974
156823934,45.97636,37.3,100774.0,1.1973618
156845932,46.142826,37.3,100772.0,1.1973381
156856773,46.142826,37.3,100772.0,1.1973381
156867932,46.058273,37.3,100773.0,1.1973499
156889933,46.30929,37.3,100769.99,1.1973143
156902088,46.475758,37.3,100768.0,1.1972905
156913088,46.142826,37.3,100772.0,1.1973381
156935938,46.058273,37.3,100773.0,1.1973499
156947524,46.058273,37.3,100773.0,1.1973499
156957947,46.895885,37.3,100763.0,1.1972312
156979970,46.560314,37.3,100767.0,1.1972786
156991482,46.895885,37.3,100763.0,1.1972312
157001086,46.811333,37.3,100763.99,1.1972429
157023987,46.811333,37.309998,100763.99,1.1972429
157035670,46.560314,37.309998,100767.0,1.1972786
157047067,46.895885,37.309998,100763.0,1.1972312
157069635,47.062355,37.3,100761.0,1.1972073
157080795,46.811333,37.3,100763.99,1.1972429
157091933,47.47984,37.3,100756.0,1.197148
157113941,47.564396,37.309998,100755.0,1.197136
157125328,47.397926,37.309998,100757.0,1.1971599
157135962,47.73086,37.309998,100753.0,1.1971123
157157942,47.564396,37.309998,100755.0,1.197136
157169486,47.397926,37.309998,100757.0,1.1971599
157179942,47.815414,37.309998,100751.99,1.1971003
157201933,47.73086,37.309998,100753.0,1.1971123
157213175,47.815414,37.309998,100751.99,1.1971003
157223932,48.232903,37.309998,100747.0,1.197041
157245935,47.815414,37.309998,100751.99,1.1971003
157257584,47.815414,37.309998,100751.99,1.1971003
157267970,47.73086,37.309998,100753.0,1.1971123
157289125,48.232903,37.309998,100747.0,1.197041
157301138,48.48392,37.309998,100744.0,1.1970054
157311942,48.568474,37.309998,100743.0,1.1969935
157333934,48.317455,37.32,100746.0,1.1970291
157345563,48.317455,37.32,100746.0,1.1970291
157355942,48.734943,37.32,100741.0,1.1969697
157379051,48.90405,37.32,100738.99,1.1969459
157390520,48.402008,37.32,100744.99,1.1970172
157400931,48.819496,37.32,100740.0,1.1969578
157423941,48.985962,37.32,100738.0,1.1969341
157435536,49.152428,37.32,100736.0,1.1969104
157445943,49.23698,37.32,100735.0,1.1968985
157467942,49.321537,37.309998,100734.0,1.1968865
157479580,49.070515,37.309998,100737.0,1.1969222
157489978,49.488003,37.309998,100732.0,1.1968628
157511945,49.152428,37.32,100736.0,1.1969104
157523632,49.23698,37.32,100735.0,1.1968985
157533952,49.572556,37.32,100731.0,1.1968509
157556000,49.65447,37.32,100730.0,1.196839
157567530,49.823578,37.32,100728.0,1.1968153
157577463,49.572556,37.32,100731.0,1.1968509
157598382,49.90813,37.32,100726.99,1.1968033
157609522,49.90813,37.32,100726.99,1.1968033
157619942,49.73902,37.32,100729.0,1.1968272
157642065,49.321537,37.32,100734.0,1.1968865
157653932,49.488003,37.32,100732.0,1.1968628
157664932,50.15651,37.32,100724.0,1.1967677
157686990,50.15651,37.32,100724.0,1.1967677
157698519,49.90813,37.32,100726.99,1.1968033
157708931,50.743103,37.32,100717.0,1.1966846
157731020,50.241062,37.32,100723.0,1.1967559
157743175,50.65855,37.32,100718.0,1.1966964
157753940,50.407528,37.32,100721.0,1.196732
157777270,50.407528,37.32,100721.0,1.196732
157788492,49.990044,37.32,100725.99,1.1967914
157798994,50.65855,37.32,100718.0,1.1966964
157822669,50.576637,37.32,100719.0,1.1967083
157833516,50.576637,37.32,100719.0,1.1967083
157843016,50.82766,37.32,100716.0,1.1966727
157866059,50.743103,37.329998,100717.0,1.1966846
157878045,50.65855,37.329998,100718.0,1.1966964
157888934,51.16059,37.329998,100712.0,1.1966251
157911065,50.90957,37.329998,100715.0,1.1966608
157922522,51.245144,37.329998,100711.0,1.1966133
157932939,51.41161,37.329998,100709.0,1.1965895
157954977,51.41161,37.329998,100709.0,1.1965895
157966121,51.245144,37.329998,100711.0,1.1966133
157976949,51.58072,37.329998,100707.0,1.1965657
157998995,51.16059,37.329998,100712.0,1.1966251
158011303,51.327057,37.329998,100710.0,1.1966014
158023011,51.41161,37.329998,100709.0,1.1965895
158044941,51.662632,37.329998,100706.0,1.1965538
158055510,51.747185,37.329998,100705.0,1.196542
158066062,52.08276,37.329998,100700.99,1.1964943
158089496,51.747185,37.329998,100705.0,1.196542
158100493,51.747185,37.329998,100705.0,1.196542
158111008,52.08276,37.329998,100700.99,1.1964943
158131973,51.83174,37.329998,100704.0,1.1965301
158143528,51.91365,37.329998,100703.0,1.1965182
158153448,52.33114,37.329998,100698.0,1.1964588
158174999,52.500248,37.329998,100696.0,1.1964351
158185532,52.08276,37.329998,100700.99,1.1964943
158196017,51.998207,37.329998,100701.99,1.1965063
158218675,52.33114,37.329998,100698.0,1.1964588
158229985,52.249226,37.329998,100699.0,1.1964707
158240647,52.5848,37.329998,100694.99,1.196423
158262688,52.33114,37.34,100698.0,1.1964588
158273645,52.33114,37.34,100698.0,1.1964588
158284648,52.33114,37.34,100698.0,1.1964588
158305506,52.666714,37.329998,100694.0,1.1964113
158318063,53.00229,37.329998,100690.0,1.1963638
158328942,53.168755,37.329998,100688.0,1.19634
158350268,53.168755,37.329998,100688.0,1.19634
158362414,53.75535,37.329998,100681.0,1.1962569
158372284,53.337864,37.329998,100686.0,1.1963162
158394533,53.588882,37.34,100682.99,1.1962805
158406360,53.168755,37.34,100688.0,1.19634
158416948,54.090923,37.34,100676.99,1.1962092
158438233,53.670795,37.329998,100682.0,1.1962687
158449380,53.921814,37.329998,100679.0,1.196233
158459656,53.50433,37.329998,100684.0,1.1962925
158483482,54.175476,37.34,100675.99,1.1961973
158494516,54.423855,37.34,100673.0,1.1961617
158504117,53.83726,37.34,100680.0,1.196245
158529023,54.00637,37.34,100678.0,1.1962212
158540762,54.34194,37.34,100674.0,1.1961737
158552618,54.34194,37.34,100674.0,1.1961737
158576641,54.592964,37.34,100671.0,1.196138
158588119,54.592964,37.34,100671.0,1.196138
158600669,54.75943,37.34,100669.0,1.1961143
158621944,55.26147,37.329998,100663.0,1.196043
158632533,54.843983,37.329998,100668.0,1.1961024
158643482,55.26147,37.329998,100663.0,1.196043
158664933,55.51249,37.34,100660.0,1.1960074
158677360,55.346024,37.34,100662.0,1.1960311
158688916,55.010452,37.34,100666.0,1.1960787
158712859,54.592964,37.34,100671.0,1.196138
158724753,55.010452,37.34,100666.0,1.1960787
158737278,55.179558,37.34,100663.99,1.1960547
158760661,54.75943,37.329998,100669.0,1.1961143
158772531,54.592964,37.329998,100671.0,1.196138
158781947,54.925896,37.329998,100667.0,1.1960905
158803445,54.677517,37.34,100669.99,1.196126
158815593,54.677517,37.34,100669.99,1.196126
158826053,54.677517,37.34,100669.99,1.196126
158849087,54.677517,37.34,100669.99,1.196126
158861331,55.427937,37.34,100661.0,1.1960192
158872915,54.592964,37.34,100671.0,1.196138
158896946,55.010452,37.34,100666.0,1.1960787
158908916,54.843983,37.34,100668.0,1.1961024
158921078,55.010452,37.34,100666.0,1.1960787
158945267,54.677517,37.34,100669.99,1.196126
158957415,55.179558,37.34,100663.99,1.1960547
158968486,55.010452,37.34,100666.0,1.1960787
158992268,54.75943,37.34,100669.0,1.1961143
159005367,55.179558,37.34,100663.99,1.1960547
159016274,55.095005,37.34,100665.0,1.1960667
159038932,55.179558,37.34,100663.99,1.1960547
159049542,55.26147,37.34,100663.0,1.196043
159060923,55.346024,37.34,100662.0,1.1960311
159083350,55.26147,37.34,100663.0,1.196043
159095355,55.179558,37.34,100663.99,1.1960547
159106054,54.925896,37.34,100667.0,1.1960905
159127290,55.26147,37.34,100663.0,1.196043
159138519,55.26147,37.34,100663.0,1.196043
159149889,55.597046,37.34,100659.0,1.1959955
159173083,55.179558,37.34,100663.99,1.1960547
159185568,55.346024,37.34,100662.0,1.1960311
159197875,55.427937,37.34,100661.0,1.1960192
159221712,55.6816,37.34,100657.99,1.1959834
159233578,55.427937,37.34,100661.0,1.1960192
159243312,55.427937,37.34,100661.0,1.1960192
159267018,55.597046,37.34,100659.0,1.1959955
159278048,55.427937,37.34,100661.0,1.1960192
159288455,55.76351,37.34,100657.0,1.1959717
159311284,55.179558,37.34,100663.99,1.1960547
159324493,55.597046,37.34,100659.0,1.1959955
159334139,55.51249,37.34,100660.0,1.1960074
159357828,55.427937,37.34,100661.0,1.1960192
159369539,55.597046,37.34,100659.0,1.1959955
159381728,55.597046,37.34,100659.0,1.1959955
159405712,56.01453,37.34,100654.0,1.1959361
159417583,55.179558,37.34,100663.99,1.1960547
159428935,55.597046,37.34,100659.0,1.1959955
159452919,55.346024,37.329998,100662.0,1.1960311
159464751,56.18364,37.329998,100651.99,1.1959121
159475304,56.01453,37.329998,100654.0,1.1959361
159499069,56.18364,37.34,100651.99,1.1959121
159510088,56.350105,37.34,100650.0,1.1958885
159520578,55.929977,37.34,100655.0,1.1959479
159544574,56.18364,37.34,100651.99,1.1959121
159557293,56.350105,37.34,100650.0,1.1958885
159567291,56.18364,37.34,100651.99,1.1959121
159590967,56.268196,37.34,100650.99,1.1959003
159601576,56.601128,37.34,100647.0,1.1958529
159613651,56.43466,37.34,100649.0,1.1958766
159636945,56.601128,37.34,100647.0,1.1958529
159649522,56.43466,37.34,100649.0,1.1958766
159660826,56.099087,37.34,100653.0,1.1959242
159683296,56.936703,37.34,100643.0,1.1958053
159695855,56.350105,37.34,100650.0,1.1958885
159707064,56.51657,37.34,100648.0,1.1958647
159728519,56.43466,37.34,100649.0,1.1958766
159741585,56.936703,37.34,100643.0,1.1958053
159752498,57.018612,37.34,100642.0,1.1957934
159775271,56.51657,37.34,100648.0,1.1958647
159788474,56.936703,37.34,100643.0,1.1958053
159798963,56.601128,37.34,100647.0,1.1958529
159821921,56.268196,37.34,100650.99,1.1959003
159833721,57.10317,37.34,100641.0,1.1957816
159845548,56.770237,37.34,100644.99,1.195829
159867944,56.18364,37.34,100651.99,1.1959121
159879576,56.43466,37.34,100649.0,1.1958766
159889943,57.018612,37.34,100642.0,1.1957934
159913127,56.268196,37.34,100650.99,1.1959003
159925162,56.936703,37.34,100643.0,1.1958053
159935968,56.51657,37.34,100648.0,1.1958647
159958257,56.936703,37.34,100643.0,1.1958053
159968713,56.43466,37.34,100649.0,1.1958766
159979940,56.936703,37.34,100643.0,1.1958053
160001087,57.354187,37.34,100638.0,1.195746
160013164,57.269634,37.34,100638.99,1.1957577
160023940,57.10317,37.34,100641.0,1.1957816
160046456,56.770237,37.34,100644.99,1.195829
160056735,56.852146,37.34,100644.0,1.1958172
160067931,57.438744,37.34,100637.0,1.195734
160089087,57.18772,37.34,100640.0,1.1957697
160101277,57.774315,37.34,100632.99,1.1956865
160111934,57.60521,37.34,100635.0,1.1957103
160134721,57.269634,37.34,100638.99,1.1957577
160145546,57.60521,37.34,100635.0,1.1957103
160155940,57.18772,37.34,100640.0,1.1957697
160177931,57.523296,37.34,100636.0,1.1957221
160189964,57.523296,37.34,100636.0,1.1957221
160201121,57.438744,37.34,100637.0,1.195734
160223939,57.689762,37.34,100634.0,1.1956984
160234662,57.856228,37.34,100632.0,1.1956747
160246395,57.774315,37.34,100632.99,1.1956865
160267940,57.354187,37.34,100638.0,1.195746
160279535,57.269634,37.34,100638.99,1.1957577
160290082,57.774315,37.34,100632.99,1.1956865
160311990,57.354187,37.34,100638.0,1.195746
160322482,57.523296,37.34,100636.0,1.1957221
160334468,57.10317,37.34,100641.0,1.1957816
160355974,58.10725,37.34,100629.0,1.195639
160366557,57.523296,37.34,100636.0,1.1957221
160377111,58.025337,37.34,100630.0,1.1956508
160397936,57.354187,37.34,100638.0,1.195746
160408704,57.354187,37.34,100638.0,1.195746
160419947,57.774315,37.34,100632.99,1.1956865
160441933,57.856228,37.34,100632.0,1.1956747
160454097,57.18772,37.34,100640.0,1.1957697
160465027,57.60521,37.34,100635.0,1.1957103
160487943,57.856228,37.34,100632.0,1.1956747
160499515,58.025337,37.34,100630.0,1.1956508
160510233,57.774315,37.34,100632.99,1.1956865
160531979,58.442825,37.34,100625.0,1.1955914
160543528,57.856228,37.34,100632.0,1.1956747
160553023,57.774315,37.34,100632.99,1.1956865
160575941,58.025337,37.34,100630.0,1.1956508
160586516,58.693844,37.34,100622.0,1.1955558
160598348,58.862953,37.34,100619.99,1.195532
160622224,58.191803,37.34,100628.0,1.1956271
160633485,57.60521,37.34,100635.0,1.1957103
160643932,58.35827,37.34,100625.99,1.1956033
160665451,58.778397,37.34,100621.0,1.1955439
160675527,58.35827,37.34,100625.99,1.1956033
160687065,57.856228,37.34,100632.0,1.1956747
160707941,58.442825,37.34,100625.0,1.1955914
160719548,58.025337,37.34,100630.0,1.1956508
160729932,58.10725,37.34,100629.0,1.195639
160750969,58.862953,37.34,100619.99,1.195532
160762521,58.862953,37.34,100619.99,1.195532
160772930,58.442825,37.34,100625.0,1.1955914
160794958,57.856228,37.34,100632.0,1.1956747
160807048,58.025337,37.34,100630.0,1.1956508
160818067,59.195885,37.34,100616.0,1.1954845
160840944,58.276356,37.34,100626.99,1.1956152
160852490,57.774315,37.34,100632.99,1.1956865
160862970,58.191803,37.34,100628.0,1.1956271
160883932,58.10725,37.329998,100629.0,1.195639
160895524,58.025337,37.329998,100630.0,1.1956508
160905938,58.10725,37.329998,100629.0,1.195639
160929473,58.693844,37.34,100622.0,1.1955558
160940493,58.693844,37.34,100622.0,1.1955558
160950987,58.025337,37.34,100630.0,1.1956508
160971973,58.35827,37.329998,100625.99,1.1956033
160983521,58.61193,37.329998,100623.0,1.1955677
160993931,58.944862,37.329998,100619.0,1.1955202
161016949,58.276356,37.34,100626.99,1.1956152
161027527,58.778397,37.34,100621.0,1.1955439
161038901,58.442825,37.34,100625.0,1.1955914
161059939,58.276356,37.329998,100626.99,1.1956152
161071581,58.944862,37.329998,100619.0,1.1955202
161081935,59.111332,37.329998,100617.0,1.1954964
161102932,58.442825,37.34,100625.0,1.1955914
161114520,59.02942,37.34,100618.0,1.1955082
161124937,59.111332,37.34,100617.0,1.1954964
161146988,59.364994,37.34,100613.99,1.1954607
161158895,59.280437,37.34,100615.0,1.1954726
161169934,60.199966,37.34,100604.0,1.195342
161192944,60.0335,37.329998,100606.0,1.1953657
161204494,60.0335,37.329998,100606.0,1.1953657
161214942,60.118053,37.329998,100605.0,1.1953539
161235935,60.199966,37.329998,100604.0,1.195342
161247491,60.369076,37.329998,100601.99,1.1953181
161258048,60.28452,37.329998,100603.0,1.19533
161281511,59.951588,37.329998,100607.0,1.1953776
161292493,60.620094,37.329998,100599.0,1.1952826
161303012,60.620094,37.329998,100599.0,1.1952826
161324024,60.369076,37.329998,100601.99,1.1953181
161335516,61.122135,37.329998,100593.0,1.1952113
161345255,60.78656,37.329998,100597.0,1.1952587
161366381,60.620094,37.329998,100599.0,1.1952826
161376505,59.867035,37.329998,100607.99,1.1953894
161387310,60.28452,37.329998,100603.0,1.19533
161410228,61.037582,37.329998,100594.0,1.1952231
161422801,60.53554,37.329998,100600.0,1.1952944
161433460,60.620094,37.329998,100599.0,1.1952826
161456946,60.53554,37.34,100600.0,1.1952944
161468558,60.53554,37.34,100600.0,1.1952944
161479512,60.78656,37.34,100597.0,1.1952587
161501025,60.70465,37.329998,100598.0,1.1952707
161512533,60.199966,37.329998,100604.0,1.195342
161524463,60.53554,37.329998,100600.0,1.1952944
161546061,59.697926,37.329998,100610.0,1.1954132
161557491,59.53146,37.329998,100612.0,1.195437
161567943,59.111332,37.329998,100617.0,1.1954964
161589025,59.697926,37.329998,100610.0,1.1954132
161599942,59.195885,37.329998,100616.0,1.1954845
161612623,58.61193,37.329998,100623.0,1.1955677
161633932,59.613373,37.329998,100611.0,1.1954252
161644527,58.527378,37.329998,100624.0,1.1955795
161655481,58.10725,37.329998,100629.0,1.195639
161676949,58.442825,37.329998,100625.0,1.1955914
161688494,58.10725,37.329998,100629.0,1.195639
161699853,58.442825,37.329998,100625.0,1.1955914
161719989,58.862953,37.329998,100619.99,1.195532
161732447,58.191803,37.329998,100628.0,1.1956271
161743476,58.527378,37.329998,100624.0,1.1955795
161763977,58.442825,37.329998,100625.0,1.1955914
161775927,59.111332,37.329998,100617.0,1.1954964
161788099,58.025337,37.329998,100630.0,1.1956508
161811993,57.689762,37.329998,100634.0,1.1956984
161823963,58.527378,37.329998,100624.0,1.1955795
161833947,58.778397,37.329998,100621.0,1.1955439
161855334,58.693844,37.329998,100622.0,1.1955558
161865520,58.35827,37.329998,100625.99,1.1956033
161876819,58.442825,37.329998,100625.0,1.1955914
161897932,57.856228,37.329998,100632.0,1.1956747
161909482,58.35827,37.329998,100625.99,1.1956033
161919940,58.35827,37.329998,100625.99,1.1956033
161940932,58.442825,37.34,100625.0,1.1955914
161951883,58.862953,37.34,100619.99,1.195532
161963956,58.442825,37.34,100625.0,1.1955914
161988012,57.856228,37.329998,100632.0,1.1956747
161999925,58.025337,37.329998,100630.0,1.1956508
162011972,58.944862,37.329998,100619.0,1.1955202
162035888,58.10725,37.329998,100629.0,1.195639
162047177,57.940784,37.329998,100631.0,1.1956627
162058063,57.60521,37.329998,100635.0,1.1957103
162080292,58.442825,37.329998,100625.0,1.1955914
162092384,58.693844,37.329998,100622.0,1.1955558
162102940,59.280437,37.329998,100615.0,1.1954726
162125560,58.944862,37.329998,100619.0,1.1955202
162137607,59.364994,37.329998,100613.99,1.1954607
162149553,58.527378,37.329998,100624.0,1.1955795
162171271,58.442825,37.329998,100625.0,1.1955914
162183911,58.862953,37.329998,100619.99,1.195532
162194220,58.693844,37.329998,100622.0,1.1955558
162216453,58.862953,37.329998,100619.99,1.195532
162229279,58.778397,37.329998,100621.0,1.1955439
162239307,58.527378,37.329998,100624.0,1.1955795
162262983,58.862953,37.32,100619.99,1.195532
162273618,59.364994,37.32,100613.99,1.1954607
162285715,58.862953,37.32,100619.99,1.195532
162309748,59.951588,37.329998,100607.0,1.1953776
162321754,59.111332,37.329998,100617.0,1.1954964
162333098,59.02942,37.329998,100618.0,1.1955082
162355261,59.446903,37.32,100613.0,1.1954489
162367929,59.446903,37.32,100613.0,1.1954489
162378966,59.280437,37.32,100615.0,1.1954726
162400576,58.527378,37.32,100624.0,1.1955795
162413336,58.35827,37.32,100625.99,1.1956033
162423261,58.693844,37.32,100622.0,1.1955558
162445831,59.111332,37.329998,100617.0,1.1954964
162457830,59.446903,37.329998,100613.0,1.1954489
162469827,59.53146,37.329998,100612.0,1.195437
162493906,59.111332,37.32,100617.0,1.1954964
162505557,58.862953,37.32,100619.99,1.195532
162517894,59.111332,37.32,100617.0,1.1954964
162540943,58.276356,37.32,100626.99,1.1956152
162553591,59.446903,37.32,100613.0,1.1954489
162563311,59.195885,37.32,100616.0,1.1954845
162584572,59.364994,37.32,100613.99,1.1954607
162596512,59.78248,37.32,100609.0,1.1954013
162606347,59.364994,37.32,100613.99,1.1954607
162629713,59.280437,37.32,100615.0,1.1954726
162641590,59.280437,37.32,100615.0,1.1954726
162653634,58.862953,37.32,100619.99,1.195532
162677882,59.446903,37.32,100613.0,1.1954489
162689715,58.778397,37.32,100621.0,1.1955439
162701714,58.778397,37.32,100621.0,1.1955439
162725731,58.778397,37.32,100621.0,1.1955439
162737885,59.446903,37.32,100613.0,1.1954489
162748931,58.527378,37.32,100624.0,1.1955795
162772646,58.527378,37.32,100624.0,1.1955795
162783894,59.111332,37.32,100617.0,1.1954964
162794966,58.442825,37.32,100625.0,1.1955914
162816948,58.862953,37.32,100619.99,1.195532
162829383,58.527378,37.32,100624.0,1.1955795
162840227,60.28452,37.32,100603.0,1.19533
162862997,58.693844,37.309998,100622.0,1.1955558
162873599,59.111332,37.309998,100617.0,1.1954964
162885885,58.944862,37.309998,100619.0,1.1955202
162910269,58.442825,37.32,100625.0,1.1955914
162921552,58.944862,37.32,100619.0,1.1955202
162931957,58.862953,37.32,100619.99,1.195532
162953259,58.10725,37.32,100629.0,1.195639
162966057,58.527378,37.32,100624.0,1.1955795
162976950,59.02942,37.32,100618.0,1.1955082
162998901,58.276356,37.32,100626.99,1.1956152
163010407,58.35827,37.32,100625.99,1.1956033
163022131,59.53146,37.32,100612.0,1.195437
163043977,58.025337,37.309998,100630.0,1.1956508
163055534,57.60521,37.309998,100635.0,1.1957103
163065954,59.02942,37.309998,100618.0,1.1955082
163089097,58.778397,37.309998,100621.0,1.1955439
163101248,58.10725,37.309998,100629.0,1.195639
163111931,59.111332,37.309998,100617.0,1.1954964
163134744,58.693844,37.32,100622.0,1.1955558
163145488,58.778397,37.32,100621.0,1.1955439
163155020,58.527378,37.32,100624.0,1.1955795
163176031,57.774315,37.32,100632.99,1.1956865
163186517,57.856228,37.32,100632.0,1.1956747
163198368,58.025337,37.32,100630.0,1.1956508
163219014,58.693844,37.32,100622.0,1.1955558
163230537,58.527378,37.32,100624.0,1.1955795
163240018,58.276356,37.32,100626.99,1.1956152
163261945,58.862953,37.32,100619.99,1.195532
163272694,58.778397,37.32,100621.0,1.1955439
163283311,59.613373,37.32,100611.0,1.1954252
163306235,60.118053,37.32,100605.0,1.1953539
163319067,59.697926,37.32,100610.0,1.1954132
163329378,59.53146,37.32,100612.0,1.195437
163352722,59.02942,37.309998,100618.0,1.1955082
163366329,59.867035,37.309998,100607.99,1.1953894
163377085,58.944862,37.309998,100619.0,1.1955202
163398207,59.951588,37.309998,100607.0,1.1953776
163409487,59.446903,37.309998,100613.0,1.1954489
163419939,59.78248,37.309998,100609.0,1.1954013
163441931,58.025337,37.309998,100630.0,1.1956508
163454075,58.778397,37.309998,100621.0,1.1955439
163464931,58.442825,37.309998,100625.0,1.1955914
163487940,59.364994,37.309998,100613.99,1.1954607
163499524,59.613373,37.309998,100611.0,1.1954252
163510331,58.527378,37.309998,100624.0,1.1955795
163531002,58.61193,37.309998,100623.0,1.1955677
163542520,58.61193,37.309998,100623.0,1.1955677
163551977,58.191803,37.309998,100628.0,1.1956271
163574058,57.940784,37.309998,100631.0,1.1956627
163584656,58.10725,37.309998,100629.0,1.195639
163595293,58.191803,37.309998,100628.0,1.1956271
163617367,58.778397,37.309998,100621.0,1.1955439
163630105,58.10725,37.309998,100629.0,1.195639
163640713,59.613373,37.309998,100611.0,1.1954252
163663930,58.527378,37.3,100624.0,1.1955795
163675527,58.35827,37.3,100625.99,1.1956033
163686223,57.940784,37.3,100631.0,1.1956627
163707944,57.523296,37.3,100636.0,1.1957221
163718932,57.940784,37.3,100631.0,1.1956627
163729944,57.774315,37.3,100632.99,1.1956865
163752932,58.944862,37.3,100619.0,1.1955202
163766191,59.195885,37.3,100616.0,1.1954845
163776946,58.276356,37.3,100626.99,1.1956152
163798974,57.856228,37.3,100632.0,1.1956747
163810520,57.940784,37.3,100631.0,1.1956627
163822719,58.693844,37.3,100622.0,1.1955558
163843932,58.944862,37.3,100619.0,1.1955202
163855533,58.61193,37.3,100623.0,1.1955677
163866057,58.35827,37.3,100625.99,1.1956033
163888942,58.778397,37.3,100621.0,1.1955439
163900485,58.191803,37.3,100628.0,1.1956271
163910991,58.61193,37.3,100623.0,1.1955677
163931932,58.10725,37.3,100629.0,1.195639
163943567,58.025337,37.3,100630.0,1.1956508
163954060,59.280437,37.3,100615.0,1.1954726
163974986,59.02942,37.29,100618.0,1.1955082
163986521,59.280437,37.29,100615.0,1.1954726
163997286,58.276356,37.29,100626.99,1.1956152
164018966,58.442825,37.29,100625.0,1.1955914
164030979,58.778397,37.29,100621.0,1.1955439
164042063,57.940784,37.29,100631.0,1.1956627
164065442,58.693844,37.29,100622.0,1.1955558
164076482,59.111332,37.29,100617.0,1.1954964
164086994,59.446903,37.29,100613.0,1.1954489
164107974,59.78248,37.29,100609.0,1.1954013
164119528,58.025337,37.29,100630.0,1.1956508
164130080,59.613373,37.29,100611.0,1.1954252
164153272,60.118053,37.29,100605.0,1.1953539
164164507,59.697926,37.29,100610.0,1.1954132
164175064,60.369076,37.29,100601.99,1.1953181
164195969,58.693844,37.29,100622.0,1.1955558
164207513,60.0335,37.29,100606.0,1.1953657
164217270,61.206688,37.29,100592.0,1.1951994
164239079,58.693844,37.29,100622.0,1.1955558
164250527,58.944862,37.29,100619.0,1.1955202
164260932,59.78248,37.29,100609.0,1.1954013
164282945,60.118053,37.28,100605.0,1.1953539
164294900,59.446903,37.28,100613.0,1.1954489
164305931,59.78248,37.28,100609.0,1.1954013
164328939,60.28452,37.29,100603.0,1.19533
164339696,61.122135,37.29,100593.0,1.1952113
164351064,60.53554,37.29,100600.0,1.1952944
164372939,61.206688,37.28,100592.0,1.1951994
164384535,60.45363,37.28,100600.99,1.1953062
164394977,59.111332,37.28,100617.0,1.1954964
164416951,59.697926,37.28,100610.0,1.1954132
164427560,61.122135,37.28,100593.0,1.1952113
164439068,62.044304,37.28,100582.0,1.1950805
164459982,61.8752,37.28,100584.0,1.1951044
164470807,60.0335,37.28,100606.0,1.1953657
164481933,60.70465,37.28,100598.0,1.1952707
164505242,61.539623,37.28,100588.0,1.1951518
164516482,61.206688,37.28,100592.0,1.1951994
164527062,60.70465,37.28,100598.0,1.1952707
164549025,60.620094,37.28,100599.0,1.1952826
164559923,61.539623,37.28,100588.0,1.1951518
164572621,60.620094,37.28,100599.0,1.1952826
164596622,60.70465,37.28,100598.0,1.1952707
164608018,60.70465,37.28,100598.0,1.1952707
164619828,60.53554,37.28,100600.0,1.1952944
164643823,60.871117,37.27,100596.0,1.1952469
164655997,62.71281,37.27,100574.0,1.1949855
164667958,61.793285,37.27,100585.0,1.1951162
164690058,60.620094,37.27,100599.0,1.1952826
164701483,61.373158,37.27,100590.0,1.1951756
164711484,61.539623,37.27,100588.0,1.1951518
164732941,61.793285,37.26,100585.0,1.1951162
164744490,61.793285,37.26,100585.0,1.1951162
164754098,60.620094,37.26,100599.0,1.1952826
164775482,61.122135,37.26,100593.0,1.1952113
164785543,60.871117,37.26,100596.0,1.1952469
164795984,60.620094,37.26,100599.0,1.1952826
164819834,61.624176,37.26,100587.0,1.19514
164831940,61.539623,37.26,100588.0,1.1951518
164843946,61.206688,37.26,100592.0,1.1951994
164868665,61.037582,37.26,100594.0,1.1952231
164880137,61.122135,37.26,100593.0,1.1952113
164892623,61.45771,37.26,100588.99,1.1951636
164916732,61.291245,37.26,100591.0,1.1951874
164928488,60.871117,37.26,100596.0,1.1952469
164940646,61.624176,37.26,100587.0,1.19514
164963841,61.45771,37.25,100588.99,1.1951636
164975935,59.446903,37.25,100613.0,1.1954489
164987862,60.871117,37.25,100596.0,1.1952469
165011816,60.70465,37.25,100598.0,1.1952707
165023987,59.53146,37.25,100612.0,1.195437
165035823,60.53554,37.25,100600.0,1.1952944
165059798,60.28452,37.25,100603.0,1.19533
165071939,59.613373,37.25,100611.0,1.1954252
165083821,60.53554,37.25,100600.0,1.1952944
165106054,60.199966,37.239998,100604.0,1.195342
165117534,60.369076,37.239998,100601.99,1.1953181
165127506,60.369076,37.239998,100601.99,1.1953181
165149424,60.369076,37.239998,100601.99,1.1953181
165160684,60.78656,37.239998,100597.0,1.1952587
165173651,60.369076,37.239998,100601.99,1.1953181
165197897,60.0335,37.239998,100606.0,1.1953657
165209581,60.199966,37.239998,100604.0,1.195342
165221610,60.199966,37.239998,100604.0,1.195342
165245426,60.118053,37.23,100605.0,1.1953539
165256740,59.280437,37.23,100615.0,1.1954726
165269269,60.199966,37.23,100604.0,1.195342
165291071,59.951588,37.23,100607.0,1.1953776
165302520,60.369076,37.23,100601.99,1.1953181
165312283,59.613373,37.23,100611.0,1.1954252
165336284,60.199966,37.23,100604.0,1.195342
165348485,59.867035,37.23,100607.99,1.1953894
165358965,59.697926,37.23,100610.0,1.1954132
165381429,59.78248,37.23,100609.0,1.1954013
165392714,60.199966,37.23,100604.0,1.195342
165404739,59.697926,37.23,100610.0,1.1954132
165428742,59.111332,37.219997,100617.0,1.1954964
165440706,59.53146,37.219997,100612.0,1.195437
165452771,59.951588,37.219997,100607.0,1.1953776
165476803,60.199966,37.219997,100604.0,1.195342
165488783,59.53146,37.219997,100612.0,1.195437
165499001,59.53146,37.219997,100612.0,1.195437
165520322,59.446903,37.219997,100613.0,1.1954489
165532692,59.867035,37.219997,100607.99,1.1953894
165544137,59.78248,37.219997,100609.0,1.1954013
165568284,58.944862,37.219997,100619.0,1.1955202
165581121,59.02942,37.219997,100618.0,1.1955082
165590971,60.118053,37.219997,100605.0,1.1953539
165612934,59.613373,37.219997,100611.0,1.1954252
165624769,60.118053,37.219997,100605.0,1.1953539
165636811,59.78248,37.219997,100609.0,1.1954013
165660733,59.951588,37.21,100607.0,1.1953776
165671931,59.697926,37.21,100610.0,1.1954132
165683022,60.369076,37.21,100601.99,1.1953181
165704933,58.778397,37.2,100621.0,1.1955439
165717171,59.78248,37.2,100609.0,1.1954013
165727005,60.118053,37.2,100605.0,1.1953539
165749476,60.45363,37.2,100600.99,1.1953062
165760746,58.944862,37.2,100619.0,1.1955202
165773253,59.78248,37.2,100609.0,1.1954013
165796614,60.0335,37.2,100606.0,1.1953657
165807859,59.364994,37.2,100613.99,1.1954607
165819018,60.620094,37.2,100599.0,1.1952826
165840939,60.369076,37.19,100601.99,1.1953181
165853317,60.118053,37.19,100605.0,1.1953539
165864225,60.369076,37.19,100601.99,1.1953181
165886978,60.369076,37.2,100601.99,1.1953181
165898516,60.28452,37.2,100603.0,1.19533
165909616,59.697926,37.2,100610.0,1.1954132
165930968,60.95567,37.19,100594.99,1.1952349
165942518,60.28452,37.19,100603.0,1.19533
165953074,60.199966,37.19,100604.0,1.195342
165975939,61.122135,37.19,100593.0,1.1952113
165987568,60.45363,37.19,100600.99,1.1953062
165998261,60.199966,37.19,100604.0,1.195342
166018971,59.364994,37.18,100613.99,1.1954607
166030521,59.280437,37.18,100615.0,1.1954726
166039960,60.118053,37.18,100605.0,1.1953539
166061459,59.697926,37.18,100610.0,1.1954132
166071806,60.78656,37.18,100597.0,1.1952587
166082349,60.70465,37.18,100598.0,1.1952707
166105375,60.118053,37.18,100605.0,1.1953539
166118169,60.118053,37.18,100605.0,1.1953539
166128709,60.95567,37.18,100594.99,1.1952349
166150222,60.118053,37.18,100605.0,1.1953539
166162325,60.28452,37.18,100603.0,1.19533
166173943,60.620094,37.18,100599.0,1.1952826
166195937,60.70465,37.17,100598.0,1.1952707
166206998,60.45363,37.17,100600.99,1.1953062
166217422,59.697926,37.17,100610.0,1.1954132
166242059,60.53554,37.17,100600.0,1.1952944
166254087,60.70465,37.17,100598.0,1.1952707
166264943,61.373158,37.17,100590.0,1.1951756
166287932,60.70465,37.17,100598.0,1.1952707
166299644,61.291245,37.17,100591.0,1.1951874
166310934,61.70873,37.17,100586.0,1.1951281
166331941,61.539623,37.16,100588.0,1.1951518
166343569,61.793285,37.16,100585.0,1.1951162
166354066,60.28452,37.16,100603.0,1.19533
166375220,61.95975,37.16,100582.99,1.1950923
166387485,61.539623,37.16,100588.0,1.1951518
166398453,61.8752,37.16,100584.0,1.1951044
166419939,60.95567,37.16,100594.99,1.1952349
166430909,61.122135,37.16,100593.0,1.1952113
166441418,62.12886,37.16,100581.0,1.1950687
166464783,60.95567,37.149998,100594.99,1.1952349
166477355,60.199966,37.149998,100604.0,1.195342
166487991,61.122135,37.149998,100593.0,1.1952113
166510544,60.95567,37.149998,100594.99,1.1952349
166521489,61.95975,37.149998,100582.99,1.1950923
166531941,61.539623,37.149998,100588.0,1.1951518
166554066,61.122135,37.149998,100593.0,1.1952113
166565986,61.206688,37.149998,100592.0,1.1951994
166576950,63.299408,37.149998,100567.0,1.1949023
166599975,61.539623,37.149998,100588.0,1.1951518
166610746,61.624176,37.149998,100587.0,1.19514
166622224,60.78656,37.149998,100597.0,1.1952587
166643943,61.95975,37.14,100582.99,1.1950923
166655532,62.37988,37.14,100578.0,1.1950331
166665942,61.95975,37.14,100582.99,1.1950923
166689026,61.8752,37.14,100584.0,1.1951044
166701374,62.12886,37.14,100581.0,1.1950687
166711976,61.373158,37.14,100590.0,1.1951756
166734690,61.95975,37.13,100582.99,1.1950923
166746516,62.963833,37.13,100571.0,1.1949499
166758356,61.291245,37.13,100591.0,1.1951874
166779932,61.539623,37.13,100588.0,1.1951518
166791525,62.461792,37.13,100576.99,1.195021
166800943,62.546345,37.13,100575.99,1.1950091
166821945,62.797367,37.13,100573.0,1.1949736
166833964,61.793285,37.13,100585.0,1.1951162
166843997,62.71281,37.13,100574.0,1.1949855
166864941,63.80145,37.12,100561.0,1.194831
166876493,62.71281,37.12,100574.0,1.1949855
166886974,62.963833,37.12,100571.0,1.1949499
166908945,61.373158,37.12,100590.0,1.1951756
166920491,62.295326,37.12,100579.0,1.1950449
166931060,62.21077,37.12,100580.0,1.1950568
166954770,63.299408,37.12,100567.0,1.1949023
166965570,62.295326,37.12,100579.0,1.1950449
166975933,63.048386,37.12,100569.99,1.1949378
166998058,62.71281,37.12,100574.0,1.1949855
167010190,62.044304,37.12,100582.0,1.1950805
167019972,62.6309,37.12,100575.0,1.1949974
167040940,63.80145,37.11,100561.0,1.194831
167052538,61.793285,37.11,100585.0,1.1951162
167063018,63.719536,37.11,100562.0,1.1948429
167085931,63.38396,37.11,100566.0,1.1948905
167098044,63.468513,37.11,100565.0,1.1948786
167108947,63.299408,37.11,100567.0,1.1949023
167131521,64.30613,37.1,100555.0,1.1947597
167142521,63.80145,37.1,100561.0,1.194831
167151935,63.970554,37.1,100559.0,1.1948073
167173525,64.30613,37.1,100555.0,1.1947597
167183532,65.05919,37.1,100546.0,1.1946528
167194977,64.30613,37.1,100555.0,1.1947597
167215973,63.970554,37.1,100559.0,1.1948073
167226999,62.461792,37.1,100576.99,1.195021
167238063,64.05511,37.1,100557.99,1.1947953
167260939,64.89008,37.1,100548.0,1.1946765
167271576,63.55307,37.1,100563.99,1.1948665
167282359,64.72362,37.1,100550.0,1.1947004
167303982,64.472595,37.09,100553.0,1.194736
167315486,63.634983,37.09,100563.0,1.1948547
167325939,64.05511,37.09,100557.99,1.1947953
167348935,64.89008,37.09,100548.0,1.1946765
167360493,64.472595,37.09,100553.0,1.194736
167370941,65.31021,37.09,100543.0,1.1946172
167392942,64.97464,37.079998,100547.0,1.1946647
167404494,65.05919,37.079998,100546.0,1.1946528
167415020,65.05919,37.079998,100546.0,1.1946528
167437939,65.812256,37.079998,100537.0,1.1945459
167449945,65.143745,37.079998,100544.99,1.1946409
167460935,64.472595,37.079998,100553.0,1.194736
167483065,65.47668,37.079998,100541.0,1.1945934
167493530,65.05919,37.079998,100546.0,1.1946528
167503997,66.23238,37.079998,100532.0,1.1944865
167525939,66.31693,37.079998,100531.0,1.1944746
167538039,65.31021,37.079998,100543.0,1.1946172
167548932,65.73034,37.079998,100538.0,1.1945578
167571166,64.55715,37.07,100551.99,1.194724
167582484,64.64171,37.07,100550.99,1.1947122
167592940,65.73034,37.07,100538.0,1.1945578
167614975,67.07,37.07,100522.0,1.1943676
167626768,66.4834,37.07,100529.0,1.1944509
167637948,66.81898,37.07,100525.0,1.1944033
167660953,66.903534,37.059998,100524.0,1.1943914
167672541,67.321014,37.059998,100519.0,1.194332
167684820,66.98544,37.059998,100523.0,1.1943796
167708880,67.15455,37.059998,100521.0,1.1943557
167720576,66.73707,37.059998,100525.99,1.1944151
167733107,66.81898,37.059998,100525.0,1.1944033
167753933,66.39885,37.05,100530.0,1.1944627
167764522,67.07,37.05,100522.0,1.1943676
167775500,67.48748,37.05,100517.0,1.1943083
167796950,66.4834,37.04,100529.0,1.1944509
167808540,66.903534,37.04,100524.0,1.1943914
167820868,66.73707,37.04,100525.99,1.1944151
167844795,65.39477,37.04,100542.0,1.1946052
167856542,66.4834,37.04,100529.0,1.1944509
167868896,66.73707,37.04,100525.99,1.1944151
167892772,66.39885,37.04,100530.0,1.1944627
167904550,66.31693,37.04,100531.0,1.1944746
167913946,65.64579,37.04,100538.99,1.1945696
167935943,65.896805,37.03,100536.0,1.194534
167948496,66.31693,37.03,100531.0,1.1944746
167959479,66.06327,37.03,100534.0,1.1945102
167980623,66.06327,37.03,100534.0,1.1945102
167991107,65.47668,37.03,100541.0,1.1945934
168001941,66.14783,37.03,100532.99,1.1944983
168023478,65.39477,37.02,100542.0,1.1946052
168034521,64.97464,37.02,100547.0,1.1946647
168044110,65.73034,37.02,100538.0,1.1945578
168068278,65.896805,37.02,100536.0,1.194534
168080758,65.73034,37.02,100538.0,1.1945578
168092268,64.72362,37.02,100550.0,1.1947004
168116280,66.23238,37.02,100532.0,1.1944865
168128813,65.47668,37.02,100541.0,1.1945934
168140951,65.39477,37.02,100542.0,1.1946052
168163954,65.98136,37.01,100535.0,1.1945221
168175935,65.98136,37.01,100535.0,1.1945221
168187875,65.47668,37.01,100541.0,1.1945934
168210056,65.31021,37.0,100543.0,1.1946172
168221492,65.56123,37.0,100540.0,1.1945815
168231426,65.56123,37.0,100540.0,1.1945815
168253082,65.812256,37.0,100537.0,1.1945459
168264769,65.73034,37.0,100538.0,1.1945578
168275221,65.56123,37.0,100540.0,1.1945815
168298727,65.64579,36.989998,100538.99,1.1945696
168310122,66.06327,36.989998,100534.0,1.1945102
168320571,65.64579,36.989998,100538.99,1.1945696
168344454,65.05919,36.989998,100546.0,1.1946528
168357259,65.812256,36.989998,100537.0,1.1945459
168367275,66.06327,36.989998,100534.0,1.1945102
168390984,66.39885,36.989998,100530.0,1.1944627
168401564,66.06327,36.989998,100534.0,1.1945102
168413728,65.98136,36.989998,100535.0,1.1945221
168437892,65.73034,36.98,100538.0,1.1945578
168449606,65.812256,36.98,100537.0,1.1945459
168460920,65.73034,36.98,100538.0,1.1945578
168483308,66.65251,36.969997,100526.99,1.194427
168495911,65.98136,36.969997,100535.0,1.1945221
168507074,67.239105,36.969997,100519.99,1.1943438
168528934,66.567955,36.969997,100528.0,1.1944389
168541283,67.48748,36.969997,100517.0,1.1943083
168552283,67.239105,36.969997,100519.99,1.1943438
168574964,66.14783,36.969997,100532.99,1.1944983
168585498,66.81898,36.969997,100525.0,1.1944033
168595264,67.321014,36.969997,100519.0,1.194332
168616948,66.39885,36.96,100530.0,1.1944627
168629285,67.239105,36.96,100519.99,1.1943438
168640289,66.81898,36.96,100525.0,1.1944033
168662960,66.98544,36.96,100523.0,1.1943796
168673571,66.14783,36.96,100532.99,1.1944983
168685755,66.39885,36.96,100530.0,1.1944627
168709430,66.4834,36.95,100529.0,1.1944509
168720700,67.321014,36.95,100519.0,1.194332
168733703,66.65251,36.95,100526.99,1.194427
168757455,67.239105,36.95,100519.99,1.1943438
168768920,67.65659,36.95,100515.0,1.1942844
168780799,66.903534,36.95,100524.0,1.1943914
168804648,67.239105,36.94,100519.99,1.1943438
168816954,67.239105,36.94,100519.99,1.1943438
168828766,66.23238,36.94,100532.0,1.1944865
168852666,66.98544,36.93,100523.0,1.1943796
168864686,66.4834,36.93,100529.0,1.1944509
168876765,66.81898,36.93,100525.0,1.1944033
168900762,67.07,36.93,100522.0,1.1943676
168912761,66.903534,36.93,100524.0,1.1943914
168922964,68.40965,36.93,100506.0,1.1941775
168944135,67.40557,36.92,100518.0,1.1943201
168956350,67.15455,36.92,100521.0,1.1943557
168966995,67.40557,36.92,100518.0,1.1943201
168990058,65.73034,36.92,100538.0,1.1945578
169001489,66.65251,36.92,100526.99,1.194427
169013426,66.31693,36.92,100531.0,1.1944746
169036821,66.31693,36.91,100531.0,1.1944746
169048753,66.4834,36.91,100529.0,1.1944509
169060867,66.4834,36.91,100529.0,1.1944509
169084862,66.39885,36.91,100530.0,1.1944627
169096814,67.07,36.91,100522.0,1.1943676
169107019,67.239105,36.91,100519.99,1.1943438
169128938,67.321014,36.91,100519.0,1.194332
169141244,67.48748,36.91,100517.0,1.1943083
169151942,66.4834,36.91,100529.0,1.1944509
169174403,67.40557,36.89,100518.0,1.1943201
169185535,66.98544,36.89,100523.0,1.1943796
169195943,67.992165,36.89,100511.0,1.194237
169218085,67.07,36.89,100522.0,1.1943676
169230036,67.992165,36.89,100511.0,1.194237
169241090,67.15455,36.89,100521.0,1.1943557
169263981,67.74114,36.89,100513.99,1.1942725
169275524,68.15863,36.89,100509.0,1.1942132
169286436,67.321014,36.89,100519.0,1.194332
169307008,67.40557,36.89,100518.0,1.1943201
169318520,67.992165,36.89,100511.0,1.194237
169328028,68.15863,36.89,100509.0,1.1942132
169350224,67.65659,36.89,100515.0,1.1942844
169360730,67.48748,36.89,100517.0,1.1943083
169371015,67.321014,36.89,100519.0,1.194332
169391977,67.82306,36.88,100513.0,1.1942607
169403484,67.74114,36.88,100513.99,1.1942725
169413471,67.07,36.88,100522.0,1.1943676
169434356,67.992165,36.88,100511.0,1.194237
169447715,66.65251,36.88,100526.99,1.194427
169458229,66.903534,36.88,100524.0,1.1943914
169481375,66.98544,36.87,100523.0,1.1943796
169494049,67.40557,36.87,100518.0,1.1943201
169505086,67.48748,36.87,100517.0,1.1943083
169529097,66.98544,36.87,100523.0,1.1943796
169541950,66.65251,36.87,100526.99,1.194427
169553081,66.903534,36.87,100524.0,1.1943914
169575935,67.239105,36.86,100519.99,1.1943438
169587525,67.40557,36.86,100518.0,1.1943201
169597932,67.321014,36.86,100519.0,1.194332
169619941,66.65251,36.86,100526.99,1.194427
169631529,67.07,36.86,100522.0,1.1943676
169642043,67.321014,36.86,100519.0,1.194332
169664931,67.321014,36.86,100519.0,1.194332
169677316,68.32774,36.86,100507.0,1.1941894
169687941,68.07672,36.86,100510.0,1.1942251
169710274,66.81898,36.85,100525.0,1.1944033
169720753,67.65659,36.85,100515.0,1.1942844
169731943,66.65251,36.85,100526.99,1.194427
169753942,67.65659,36.84,100515.0,1.1942844
169765237,67.65659,36.84,100515.0,1.1942844
169775010,66.567955,36.84,100528.0,1.1944389
169798385,67.321014,36.85,100519.0,1.194332
169809530,67.321014,36.85,100519.0,1.194332
169819973,66.567955,36.85,100528.0,1.1944389
169841942,67.907616,36.84,100512.0,1.1942488
169853159,66.903534,36.84,100524.0,1.1943914
169862959,65.98136,36.84,100535.0,1.1945221
169883932,65.56123,36.84,100540.0,1.1945815
169895514,66.567955,36.84,100528.0,1.1944389
169905931,66.81898,36.84,100525.0,1.1944033
169928937,66.567955,36.829998,100528.0,1.1944389
169939529,66.31693,36.829998,100531.0,1.1944746
169949942,66.4834,36.829998,100529.0,1.1944509
169973246,65.47668,36.829998,100541.0,1.1945934
169984542,66.06327,36.829998,100534.0,1.1945102
169995066,66.4834,36.829998,100529.0,1.1944509
170016013,65.896805,36.829998,100536.0,1.194534
170027527,66.903534,36.829998,100524.0,1.1943914
170037465,66.31693,36.829998,100531.0,1.1944746
170058991,66.65251,36.82,100526.99,1.194427
170070522,67.321014,36.82,100519.0,1.194332
170080941,66.06327,36.82,100534.0,1.1945102
170102971,66.903534,36.82,100524.0,1.1943914
170114978,66.31693,36.82,100531.0,1.1944746
170126059,64.97464,36.82,100547.0,1.1946647
170147970,65.812256,36.82,100537.0,1.1945459
170159530,65.98136,36.82,100535.0,1.1945221
170170993,66.23238,36.82,100532.0,1.1944865
170191932,65.56123,36.809998,100540.0,1.1945815
170202993,65.39477,36.809998,100542.0,1.1946052
170214058,65.143745,36.809998,100544.99,1.1946409
170237273,64.472595,36.809998,100553.0,1.194736
170248531,65.896805,36.809998,100536.0,1.194534
170259259,66.14783,36.809998,100532.99,1.1944983
170280937,64.38805,36.8,100554.0,1.1947478
170291641,64.472595,36.8,100553.0,1.194736
170302224,64.97464,36.8,100547.0,1.1946647
170325738,64.05511,36.8,100557.99,1.1947953
170338080,64.808174,36.8,100549.0,1.1946884
170349444,64.72362,36.8,100550.0,1.1947004
170371337,64.05511,36.8,100557.99,1.1947953
170382520,64.05511,36.8,100557.99,1.1947953
170392946,64.472595,36.8,100553.0,1.194736
170414932,64.97464,36.79,100547.0,1.1946647
170426773,63.80145,36.79,100561.0,1.194831
170437931,64.38805,36.79,100554.0,1.1947478
170460940,63.299408,36.79,100567.0,1.1949023
170471664,64.22157,36.79,100556.0,1.1947716
170483321,63.80145,36.79,100561.0,1.194831
170504932,64.30613,36.78,100555.0,1.1947597
170516487,64.30613,36.78,100555.0,1.1947597
170527020,64.55715,36.78,100551.99,1.194724
170549938,63.886,36.78,100560.0,1.1948191
170562032,63.55307,36.78,100563.99,1.1948665
170572944,63.80145,36.78,100561.0,1.194831
170595262,64.30613,36.78,100555.0,1.1947597
170606497,64.808174,36.78,100549.0,1.1946884
170615976,64.05511,36.78,100557.99,1.1947953
170637450,63.55307,36.78,100563.99,1.1948665
170647530,64.38805,36.78,100554.0,1.1947478
170659484,63.80145,36.78,100561.0,1.194831
170679976,64.64171,36.77,100550.99,1.1947122
170691535,64.30613,36.77,100555.0,1.1947597
170701457,64.30613,36.77,100555.0,1.1947597
170722978,64.22157,36.77,100556.0,1.1947716
170734482,64.38805,36.77,100554.0,1.1947478
170744932,64.808174,36.77,100549.0,1.1946884
170766229,64.89008,36.76,100548.0,1.1946765
170778931,64.55715,36.76,100551.99,1.194724
170789913,62.88192,36.76,100572.0,1.1949618
170813024,65.05919,36.76,100546.0,1.1946528
170824494,64.55715,36.76,100551.99,1.194724
170835948,64.05511,36.76,100557.99,1.1947953
170857936,63.55307,36.76,100563.99,1.1948665
170868548,63.80145,36.76,100561.0,1.194831
170879489,64.38805,36.76,100554.0,1.1947478
170900608,63.21485,36.75,100568.0,1.1949142
170911113,63.132942,36.75,100569.0,1.1949261
170920936,63.634983,36.75,100563.0,1.1948547
170943941,63.80145,36.75,100561.0,1.194831
170956457,63.634983,36.75,100563.0,1.1948547
170967522,64.472595,36.75,100553.0,1.194736
170990054,64.38805,36.75,100554.0,1.1947478
171001483,64.472595,36.75,100553.0,1.194736
171011972,63.970554,36.75,100559.0,1.1948073
171035927,63.299408,36.739998,100567.0,1.1949023
171047985,63.80145,36.739998,100561.0,1.194831
171057935,63.132942,36.739998,100569.0,1.1949261
171079483,63.468513,36.739998,100565.0,1.1948786
171090518,63.299408,36.739998,100567.0,1.1949023
171100531,63.80145,36.739998,100561.0,1.194831
171119993,63.299408,36.739998,100567.0,1.1949023
171132447,62.6309,36.739998,100575.0,1.1949974
171142059,61.539623,36.739998,100588.0,1.1951518
171163855,62.546345,36.739998,100575.99,1.1950091
171175964,62.88192,36.739998,100572.0,1.1949618
171185948,64.05511,36.739998,100557.99,1.1947953
171207944,62.88192,36.73,100572.0,1.1949618
171221184,62.963833,36.73,100571.0,1.1949499
171231938,62.797367,36.73,100573.0,1.1949736
171255348,63.048386,36.73,100569.99,1.1949378
171267586,63.048386,36.73,100569.99,1.1949378
171278089,62.963833,36.73,100571.0,1.1949499
171299840,62.044304,36.719997,100582.0,1.1950805
171311894,62.37988,36.719997,100578.0,1.1950331
171324457,61.95975,36.719997,100582.99,1.1950923
171344932,61.8752,36.71,100584.0,1.1951044
171356484,62.21077,36.71,100580.0,1.1950568
171367507,62.21077,36.71,100580.0,1.1950568
171388686,61.037582,36.71,100594.0,1.1952231
171399903,62.044304,36.71,100582.0,1.1950805
171412917,61.122135,36.71,100593.0,1.1952113
171433940,61.539623,36.71,100588.0,1.1951518
171445283,61.95975,36.71,100582.99,1.1950923
171456315,62.461792,36.71,100576.99,1.195021
171477934,63.468513,36.7,100565.0,1.1948786
171489484,63.299408,36.7,100567.0,1.1949023
171501445,62.044304,36.7,100582.0,1.1950805
171522933,62.044304,36.7,100582.0,1.1950805
171534516,62.21077,36.7,100580.0,1.1950568
171544932,62.88192,36.7,100572.0,1.1949618
171565934,61.8752,36.7,100584.0,1.1951044
171576753,62.295326,36.7,100579.0,1.1950449
171588856,61.793285,36.7,100585.0,1.1951162
171613456,61.291245,36.69,100591.0,1.1951874
171624684,61.291245,36.69,100591.0,1.1951874
171637622,61.291245,36.69,100591.0,1.1951874
171661527,61.70873,36.69,100586.0,1.1951281
171672703,61.539623,36.69,100588.0,1.1951518
171684660,60.871117,36.69,100596.0,1.1952469
171708739,61.037582,36.68,100594.0,1.1952231
171720918,61.624176,36.68,100587.0,1.19514
171732784,61.037582,36.68,100594.0,1.1952231
171756716,61.206688,36.68,100592.0,1.1951994
171768677,60.95567,36.68,100594.99,1.1952349
171780784,61.206688,36.68,100592.0,1.1951994
171804621,61.793285,36.67,100585.0,1.1951162
171815860,61.70873,36.67,100586.0,1.1951281
171826974,62.37988,36.67,100578.0,1.1950331
171848940,61.539623,36.66,100588.0,1.1951518
171861977,61.539623,36.66,100588.0,1.1951518
171872942,61.206688,36.66,100592.0,1.1951994
171896280,59.867035,36.66,100607.99,1.1953894
171909121,60.118053,36.66,100605.0,1.1953539
171918960,61.291245,36.66,100591.0,1.1951874
171940942,60.369076,36.66,100601.99,1.1953181
171952763,59.697926,36.66,100610.0,1.1954132
171962998,60.78656,36.66,100597.0,1.1952587
171984327,59.867035,36.649998,100607.99,1.1953894
171996383,60.53554,36.649998,100600.0,1.1952944
172006999,60.199966,36.649998,100604.0,1.195342
172030059,59.280437,36.649998,100615.0,1.1954726
172041493,60.53554,36.649998,100600.0,1.1952944
172053429,60.53554,36.649998,100600.0,1.1952944
172077554,61.206688,36.649998,100592.0,1.1951994
172088808,60.620094,36.649998,100599.0,1.1952826
172101429,60.95567,36.649998,100594.99,1.1952349
172124943,60.199966,36.64,100604.0,1.195342
172136741,60.28452,36.64,100603.0,1.19533
172148672,59.951588,36.64,100607.0,1.1953776
172170057,60.118053,36.63,100605.0,1.1953539
172181495,59.78248,36.63,100609.0,1.1954013
172191008,60.28452,36.63,100603.0,1.19533
172213538,61.122135,36.63,100593.0,1.1952113
172224735,60.871117,36.63,100596.0,1.1952469
172236654,60.95567,36.63,100594.99,1.1952349
172260666,60.70465,36.63,100598.0,1.1952707
172272812,60.53554,36.63,100600.0,1.1952944
172284769,60.369076,36.63,100601.99,1.1953181
172307940,60.369076,36.62,100601.99,1.1953181
172319531,60.871117,36.62,100596.0,1.1952469
172329940,60.199966,36.62,100604.0,1.195342
172353087,60.871117,36.61,100596.0,1.1952469
172365165,60.620094,36.61,100599.0,1.1952826
172375944,60.78656,36.61,100597.0,1.1952587
172397933,60.199966,36.61,100604.0,1.195342
172409494,60.70465,36.61,100598.0,1.1952707
172419970,60.95567,36.61,100594.99,1.1952349
172442081,61.624176,36.6,100587.0,1.19514
172454029,61.539623,36.6,100588.0,1.1951518
172465070,60.70465,36.6,100598.0,1.1952707
172487932,61.206688,36.6,100592.0,1.1951994
172499525,61.122135,36.6,100593.0,1.1952113
172510625,61.624176,36.6,100587.0,1.19514
172531977,60.78656,36.6,100597.0,1.1952587
172543569,61.037582,36.6,100594.0,1.1952231
172553943,60.0335,36.6,100606.0,1.1953657
172575996,61.206688,36.59,100592.0,1.1951994
172587584,61.037582,36.59,100594.0,1.1952231
172598273,60.620094,36.59,100599.0,1.1952826
172619975,60.45363,36.59,100600.99,1.1953062
172631538,59.78248,36.59,100609.0,1.1954013
172641089,60.78656,36.59,100597.0,1.1952587
172663988,59.951588,36.579998,100607.0,1.1953776
172675539,60.871117,36.579998,100596.0,1.1952469
172686238,60.70465,36.579998,100598.0,1.1952707
172707943,59.867035,36.579998,100607.99,1.1953894
172719530,60.78656,36.579998,100597.0,1.1952587
172729085,61.037582,36.579998,100594.0,1.1952231
172750965,60.0335,36.57,100606.0,1.1953657
172762522,60.871117,36.57,100596.0,1.1952469
172774242,60.45363,36.57,100600.99,1.1953062
172795007,59.951588,36.57,100607.0,1.1953776
172806482,61.206688,36.57,100592.0,1.1951994
172816008,61.206688,36.57,100592.0,1.1951994
172835986,59.697926,36.559998,100610.0,1.1954132
172847861,61.206688,36.559998,100592.0,1.1951994
172858964,60.70465,36.559998,100598.0,1.1952707
172880746,60.0335,36.559998,100606.0,1.1953657
172893334,59.364994,36.559998,100613.99,1.1954607
172903932,59.280437,36.559998,100615.0,1.1954726
172925933,59.195885,36.55,100616.0,1.1954845
172937529,60.871117,36.55,100596.0,1.1952469
172947941,60.620094,36.55,100599.0,1.1952826
172969936,59.364994,36.55,100613.99,1.1954607
172982180,60.53554,36.55,100600.0,1.1952944
172993031,60.95567,36.55,100594.99,1.1952349
173016946,59.53146,36.54,100612.0,1.195437
173029163,60.45363,36.54,100600.99,1.1953062
173039978,59.697926,36.54,100610.0,1.1954132
173062229,61.037582,36.54,100594.0,1.1952231
173073537,59.53146,36.54,100612.0,1.195437
173083945,59.195885,36.54,100616.0,1.1954845
173106056,59.53146,36.53,100612.0,1.195437
173118203,60.70465,36.53,100598.0,1.1952707
173129036,59.446903,36.53,100613.0,1.1954489
173151971,61.373158,36.53,100590.0,1.1951756
173163527,59.867035,36.53,100607.99,1.1953894
173175351,60.118053,36.53,100605.0,1.1953539
173196950,59.364994,36.52,100613.99,1.1954607
173208524,60.53554,36.52,100600.0,1.1952944
173219013,59.111332,36.52,100617.0,1.1954964
173241940,60.620094,36.51,100599.0,1.1952826
173253982,59.364994,36.51,100613.99,1.1954607
173264932,59.613373,36.51,100611.0,1.1954252
173287294,58.442825,36.51,100625.0,1.1955914
173298520,59.867035,36.51,100607.99,1.1953894
173308940,58.693844,36.51,100622.0,1.1955558
173329932,59.613373,36.5,100611.0,1.1954252
173340502,59.111332,36.5,100617.0,1.1954964
173351489,60.45363,36.5,100600.99,1.1953062
173374987,61.037582,36.5,100594.0,1.1952231
173385520,59.53146,36.5,100612.0,1.195437
173395932,59.53146,36.5,100612.0,1.195437
173417935,59.53146,36.5,100612.0,1.195437
173428492,60.0335,36.5,100606.0,1.1953657
173438981,59.613373,36.5,100611.0,1.1954252
173460942,59.78248,36.489998,100609.0,1.1954013
173472501,60.78656,36.489998,100597.0,1.1952587
173482965,59.697926,36.489998,100610.0,1.1954132
173506059,59.951588,36.489998,100607.0,1.1953776
173518094,59.78248,36.489998,100609.0,1.1954013
173529515,59.364994,36.489998,100613.99,1.1954607
173551000,60.45363,36.48,100600.99,1.1953062
173562524,59.53146,36.48,100612.0,1.195437
173572932,58.944862,36.48,100619.0,1.1955202
173594982,60.620094,36.48,100599.0,1.1952826
173606921,59.53146,36.48,100612.0,1.195437
173618058,58.778397,36.48,100621.0,1.1955439
173641443,57.60521,36.469997,100635.0,1.1957103
173652494,57.774315,36.469997,100632.99,1.1956865
173663056,59.364994,36.469997,100613.99,1.1954607
173684056,60.78656,36.46,100597.0,1.1952587
173695539,58.191803,36.46,100628.0,1.1956271
173705932,58.442825,36.46,100625.0,1.1955914
173728951,58.276356,36.46,100626.99,1.1956152
173740513,58.276356,36.46,100626.99,1.1956152
173751208,59.111332,36.46,100617.0,1.1954964
173772949,60.53554,36.46,100600.0,1.1952944
173784495,60.45363,36.46,100600.99,1.1953062
173794970,59.195885,36.46,100616.0,1.1954845
173817281,58.944862,36.44,100619.0,1.1955202
173828534,60.620094,36.44,100599.0,1.1952826
173839125,60.0335,36.44,100606.0,1.1953657
173859935,59.951588,36.44,100607.0,1.1953776
173870906,58.35827,36.44,100625.99,1.1956033
173881954,59.02942,36.44,100618.0,1.1955082
173903934,59.02942,36.44,100618.0,1.1955082
173915528,60.118053,36.44,100605.0,1.1953539
173927012,60.620094,36.44,100599.0,1.1952826
173948943,60.78656,36.43,100597.0,1.1952587
173959527,60.45363,36.43,100600.99,1.1953062
173970044,59.951588,36.43,100607.0,1.1953776
173990972,58.61193,36.42,100623.0,1.1955677
174002804,58.276356,36.42,100626.99,1.1956152
174014234,58.778397,36.42,100621.0,1.1955439
174035933,58.191803,36.42,100628.0,1.1956271
174046542,58.276356,36.42,100626.99,1.1956152
174056949,58.61193,36.42,100623.0,1.1955677
174079021,58.693844,36.42,100622.0,1.1955558
174090944,58.35827,36.42,100625.99,1.1956033
174102255,58.693844,36.42,100622.0,1.1955558
174123948,60.53554,36.41,100600.0,1.1952944
174135529,59.78248,36.41,100609.0,1.1954013
174145020,59.364994,36.41,100613.99,1.1954607
174167069,59.364994,36.399998,100613.99,1.1954607
174178794,59.697926,36.399998,100610.0,1.1954132
174190307,57.60521,36.399998,100635.0,1.1957103
174211942,60.95567,36.399998,100594.99,1.1952349
174223533,61.037582,36.399998,100594.0,1.1952231
174235511,59.280437,36.399998,100615.0,1.1954726
174256947,59.951588,36.39,100607.0,1.1953776
174268526,60.45363,36.39,100600.99,1.1953062
174278978,59.195885,36.39,100616.0,1.1954845
174299974,59.195885,36.39,100616.0,1.1954845
174311537,58.693844,36.39,100622.0,1.1955558
174323544,59.697926,36.39,100610.0,1.1954132
174347683,59.02942,36.38,100618.0,1.1955082
174359531,59.867035,36.38,100607.99,1.1953894
174371865,59.446903,36.38,100613.0,1.1954489
174393078,59.697926,36.37,100610.0,1.1954132
174404492,59.697926,36.37,100610.0,1.1954132
174415018,58.61193,36.37,100623.0,1.1955677
174438239,57.940784,36.36,100631.0,1.1956627
174449504,58.61193,36.36,100623.0,1.1955677
174460010,58.944862,36.36,100619.0,1.1955202
174482792,59.446903,36.35,100613.0,1.1954489
174494539,58.693844,36.35,100622.0,1.1955558
174504932,58.61193,36.35,100623.0,1.1955677
174527015,58.35827,36.35,100625.99,1.1956033
174538918,58.61193,36.35,100623.0,1.1955677
174550306,58.442825,36.35,100625.0,1.1955914
174571941,59.697926,36.34,100610.0,1.1954132
174583531,58.35827,36.34,100625.99,1.1956033
174595746,59.446903,36.34,100613.0,1.1954489
174619756,58.10725,36.329998,100629.0,1.195639
174631532,58.944862,36.329998,100619.0,1.1955202
174642920,58.61193,36.329998,100623.0,1.1955677
174664930,58.944862,36.32,100619.0,1.1955202
174676488,58.778397,36.32,100621.0,1.1955439
174686988,59.02942,36.32,100618.0,1.1955082
174710259,59.364994,36.309998,100613.99,1.1954607
174721495,59.111332,36.309998,100617.0,1.1954964
174732561,58.944862,36.309998,100619.0,1.1955202
174754925,58.442825,36.309998,100625.0,1.1955914
174766736,57.60521,36.309998,100635.0,1.1957103
174776950,58.025337,36.309998,100630.0,1.1956508
174798994,57.940784,36.3,100631.0,1.1956627
174810737,58.527378,36.3,100624.0,1.1955795
174822252,58.944862,36.3,100619.0,1.1955202
174843938,58.442825,36.29,100625.0,1.1955914
