timestamp,states[0],states[1],states[2],states[3],states[4],states[5],states[6],states[7],states[8],states[9],states[10],states[11],states[12],states[13],states[14],states[15],states[16],states[17],states[18],states[19],states[20],states[21],states[22],states[23],n_states,vibe[0],vibe[1],vibe[2],covariances[0],covariances[1],covariances[2],covariances[3],covariances[4],covariances[5],covariances[6],covariances[7],covariances[8],covariances[9],covariances[10],covariances[11],covariances[12],covariances[13],covariances[14],covariances[15],covariances[16],covariances[17],covariances[18],covariances[19],covariances[20],covariances[21],covariances[22],covariances[23],control_mode_flags,pos_horiz_accuracy,pos_vert_accuracy,mag_test_ratio,vel_test_ratio,pos_test_ratio,hgt_test_ratio,tas_test_ratio,hagl_test_ratio,beta_test_ratio,time_slip,gps_check_fail_flags,filter_fault_flags,innovation_check_flags,solution_status_flags,nan_flags,health_flags,timeout_flags,pre_flt_fail
155105339,0.99507356,-0.015722886,-0.01161314,0.097194,0.017627686,0.008522736,0.003717629,1.0104638,0.177758,0.2517428,1.3496494e-06,3.6943304e-06,7.326785e-07,-0.00019021123,0.00011733013,-0.0005086864,0.24579702,0.041145544,0.38877177,0.0,0.0,0.0,0.0,0.0,0.0,1.7544058e-11,5.4146385e-06,0.0003977066,4.8840457e-07,0.00010147167,0.00010087774,3.5239136e-05,0.0124347685,0.012435305,0.010537007,0.05087358,0.050874494,0.056731943,1.0508384e-11,1.0514086e-11,1.8127277e-11,2.4125793e-06,2.4170492e-06,5.0000036e-08,0.0,0.0,0.0,0.0,0.0,0.0,0.0,0.0,535,0.31897974,0.23818468,0.0006073158,0.020035127,0.01667385,0.00797423,0.0,0.0,0.0,-0.004285,0,0,0,831,0,0,0,0
155305344,0.99511003,-0.015801499,-0.011628226,0.09680517,0.01549981,0.0073501286,0.004887361,1.0054013,0.16805986,0.25499764,1.3874394e-06,3.651582e-06,7.5138644e-07,-0.00018969907,0.00011770436,-0.0005102144,0.24579702,0.041145544,0.38877177,0.0,0.0,0.0,0.0,0.0,0.0,1.5421815e-08,7.010501e-05,0.00133943,4.8575174e-07,0.00010148639,0.00010089159,3.5178255e-05,0.012436785,0.012437066,0.010491691,0.050850596,0.050851528,0.056386665,1.0509281e-11,1.0515007e-11,1.8114543e-11,2.4125625e-06,2.4170356e-06,5e-08,0.0,0.0,0.0,0.0,0.0,0.0,0.0,0.0,535,0.3189077,0.23745877,0.03668457,0.022132609,0.016964559,0.01176843,0.0,0.0,0.0,-0.00428,0,0,0,831,0,0,0,0
155514964,0.99500453,-0.016009655,-0.0119005,0.09781638,0.015815511,0.0024724207,0.007853033,1.0009031,0.1610379,0.270392,1.4062567e-06,3.6147703e-06,7.564882e-07,-0.0001890068,0.00011802266,-0.0005155791,0.24579702,0.041145544,0.38877177,0.0,0.0,0.0,0.0,0.0,0.0,2.242875e-08,0.00012344978,0.0024847377,4.948463e-07,0.00010150879,0.000100909696,3.51842e-05,0.012503187,0.012503234,0.010494116,0.051169373,0.05117026,0.056413222,1.0516027e-11,1.0521793e-11,1.8119506e-11,2.4125482e-06,2.4170247e-06,5.0000036e-08,0.0,0.0,0.0,0.0,0.0,0.0,0.0,0.0,535,0.31990567,0.23751467,0.027958231,0.016837887,0.016862199,0.022863053,0.0,0.0,0.0,-0.00426,0,0,0,831,0,0,0,0
155714938,0.9950438,-0.016003333,-0.012010335,0.097404204,0.013883688,0.00081281806,0.0070175836,0.9957377,0.1569017,0.270381,1.4072363e-06,3.5832409e-06,7.353623e-07,-0.00018882629,0.00011796957,-0.00051518006,0.24579702,0.041145544,0.38877177,0.0,0.0,0.0,0.0,0.0,0.0,1.8266137e-08,0.00013722914,0.0030024566,4.925978e-07,0.00010151998,0.000100919264,3.5178673e-05,0.012497639,0.012497405,0.010456985,0.051120896,0.051121715,0.05608963,1.051476e-11,1.0520558e-11,1.8116567e-11,2.4125368e-06,2.4170172e-06,5e-08,0.0,0.0,0.0,0.0,0.0,0.0,0.0,0.0,535,0.31975397,0.23683248,0.005074692,0.01412702,0.014700559,0.0022882447,0.0,0.0,0.0,-0.004285,0,0,0,831,0,0,0,0
155914951,0.995088,-0.015227094,-0.010885884,0.09720965,0.008856726,0.0053485953,0.012408121,0.9940907,0.14999609,0.28391573,1.4273279e-06,3.571665e-06,7.113843e-07,-0.00018846031,0.00011828016,-0.00051941734,0.24579702,0.041145544,0.38877177,0.0,0.0,0.0,0.0,0.0,0.0,8.903924e-08,0.00026170947,0.005939866,4.8459344e-07,0.00010152607,0.00010093842,3.522691e-05,0.012478442,0.012477905,0.010507381,0.051020946,0.05102167,0.05656549,1.0512421e-11,1.05182625e-11,1.8125243e-11,2.4125263e-06,2.4170101e-06,5.000007e-08,0.0,0.0,0.0,0.0,0.0,0.0,0.0,0.0,663,0.3194411,0.237835,0.00250182,0.004423779,0.016308565,0.025771836,0.0,0.0,0.0,-0.004273,0,0,0,831,0,0,0,0
156115752,0.99548125,-0.0066385763,-0.00039599265,0.09472523,-0.02782809,0.038941897,-0.12851936,0.9811499,0.14713238,0.26680574,1.4157117e-06,3.518678e-06,7.1393254e-07,-0.00018919828,0.00011847398,-0.0005150808,0.24579702,0.041145544,0.38877177,0.0,0.0,0.0,0.0,0.0,0.0,3.4539286e-07,0.00063470926,0.014987615,4.2641284e-07,0.00010130467,0.000100844445,3.524218e-05,0.011193582,0.011192655,0.010358052,0.043928742,0.04392919,0.0564088,1.0409994e-11,1.0416053e-11,1.8123848e-11,2.4124722e-06,2.4169394e-06,5e-08,0.0,0.0,0.0,0.0,0.0,0.0,0.0,0.0,663,0.29640839,0.23750536,0.0146409655,0.024096891,0.014699641,0.018616186,0.0,0.0,0.0,-0.004273,0,0,0,831,0,0,0,0
156323775,0.9967569,0.0014755197,0.0013021446,0.08044779,-0.06616053,0.091737375,-1.3289077,0.9675293,0.15287049,0.115443006,1.4310701e-06,3.488152e-06,7.453009e-07,-0.00019438128,0.00011692127,-0.0005109786,0.24579702,0.041145544,0.38877177,0.0,0.0,0.0,0.0,0.0,0.0,3.7179723e-07,0.0006849478,0.017107824,3.6088787e-07,0.00010073227,0.00010032707,3.5334993e-05,0.012504266,0.012503255,0.010349881,0.04419259,0.044192944,0.05630757,1.0406412e-11,1.0412636e-11,1.8124615e-11,2.4068747e-06,2.4112696e-06,5.0000036e-08,0.0,0.0,0.0,0.0,0.0,0.0,0.0,0.0,663,0.29729706,0.23729216,0.011500198,0.015627641,0.013938227,0.016582115,0.0,0.0,0.0,-0.004248,0,0,0,831,0,0,0,0
156523763,0.99767494,0.003279193,0.0018668154,0.06804856,-0.12655702,0.19706032,-2.6528738,0.93894404,0.1671201,-0.2642711,1.4906498e-06,3.4120812e-06,7.799398e-07,-0.00022934302,9.480218e-05,-0.00052020635,0.24579702,0.041145544,0.38877177,0.0,0.0,0.0,0.0,0.0,0.0,3.2372597e-07,0.00095971534,0.025536766,3.0241196e-07,9.9139936e-05,9.8761e-05,3.5389512e-05,0.014900406,0.014897275,0.010313945,0.044296414,0.04429666,0.055930343,1.0392495e-11,1.0399061e-11,1.8120873e-11,2.3848704e-06,2.3890618e-06,5e-08,0.0,0.0,0.0,0.0,0.0,0.0,0.0,0.0,663,0.2976459,0.23649597,0.011549328,0.039208643,0.017649097,0.093465365,0.0,0.0,0.0,-0.00426,0,0,0,831,0,0,0,0
156723782,0.99786854,0.0033762115,0.0021511547,0.065133445,-0.17426866,0.315014,-3.7490156,0.9005413,0.20797266,-0.86073244,1.5147033e-06,3.3566355e-06,8.453784e-07,-0.0002591571,9.1077614e-05,-0.00053755863,0.24579702,0.041145544,0.38877177,0.0,0.0,0.0,0.0,0.0,0.0,2.843789e-07,0.0010697437,0.028118217,2.8774903e-07,9.639217e-05,9.603251e-05,3.5390578e-05,0.017314479,0.017305914,0.010372523,0.044477355,0.044477414,0.05636632,1.0375007e-11,1.0382078e-11,1.811672e-11,2.3421098e-06,2.3459365e-06,5e-08,0.0,0.0,0.0,0.0,0.0,0.0,0.0,0.0,663,0.29825285,0.23741592,0.03651284,0.02792272,0.017386174,0.004555863,0.0,0.0,0.0,-0.004243,0,0,0,831,0,0,0,0
156932522,0.9976626,0.0056051034,0.00024031635,0.068103194,-0.20459062,0.44293648,-4.5150633,0.8465562,0.3009338,-1.650661,1.3992824e-06,3.3024587e-06,8.834041e-07,-0.0002830279,0.00020128908,-0.0005625839,0.24579702,0.041145544,0.38877177,0.0,0.0,0.0,0.0,0.0,0.0,3.0350284e-07,0.0012080405,0.030668898,3.1638356e-07,9.2954266e-05,9.260369e-05,3.5374964e-05,0.01890368,0.018890908,0.010303111,0.04515565,0.04515523,0.055571206,1.0365786e-11,1.0373483e-11,1.8118163e-11,2.286264e-06,2.2896002e-06,5e-08,0.0,0.0,0.0,0.0,0.0,0.0,0.0,0.0,663,0.30051768,0.23573546,0.022832034,0.08359654,0.011603295,0.047845803,0.0,0.0,0.0,-0.004302,0,0,0,831,0,0,0,0
157132530,0.9974201,0.0061838427,-0.0010407184,0.07151234,-0.2186724,0.5686823,-4.7447586,0.7753914,0.4375174,-2.4924943,1.1803454e-06,3.1875625e-06,8.7912383e-07,-0.0003478831,0.00039738702,-0.00058446475,0.24579702,0.041145544,0.38877177,0.0,0.0,0.0,0.0,0.0,0.0,5.2981784e-07,0.0013232899,0.032894254,3.3576504e-07,8.964719e-05,8.930079e-05,3.5337664e-05,0.018569719,0.018553883,0.010282046,0.045739774,0.04573851,0.055272266,1.0358226e-11,1.0366596e-11,1.8113493e-11,2.2328536e-06,2.2356908e-06,5e-08,0.0,0.0,0.0,0.0,0.0,0.0,0.0,0.0,663,0.3024538,0.23510055,0.016881976,0.1422094,0.014567333,0.048386678,0.0,0.0,0.0,-0.004295,0,0,0,831,0,0,0,0
157332541,0.99691314,0.0076576862,-0.021599134,0.07509364,-0.17984593,0.6784967,-4.91885,0.74104244,0.54552275,-3.3993342,1.2980965e-06,3.2242226e-06,8.608994e-07,-0.0003264189,0.00029970022,-0.00060655404,0.24579702,0.041145544,0.38877177,0.0,0.0,0.0,0.0,0.0,0.0,2.1929638e-06,0.0013456277,0.033380356,4.912962e-07,8.659564e-05,8.61057e-05,3.5267156e-05,0.018013855,0.017992098,0.010351542,0.04647812,0.046475742,0.055779062,1.0358055e-11,1.0367162e-11,1.8108619e-11,2.1837343e-06,2.1860594e-06,5e-08,0.0,0.0,0.0,0.0,0.0,0.0,0.0,0.0,663,0.30488336,0.23617591,0.031783365,0.080901265,0.009466358,0.038401216,0.0,0.0,0.0,-0.004282,0,0,0,831,0,0,0,0
157540532,0.9901535,0.01799405,-0.11604883,0.076190956,0.13328682,0.82775235,-5.0929403,0.74187475,0.6867271,-4.3746486,1.3886087e-06,3.283556e-06,8.51677e-07,-0.00028661385,0.00022778414,-0.00062935695,0.24579702,0.041145544,0.38877177,0.0,0.0,0.0,0.0,0.0,0.0,2.6662053e-06,0.0013390662,0.033037204,2.0284058e-06,8.337277e-05,8.179163e-05,3.5655936e-05,0.017568817,0.01753463,0.010295531,0.047643065,0.04763959,0.05507555,1.03683616e-11,1.0378399e-11,1.8107422e-11,2.1386825e-06,2.1407889e-06,5.0000036e-08,0.0,0.0,0.0,0.0,0.0,0.0,0.0,0.0,663,0.3086789,0.2346818,0.036259335,0.060412794,0.008899273,0.022505319,0.0,0.0,0.0,-0.004292,0,0,0,831,0,0,0,0
157741349,0.98094213,0.049230803,-0.1704005,0.07932558,0.74589884,1.0970736,-5.2123575,0.8103569,0.8787653,-5.3702073,1.3705574e-06,3.2083237e-06,7.9225595e-07,-0.00034040803,0.00025526085,-0.0006386814,0.24579702,0.041145544,0.38877177,0.0,0.0,0.0,0.0,0.0,0.0,2.5107163e-06,0.0014350914,0.035048857,3.7547627e-06,7.98865e-05,7.756854e-05,3.6339265e-05,0.017050613,0.01699266,0.010286942,0.04854942,0.048543733,0.054919913,1.0380938e-11,1.0392618e-11,1.8100512e-11,2.0966656e-06,2.100087e-06,5e-08,0.0,0.0,0.0,0.0,0.0,0.0,0.0,0.0,663,0.31159773,0.23434998,0.0373501,0.08370617,0.0073951725,0.02086211,0.0,0.0,0.0,-0.004275,0,0,0,831,0,0,0,0
157941332,0.9733457,0.041709013,-0.20796141,0.087239526,1.474419,1.45133,-5.1208034,1.0176004,1.1421883,-6.3589835,1.3303029e-06,3.149122e-06,7.5944524e-07,-0.00037425282,0.00029273075,-0.0006496288,0.22627008,0.036237296,0.40151745,0.0024160964,-0.0020368528,0.000804208,0.0,0.0,0.0,2.4298938e-06,0.0015113351,0.036569227,4.906986e-06,7.7077886e-05,7.409796e-05,3.7272042e-05,0.016172353,0.016151452,0.010331371,0.049499385,0.049483083,0.055453815,1.0397035e-11,1.041149e-11,1.8187693e-11,2.060991e-06,2.0647599e-06,5.0000036e-08,0.001305738,0.0007102773,0.0013160899,0.001317017,0.00083176146,0.001318111,0.0,0.0,743,0.3146148,0.23548634,0.06443946,0.11667355,0.0054611475,0.061685186,0.0,0.0,0.0,-0.004291,0,0,0,831,0,0,0,0
158141325,0.96583396,0.03210033,-0.23500903,0.1044277,2.2128103,1.7440945,-4.7432423,1.3834951,1.4716147,-7.2718983,1.2886766e-06,3.1486227e-06,7.321236e-07,-0.00035921796,0.00031920383,-0.00066909794,0.2265379,0.036093775,0.40072313,0.00085175753,-0.002045113,0.00091219513,0.0,0.0,0.0,2.2712284e-06,0.0013843869,0.03287087,5.869545e-06,7.4909636e-05,7.135492e-05,3.803063e-05,0.01493655,0.01500911,0.010244063,0.05044702,0.05041502,0.055215556,1.0416149e-11,1.0434599e-11,1.8264664e-11,2.0339578e-06,2.0408086e-06,5.0000036e-08,0.0012529483,0.00048615693,0.0012636037,0.0012651507,0.0005755885,0.0012701317,0.0,0.0,743,0.31758785,0.23497991,0.11056765,0.1115075,0.004228063,0.06964293,0.0,0.0,0.0,-0.004298,0,0,0,831,0,0,0,0
158349341,0.95152813,0.062706,-0.27024806,0.13277131,3.0417495,2.0757334,-4.287726,1.9236888,1.8697008,-8.1371565,1.2664951e-06,3.1310585e-06,7.0896925e-07,-0.00035342315,0.0003328649,-0.00068958063,0.23144709,0.03703466,0.4011674,-0.0027446798,-0.0027054148,-0.0024695494,0.0,0.0,0.0,1.842417e-06,0.0012067775,0.028724426,7.80599e-06,7.260509e-05,6.834653e-05,3.909923e-05,0.013968009,0.01429305,0.010207553,0.051669102,0.05161192,0.05528383,1.044091e-11,1.0464596e-11,1.8331817e-11,2.0142331e-06,2.0259054e-06,5.0000036e-08,0.0012022003,0.00037571182,0.0012218329,0.0012129516,0.00044910345,0.001229266,0.0,0.0,743,0.32137364,0.23512514,0.08054767,0.092505395,0.0033093672,0.051825076,0.0,0.0,0.0,-0.004284,0,0,0,831,0,0,0,0
158550941,0.9532506,0.04896037,-0.26396903,0.13869634,3.8952448,2.445948,-3.8707745,2.5938458,2.3305993,-8.91116,1.1989939e-06,3.0141257e-06,6.109948e-07,-0.0003832951,0.00034766813,-0.00069876434,0.23547429,0.038095348,0.40200827,-0.006492579,-0.0035825567,-0.003886251,0.0,0.0,0.0,1.4822288e-06,0.0011760484,0.027942223,7.364417e-06,7.190021e-05,6.7615634e-05,3.9149938e-05,0.013329532,0.014035787,0.010149995,0.052538972,0.05245938,0.055010553,1.0462289e-11,1.0492484e-11,1.837534e-11,1.9994104e-06,2.0165412e-06,5e-08,0.0011304665,0.00030849435,0.0011705739,0.001143425,0.00037461804,0.0011702984,0.0,0.0,743,0.32403448,0.2345433,0.011107358,0.15397713,0.00915845,0.016550655,0.0,0.0,0.0,-0.004284,0,0,0,831,0,0,0,0
158750959,0.94784886,0.03721052,-0.2861278,0.13538395,4.7127852,2.787464,-3.4418156,3.4411566,2.878517,-9.659305,1.0803171e-06,2.938801e-06,4.618799e-07,-0.00039753123,0.00035043558,-0.0006890062,0.2377173,0.03844609,0.40262324,-0.008677073,-0.0038429813,-0.00458774,0.0,0.0,0.0,9.729101e-07,0.001177823,0.027697757,8.142189e-06,7.0775975e-05,6.5860346e-05,3.9832546e-05,0.01290795,0.014067219,0.010217784,0.053442728,0.05335117,0.055562478,1.0487442e-11,1.052489e-11,1.840259e-11,1.9886413e-06,2.0103766e-06,5.000007e-08,0.0010888852,0.00026903197,0.0011345166,0.0010983305,0.00032989436,0.0011355975,0.0,0.0,743,0.32679334,0.23571694,0.028366908,0.116292275,0.013182839,0.016191129,0.0,0.0,0.0,-0.004264,0,0,0,831,0,0,0,0
158958949,0.9477534,0.038477793,-0.28522795,0.13757907,5.5371923,3.09507,-2.9723206,4.481918,3.5098248,-10.369228,9.625056e-07,2.8242973e-06,2.9547346e-07,-0.00041529903,0.00032963854,-0.00066986616,0.2397758,0.03876499,0.40316865,-0.010651754,-0.0036363886,-0.005320162,0.0,0.0,0.0,6.8437095e-07,0.0012109295,0.028239088,8.085314e-06,7.025787e-05,6.5233064e-05,3.988521e-05,0.01265492,0.014413207,0.010288831,0.054574873,0.0544905,0.0555746,1.0512605e-11,1.0557321e-11,1.8411094e-11,1.980693e-06,2.0049458e-06,5e-08,0.0010528873,0.00023668961,0.0010992603,0.0010580332,0.00029327505,0.0011026862,0.0,0.0,743,0.33025047,0.23574266,0.04201284,0.1240701,0.015925657,0.044801768,0.0,0.0,0.0,-0.004274,0,0,0,831,0,0,0,0
159155792,0.947918,0.030234402,-0.28534743,0.13825428,6.2690096,3.3837757,-2.5219154,5.640634,4.1773834,-10.880435,8.4908163e-07,2.7428712e-06,1.3301025e-07,-0.0004124848,0.0003046634,-0.0006793526,0.24085425,0.038920876,0.40332705,-0.011681543,-0.0033188784,-0.0056379223,0.0,0.0,0.0,5.232651e-07,0.0012596367,0.029656872,7.999382e-06,6.9920774e-05,6.475473e-05,3.9751423e-05,0.012540192,0.014843306,0.010470718,0.055377606,0.05533382,0.056003463,1.0533509e-11,1.0584573e-11,1.8399582e-11,1.9743854e-06,1.9983895e-06,5.0000036e-08,0.0010318791,0.00021472148,0.0010774035,0.0010333544,0.00026839646,0.0010833022,0.0,0.0,743,0.33273327,0.23665051,0.039049096,0.1365016,0.01938573,0.06966467,0.0,0.0,0.0,-0.004231,0,0,0,831,0,0,0,0
159363745,0.9481963,0.0343297,-0.2817392,0.14271808,6.998639,3.6381838,-2.0826418,6.9908276,4.915823,-11.296466,7.52358e-07,2.7246138e-06,4.133607e-09,-0.00039597054,0.00028216495,-0.00069272134,0.24176946,0.03904209,0.40347287,-0.012620554,-0.0030166705,-0.005893589,0.0,0.0,0.0,4.0613241e-07,0.0012771639,0.02959035,7.876725e-06,6.9667185e-05,6.447491e-05,3.943001e-05,0.012582484,0.015459159,0.010686445,0.05637079,0.056413036,0.055821296,1.0555117e-11,1.0610476e-11,1.8377104e-11,1.9686067e-06,1.9890085e-06,5.0000036e-08,0.0010151373,0.00019503754,0.0010594592,0.001012595,0.00024617845,0.0010683099,0.0,0.0,743,0.33583304,0.2362653,0.033382323,0.14221673,0.014449946,0.065482676,0.0,0.0,0.0,-0.004278,0,0,0,831,0,0,0,0
159563728,0.94797987,0.0404965,-0.28059146,0.1447852,7.656354,3.9398952,-1.6837565,8.456373,5.691059,-11.607951,6.726819e-07,2.7536757e-06,-9.565184e-08,-0.00038093378,0.00026779948,-0.000708218,0.2421849,0.039129157,0.40371227,-0.013093836,-0.002949501,-0.006124741,0.0,0.0,0.0,3.872829e-07,0.001414781,0.03368623,7.860664e-06,6.9359005e-05,6.4128304e-05,3.9066217e-05,0.01274043,0.015970854,0.010968782,0.05717299,0.057342973,0.055502262,1.05767305e-11,1.0633371e-11,1.8346168e-11,1.9623071e-06,1.9761237e-06,5e-08,0.0010017648,0.00017901188,0.0010491037,0.0009972826,0.00022852463,0.0010586045,0.0,0.0,743,0.33840206,0.23558918,0.016147014,0.13454574,0.012974313,0.052237682,0.0,0.0,0.0,-0.004295,0,0,0,831,0,0,0,0
159763728,0.94854903,0.042576972,-0.2793866,0.14277646,8.288166,4.2096567,-1.3032912,10.0515785,6.5133657,-11.865964,6.323511e-07,2.786107e-06,-1.4343235e-07,-0.00037243078,0.00026459043,-0.00071568135,0.24294826,0.0392742,0.40378729,-0.013909278,-0.0029134997,-0.006278446,0.0,0.0,0.0,3.3227053e-07,0.001340439,0.032005597,7.775056e-06,6.9064736e-05,6.3833264e-05,3.860934e-05,0.012929315,0.016422136,0.011412947,0.05791804,0.05825198,0.0560017,1.0598573e-11,1.0652854e-11,1.8311047e-11,1.954505e-06,1.9592092e-06,5.000007e-08,0.0009927389,0.00016712476,0.0010429135,0.0009877967,0.00021543093,0.001051816,0.0,0.0,743,0.34083724,0.23664679,0.05899612,0.09979632,0.02209531,0.0337671,0.0,0.0,0.0,-0.004295,0,0,0,831,0,0,0,0
159964557,0.9489757,0.041701794,-0.27920893,0.14052966,8.882587,4.466894,-0.98043656,11.777651,7.4002905,-12.0975485,5.573235e-07,2.8334275e-06,-2.3731846e-07,-0.00035855544,0.0002400583,-0.00070868025,0.24300413,0.039303444,0.4039148,-0.01401662,-0.0028033901,-0.0063719316,0.0,0.0,0.0,2.9891407e-07,0.0012733274,0.030759323,7.706618e-06,6.873895e-05,6.351569e-05,3.8099926e-05,0.013147816,0.016767249,0.011870748,0.05868189,0.059208605,0.05578597,1.0622791e-11,1.06698825e-11,1.827886e-11,1.944549e-06,1.9386741e-06,5.0000036e-08,0.0009856246,0.00015583322,0.0010376924,0.0009803956,0.00020289153,0.0010459849,0.0,0.0,743,0.34335184,0.23619054,0.019696003,0.09534524,0.009090439,0.013135018,0.0,0.0,0.0,-0.004268,0,0,0,831,0,0,0,0
160172519,0.94990635,0.042058814,-0.2789194,0.134585,9.47402,4.7275434,-0.70644414,13.683182,8.370936,-12.259598,5.010001e-07,2.7687456e-06,-3.2501399e-07,-0.00032758238,0.00019300453,-0.0007115645,0.24330805,0.039380644,0.404052,-0.014371625,-0.0025634766,-0.0065545244,0.0,0.0,0.0,9.1569416e-07,0.0013345535,0.03194386,7.6025253e-06,6.837062e-05,6.317706e-05,3.762012e-05,0.013431413,0.01706636,0.01246423,0.059789367,0.060554784,0.05598174,1.0654938e-11,1.06898795e-11,1.8257767e-11,1.9318404e-06,1.9153201e-06,5.000007e-08,0.0009806074,0.00014624628,0.0010334376,0.0009752727,0.00019207412,0.0010411813,0.0,0.0,743,0.34690654,0.2366046,0.018924225,0.1037499,0.009986499,0.018199647,0.0,0.0,0.0,-0.004304,0,0,0,831,0,0,0,0
160372546,0.9545421,0.02343162,-0.28125536,0.09589565,10.031083,4.887331,-0.48688745,15.641901,9.336958,-12.427974,4.9689805e-07,2.7391447e-06,-3.2885018e-07,-0.00026276,0.00018577262,-0.00068761973,0.24365917,0.0393815,0.40417895,-0.014864731,-0.002360367,-0.0065604723,0.0,0.0,0.0,1.1943702e-06,0.0013165614,0.032300334,7.1744425e-06,6.801794e-05,6.296933e-05,3.7242848e-05,0.013481492,0.017155461,0.013071576,0.0605543,0.06153585,0.055961024,1.0683319e-11,1.07009315e-11,1.8239295e-11,1.9160525e-06,1.8901845e-06,5.000007e-08,0.0009724761,0.00013783215,0.0010292978,0.0009698414,0.00018186822,0.0010343525,0.0,0.0,743,0.349414,0.23656082,0.01504233,0.10498538,0.0077440673,0.03894133,0.0,0.0,0.0,-0.004278,0,0,0,831,0,0,0,0
160572527,0.95736164,0.012721836,-0.28215572,0.060705535,10.570868,4.9619784,-0.26158714,17.717974,10.354745,-12.564014,3.8815952e-07,2.7618123e-06,-4.647352e-07,-0.00020062573,0.00012407327,-0.0006610528,0.24426323,0.039290026,0.40443647,-0.015516181,-0.0016078451,-0.0066049225,0.0,0.0,0.0,1.2633693e-06,0.0012813126,0.030476926,6.8556246e-06,6.7637106e-05,6.270652e-05,3.6823436e-05,0.013323438,0.01717051,0.013658564,0.061339296,0.06254402,0.05528709,1.0714586e-11,1.0709223e-11,1.8232547e-11,1.8967124e-06,1.8647775e-06,5e-08,0.00092978304,0.00012835454,0.0010245476,0.0009436079,0.00016988772,0.0010125594,0.0,0.0,743,0.3519706,0.23513207,0.029726064,0.10415771,0.024138741,0.007411318,0.0,0.0,0.0,-0.004297,0,0,0,831,0,0,0,0
160781346,0.9595308,-0.0013587148,-0.27973652,0.032348726,11.068145,4.943519,-0.040220514,19.973022,11.411993,-12.686251,2.993611e-07,2.7061053e-06,-5.7946284e-07,-9.023968e-05,5.3824184e-05,-0.0006255913,0.24412183,0.03893787,0.40475532,-0.015708549,-0.0007946961,-0.0070660478,0.0,0.0,0.0,1.0014084e-06,0.0011423668,0.028232798,6.494269e-06,6.7361565e-05,6.25171e-05,3.6286663e-05,0.013058708,0.017122908,0.014587188,0.062408857,0.063873336,0.05582943,1.0751375e-11,1.071835e-11,1.8242177e-11,1.8735742e-06,1.8392626e-06,5e-08,0.0008507253,0.000119096396,0.0010205649,0.00089276483,0.00015839662,0.0009780999,0.0,0.0,743,0.35536206,0.23628253,0.047491364,0.09472098,0.015295828,0.11324817,0.0,0.0,0.0,-0.00428,0,0,0,831,0,0,0,0
160981311,0.9595704,-0.0013165982,-0.28042486,0.024184665,11.515215,4.8706794,0.11387319,22.25454,12.428296,-12.772923,2.0407367e-07,2.6973908e-06,-6.9509997e-07,2.7784017e-05,-1.2033857e-05,-0.0005880551,0.24399288,0.038725153,0.40477467,-0.015848191,-0.00012107976,-0.0069267126,0.0,0.0,0.0,9.056989e-07,0.0011955054,0.030810619,6.393346e-06,6.707214e-05,6.1931554e-05,3.592453e-05,0.012751747,0.016894368,0.015627773,0.06316478,0.0648647,0.05699413,1.07878316e-11,1.0723312e-11,1.8263275e-11,1.8469931e-06,1.8154001e-06,5.0000036e-08,0.0007758196,0.00011120829,0.0010172429,0.00084853574,0.00014879294,0.000941325,0.0,0.0,743,0.35781208,0.23873444,0.032177944,0.09893207,0.016818864,0.03675136,0.0,0.0,0.0,-0.004313,0,0,0,831,0,0,0,0
161181320,0.95953083,-0.035533417,-0.2790245,0.013538277,11.936864,4.749327,0.25346994,24.610695,13.42451,-12.838063,1.0086948e-07,2.6392424e-06,-8.0822707e-07,0.00016744016,-8.890689e-05,-0.0005540941,0.24401234,0.038394753,0.40501365,-0.016213475,0.00082502916,-0.0069663967,0.0,0.0,0.0,1.325245e-06,0.0012066262,0.03246262,6.2229474e-06,6.6859066e-05,6.1479484e-05,3.540268e-05,0.012528842,0.01668749,0.016795173,0.0638967,0.06583226,0.058172595,1.0824434e-11,1.0724308e-11,1.8295932e-11,1.8152514e-06,1.7928502e-06,5.0000036e-08,0.0007043522,0.00010343593,0.0010096908,0.0008097237,0.00013942995,0.0008978699,0.0,0.0,743,0.36017907,0.24118996,0.06303823,0.08917348,0.031587828,0.106166646,0.0,0.0,0.0,-0.004305,0,0,0,831,0,0,0,0
161389334,0.96617293,-0.09935542,-0.23794326,-0.0046318322,12.328829,4.376857,0.17977718,27.14328,14.403692,-12.97479,2.477472e-08,2.4926467e-06,-9.00845e-07,0.00042614163,-0.00016403692,-0.0004936074,0.2439875,0.038076613,0.40394953,-0.016118936,0.0018434562,-0.0052201157,0.0,0.0,0.0,1.6457661e-06,0.0011623148,0.032210365,5.0056683e-06,6.687681e-05,6.231215e-05,3.4437217e-05,0.012421023,0.016319728,0.018064825,0.06493135,0.06713587,0.059793685,1.0865123e-11,1.0725378e-11,1.8345062e-11,1.7777417e-06,1.7726832e-06,5.000002e-08,0.000619866,9.419957e-05,0.00095234043,0.00078651,0.00012867768,0.0007714315,0.0,0.0,743,0.36341053,0.24452747,0.05288145,0.07535314,0.019434012,0.23567232,0.0,0.0,0.0,-0.00429,0,0,0,831,0,0,0,0
161594979,0.9680928,-0.14786166,-0.20189933,-0.013043601,12.606325,3.7035403,-0.22716455,29.731943,15.274775,-13.299808,-7.826878e-08,2.155242e-06,-1.011682e-06,0.00088722195,-0.00026633657,-0.000399391,0.24436443,0.03837492,0.40329662,-0.01706058,0.002161733,-0.0023522894,0.0,0.0,0.0,1.9085053e-06,0.0011488586,0.032776296,4.4553385e-06,6.6513545e-05,6.2269326e-05,3.40405e-05,0.012633839,0.0156363,0.019175055,0.065876044,0.06831384,0.06143155,1.0904115e-11,1.0721491e-11,1.8404785e-11,1.734452e-06,1.757251e-06,5.0000036e-08,0.0005531282,8.558375e-05,0.00083095615,0.0007505191,0.000120342826,0.0006095728,0.0,0.0,743,0.36631936,0.24785389,0.06288544,0.09683669,0.014453932,0.3048042,0.0,0.0,0.0,-0.004244,0,0,0,831,0,0,0,0
161794944,0.9626464,-0.08248983,-0.25771886,0.009402129,12.815065,3.164617,-0.48007816,32.245895,15.974926,-13.615723,-1.8154203e-07,2.0068885e-06,-1.1441876e-06,0.0012251952,-0.00035869447,-0.00033252544,0.24409756,0.03862853,0.40402427,-0.018000923,0.0022393959,-0.0014689972,0.0,0.0,0.0,2.306452e-06,0.0012282757,0.035451703,5.192905e-06,6.6715096e-05,5.907795e-05,3.4726e-05,0.013011487,0.015117873,0.020182606,0.06624074,0.068774536,0.06162778,1.0933783e-11,1.0705097e-11,1.846445e-11,1.6824324e-06,1.7448549e-06,5e-08,0.0005145132,7.8867306e-05,0.00075940334,0.000728229,0.00011349867,0.0005162326,0.0,0.0,743,0.36744425,0.24824943,0.010390232,0.11007716,0.035945788,0.07903367,0.0,0.0,0.0,-0.00428,0,0,0,831,0,0,0,0
161994947,0.95700204,-0.00040610714,-0.28836367,0.031519566,13.085795,3.0254853,-0.29525778,34.8475,16.615124,-13.692349,-2.6723933e-07,2.0959424e-06,-1.2057538e-06,0.00119969,-0.00040733453,-0.0003353506,0.24437217,0.038586434,0.40413895,-0.018248295,0.0026103256,-0.001718708,0.0,0.0,0.0,1.556016e-06,0.0011802885,0.03392325,5.8477017e-06,6.649663e-05,5.6046134e-05,3.5586098e-05,0.013212894,0.01500308,0.021311564,0.06670494,0.0692924,0.06210119,1.0965373e-11,1.0691337e-11,1.8531622e-11,1.6251737e-06,1.731767e-06,5e-08,0.00050010474,7.5911994e-05,0.00075544184,0.0007156944,0.00010985342,0.0005111328,0.0,0.0,743,0.36877814,0.2492011,0.031286325,0.07282067,0.0255467,0.0119385505,0.0,0.0,0.0,-0.004275,0,0,0,831,0,0,0,0
162203746,0.95670664,0.009460109,-0.2893348,0.030139584,13.362656,3.0740635,-0.002581516,37.617157,17.273,-13.710761,-3.2124606e-07,2.2221557e-06,-1.262938e-06,0.0011739718,-0.00044872132,-0.00033725076,0.24463046,0.03858917,0.4042751,-0.018490545,0.0028554553,-0.001953167,0.0,0.0,0.0,1.3313577e-06,0.0011958083,0.032891612,5.71172e-06,6.6304594e-05,5.4317545e-05,3.579032e-05,0.0133419335,0.01505431,0.022633322,0.06747006,0.07010003,0.06411836,1.1000179e-11,1.0683546e-11,1.8610408e-11,1.5651887e-06,1.7170497e-06,5.000007e-08,0.00048743573,7.3318624e-05,0.000745491,0.00069693173,0.00010675494,0.0005084832,0.0,0.0,743,0.37090442,0.25321603,0.03858524,0.057199243,0.023718422,0.0068240766,0.0,0.0,0.0,-0.004279,0,0,0,831,0,0,0,0
162403764,0.9575378,-0.0017845443,-0.2882662,0.0045646257,13.668534,3.1124394,0.08363067,40.370815,17.919939,-13.723799,-3.4867057e-07,2.3690409e-06,-1.3198514e-06,0.0011772731,-0.0004874466,-0.00032839755,0.24449931,0.03851178,0.4041809,-0.01838326,0.0030545047,-0.0021235282,0.0,0.0,0.0,1.2908173e-06,0.0011755358,0.034283217,5.3895556e-06,6.603589e-05,5.2747466e-05,3.5862915e-05,0.013557077,0.015008993,0.023306571,0.06790842,0.07050422,0.0646948,1.1032767e-11,1.06739366e-11,1.8692244e-11,1.4976968e-06,1.7016698e-06,5.0000036e-08,0.0004702389,7.0476264e-05,0.0007341498,0.0006721019,0.00010332475,0.000506016,0.0,0.0,743,0.37203848,0.25435174,0.07445028,0.07335759,0.064747125,0.03400932,0.0,0.0,0.0,-0.00426,0,0,0,831,0,0,0,0
162603731,0.95703864,-0.0085239345,-0.2887143,-0.025466237,13.940462,3.0639844,0.085739635,43.176605,18.561008,-13.780451,-3.640199e-07,2.4677388e-06,-1.3810238e-06,0.0012854616,-0.00052395253,-0.00030634567,0.24372016,0.038264744,0.40414762,-0.017968677,0.0033372636,-0.0022960466,0.0,0.0,0.0,2.1003298e-06,0.0012152969,0.037042294,5.16185e-06,6.5599095e-05,5.1079798e-05,3.596864e-05,0.013903335,0.015018954,0.023980813,0.06828077,0.07079128,0.065231465,1.1061592e-11,1.0663083e-11,1.8775278e-11,1.426936e-06,1.685763e-06,5e-08,0.00044341246,6.745145e-05,0.0007218624,0.0006360878,9.9508165e-05,0.000503926,0.0,0.0,743,0.37292367,0.2554045,0.061294418,0.089424215,0.062281307,0.04089093,0.0,0.0,0.0,-0.004293,0,0,0,831,0,0,0,0
162811749,0.9508483,-0.045602135,-0.28683817,-0.10738617,14.193166,2.827358,0.08338744,46.132854,19.185242,-13.840223,-3.3620384e-07,2.525361e-06,-1.4558941e-06,0.0013951934,-0.0005659032,-0.00028683426,0.24249277,0.03774546,0.40415785,-0.01710615,0.0038976632,-0.0028669327,0.0,0.0,0.0,2.78056e-06,0.0011888305,0.035351995,5.3225785e-06,6.421338e-05,5.005567e-05,3.5453235e-05,0.014567601,0.015252835,0.025068965,0.06891657,0.0713094,0.06730944,1.1090049e-11,1.0654479e-11,1.8849715e-11,1.3558019e-06,1.6597072e-06,5e-08,0.00039259216,6.3608924e-05,0.0007101993,0.0005773108,9.4213654e-05,0.00050045183,0.0,0.0,743,0.37446758,0.25944063,0.07161699,0.0685138,0.034144875,0.07283137,0.0,0.0,0.0,-0.004275,0,0,0,831,0,0,0,0
163012542,0.9366528,-0.073890455,-0.28067783,-0.19606555,14.445453,2.388901,-0.037297525,49.044983,19.729202,-13.860555,-3.0554617e-07,2.741103e-06,-1.5991695e-06,0.001429422,-0.0006976328,-0.00028187767,0.24069135,0.03710263,0.40377802,-0.0154605415,0.004759596,-0.0036939892,0.0,0.0,0.0,2.4224973e-06,0.0011470978,0.035377257,6.0433604e-06,6.1497725e-05,4.894045e-05,3.415671e-05,0.015779102,0.015681723,0.026024101,0.0692722,0.071465015,0.06878269,1.1109776e-11,1.0640719e-11,1.8895907e-11,1.2799721e-06,1.6081028e-06,5.000007e-08,0.0003208394,5.9034963e-05,0.00069940044,0.00050005486,8.707329e-05,0.00049495546,0.0,0.0,743,0.37514958,0.26226455,0.08806839,0.096993655,0.063486904,0.004964576,0.0,0.0,0.0,-0.004281,0,0,0,831,0,0,0,0
163212534,0.92656875,-0.07839232,-0.28231412,-0.23584707,14.6753435,1.8178093,-0.24412213,51.996536,20.171247,-13.898166,-2.9195766e-07,2.8976972e-06,-1.7180315e-06,0.0014216657,-0.0008487759,-0.00028627075,0.2383161,0.036204778,0.4031043,-0.01304482,0.005873717,-0.0048812325,0.0,0.0,0.0,1.8339906e-06,0.0011832044,0.038524836,6.5216977e-06,5.8562448e-05,4.6554112e-05,3.3259766e-05,0.017677546,0.016509635,0.02674547,0.06975086,0.07168016,0.06909456,1.1127153e-11,1.0632425e-11,1.893292e-11,1.1965195e-06,1.5402286e-06,5.000007e-08,0.00024597195,5.3756237e-05,0.0006876828,0.00041924533,7.7929224e-05,0.00048935023,0.0,0.0,743,0.37607315,0.26285845,0.10596337,0.09389829,0.03308204,0.016888225,0.0,0.0,0.0,-0.00429,0,0,0,831,0,0,0,0
163420535,0.91989845,-0.09046318,-0.27805728,-0.261319,14.82171,1.1971643,-0.3512729,55.104378,20.490068,-13.907822,-2.0591887e-07,3.157329e-06,-1.8852496e-06,0.001299283,-0.0010514504,-0.00030058547,0.23746593,0.035466395,0.40262234,-0.011841447,0.0074315984,-0.0060922583,0.0,0.0,0.0,2.0810462e-06,0.0012146353,0.038435582,6.7968026e-06,5.5586144e-05,4.3985343e-05,3.2523018e-05,0.019992612,0.017762827,0.027710738,0.07069692,0.0723036,0.069829494,1.1146416e-11,1.0634618e-11,1.8973231e-11,1.1100668e-06,1.4715386e-06,5e-08,0.00019755428,4.9497678e-05,0.000678006,0.00036598396,7.01458e-05,0.00048553874,0.0,0.0,743,0.3781541,0.26425272,0.09863097,0.085333556,0.033340205,0.006656212,0.0,0.0,0.0,-0.00429,0,0,0,831,0,0,0,0
163620537,0.90415287,-0.11298915,-0.2696452,-0.3115005,14.903086,0.48476616,-0.72034216,58.10242,20.665092,-14.090523,-1.8185663e-07,3.1865754e-06,-1.9476972e-06,0.0013710661,-0.0011404867,-0.00029349152,0.23597719,0.034724373,0.40235016,-0.010627581,0.008342813,-0.006822374,0.0,0.0,0.0,1.4929585e-06,0.0011672387,0.04102266,7.750498e-06,5.1721727e-05,4.159522e-05,3.117763e-05,0.022911059,0.019327091,0.028339554,0.071429625,0.07262753,0.0699062,1.1161519e-11,1.0642929e-11,1.9001484e-11,1.0214416e-06,1.3953577e-06,5e-08,0.0001597186,4.5516794e-05,0.0006749335,0.000330886,6.255569e-05,0.0004808885,0.0,0.0,743,0.3795486,0.2643978,0.03732109,0.12755543,0.056843616,0.0028956556,0.0,0.0,0.0,-0.004286,0,0,0,831,0,0,0,0
163821352,0.9010623,-0.10989586,-0.27439922,-0.3173558,14.865008,-0.18314289,-0.76457775,61.103374,20.686466,-14.189884,-1.3759929e-07,3.3286049e-06,-2.0228017e-06,0.0012298921,-0.00128332,-0.00030357795,0.23630017,0.034605272,0.40206078,-0.010523953,0.009224173,-0.0072666183,0.0,0.0,0.0,9.689862e-07,0.0010688154,0.037853185,7.777194e-06,4.8558053e-05,3.8286198e-05,3.078934e-05,0.025408875,0.020836148,0.029121395,0.072240576,0.07296729,0.07113585,1.1178456e-11,1.0662498e-11,1.9029467e-11,9.3492247e-07,1.3168789e-06,5e-08,0.00013340134,4.2192743e-05,0.00067126966,0.00030546775,5.625318e-05,0.0004778486,0.0,0.0,743,0.3810615,0.26671305,0.030209726,0.11453842,0.025622597,0.015243418,0.0,0.0,0.0,-0.004273,0,0,0,831,0,0,0,0
164021331,0.9018577,-0.108360395,-0.2738222,-0.31612065,14.836539,-0.7882436,-0.63697606,64.12854,20.548931,-14.198139,2.3025386e-08,3.5587418e-06,-2.1793685e-06,0.0009127727,-0.0014773944,-0.00031369715,0.23771867,0.034918223,0.40145645,-0.010891041,0.010181491,-0.007586811,0.0,0.0,0.0,1.0755209e-06,0.001127846,0.03723452,7.5277435e-06,4.5483277e-05,3.5034835e-05,3.0593215e-05,0.027428875,0.022077333,0.029001528,0.07326649,0.07348529,0.070984855,1.1202526e-11,1.0694946e-11,1.9063036e-11,8.4731477e-07,1.2394747e-06,5e-08,0.00011552694,3.948445e-05,0.00066821085,0.00028841337,5.140992e-05,0.00047570106,0.0,0.0,743,0.38308197,0.26642984,0.06500522,0.13155551,0.052451085,0.030550681,0.0,0.0,0.0,-0.004293,0,0,0,831,0,0,0,0
164229350,0.88994825,-0.13570985,-0.2616248,-0.34803388,14.71927,-1.3715488,-0.5596454,67.22982,20.323677,-14.244921,-1.0540594e-08,3.6777074e-06,-2.157281e-06,0.0007717678,-0.0015868262,-0.00032701343,0.2383088,0.03503237,0.4011654,-0.011029857,0.010623096,-0.0077583115,0.0,0.0,0.0,1.9768236e-06,0.001172782,0.039444413,8.323962e-06,4.1707037e-05,3.2458003e-05,2.973564e-05,0.029423013,0.023355234,0.029115584,0.07480672,0.074466705,0.07247017,1.1233978e-11,1.0741998e-11,1.9097748e-11,7.6755384e-07,1.1621792e-06,5.0000036e-08,0.000102075086,3.7116515e-05,0.0006664009,0.00027704,4.7417092e-05,0.00047344397,0.0,0.0,743,0.38635918,0.26920286,0.016313592,0.11884884,0.05057417,0.06456335,0.0,0.0,0.0,-0.004274,0,0,0,831,0,0,0,0
164429352,0.8581217,-0.19035038,-0.22575374,-0.42003495,14.449581,-2.2061875,-0.73728895,70.13758,19.96932,-14.406697,-3.632507e-08,3.6220822e-06,-2.0994046e-06,0.0007592749,-0.0015415088,-0.00032053152,0.2383278,0.034787565,0.40103158,-0.010979678,0.010644086,-0.008002184,0.0,0.0,0.0,3.2660273e-06,0.0011677608,0.039175794,1.071651e-05,3.6641974e-05,3.0474976e-05,2.7828311e-05,0.0316325,0.024724284,0.029142942,0.075849846,0.07499614,0.07315101,1.1264739e-11,1.0795736e-11,1.911523e-11,6.9158074e-07,1.0801062e-06,5.0000036e-08,8.918549e-05,3.4570436e-05,0.0006626423,0.00027163318,4.3131884e-05,0.00046347122,0.0,0.0,743,0.38838896,0.27046442,0.04694949,0.15910186,0.017986635,0.017427742,0.0,0.0,0.0,-0.004273,0,0,0,831,0,0,0,0
164634922,0.79255736,-0.23713587,-0.1791563,-0.53246826,13.804141,-3.2651021,-1.2532468,73.092964,19.41098,-14.793081,2.7161517e-08,3.5467212e-06,-2.1159199e-06,0.000978425,-0.0014626008,-0.00029485612,0.23706296,0.034792617,0.4019015,-0.011016263,0.010134815,-0.008639523,0.0,0.0,0.0,4.3098025e-06,0.0012230459,0.039260373,1.527904e-05,3.055413e-05,2.8721119e-05,2.4195817e-05,0.03474665,0.02695237,0.029224675,0.077445365,0.07600282,0.071750715,1.1302318e-11,1.08615235e-11,1.9105112e-11,6.150768e-07,9.934063e-07,5e-08,7.491445e-05,3.1413325e-05,0.00064729975,0.00026491133,3.7889724e-05,0.00044145022,0.0,0.0,743,0.39172465,0.26786324,0.07508842,0.09753477,0.020409716,0.05286072,0.0,0.0,0.0,-0.004301,0,0,0,831,0,0,0,0
164834942,0.7268707,-0.23325974,-0.18344828,-0.61935097,12.965732,-4.2326345,-1.7576568,75.73513,18.7105,-15.276908,-3.3320035e-08,3.4632321e-06,-1.9315848e-06,0.0012356426,-0.0013116213,-0.0002799255,0.23466186,0.034236953,0.40254533,-0.009942694,0.009658495,-0.009613102,0.0,0.0,0.0,4.0688938e-06,0.0012032931,0.039841857,1.9229597e-05,2.637806e-05,2.6283276e-05,2.0327301e-05,0.03766151,0.029303543,0.029623019,0.07844599,0.07646998,0.072246216,1.1340696e-11,1.0929767e-11,1.9075313e-11,5.476307e-07,9.12154e-07,5.0000036e-08,6.318802e-05,2.864005e-05,0.0006383057,0.00025655937,3.3504704e-05,0.0004300182,0.0,0.0,743,0.39359367,0.26878655,0.097862296,0.11689288,0.023488572,0.2757953,0.0,0.0,0.0,-0.004281,0,0,0,831,0,0,0,0
165034943,0.67868257,-0.22545381,-0.20226942,-0.66906476,12.112023,-5.3934526,-2.402339,78.27824,17.725403,-15.772081,6.099016e-08,3.464487e-06,-2.0128439e-06,0.0013344984,-0.0012610259,-0.00026978194,0.23358417,0.034512356,0.40171114,-0.008991718,0.009720211,-0.009701473,0.0,0.0,0.0,2.9898538e-06,0.0011625763,0.03691637,2.182047e-05,2.3214221e-05,2.3346205e-05,1.7524117e-05,0.03812686,0.030280054,0.02884823,0.07950207,0.07698722,0.07273286,1.1388018e-11,1.1004768e-11,1.9044285e-11,5.39067e-07,9.049328e-07,5.0000462e-08,5.2837135e-05,2.607726e-05,0.00063527434,0.00024522853,2.9508808e-05,0.0004293842,0.0,0.0,743,0.39558727,0.2696903,0.12322324,0.18346554,0.027893228,0.06584642,0.0,0.0,0.0,-0.00428,0,0,0,831,0,0,0,0
165243724,0.66238385,-0.22018388,-0.21429893,-0.68325883,11.247307,-6.494413,-2.7460954,80.726234,16.44001,-16.220327,7.880355e-09,3.5382213e-06,-1.8845589e-06,0.0013211254,-0.0012596613,-0.00027111423,0.23345056,0.034876242,0.40025622,-0.008039358,0.009795055,-0.009776834,0.0,0.0,0.0,1.8859199e-06,0.0010817007,0.03383219,2.268735e-05,2.0915373e-05,2.0612071e-05,1.6419857e-05,0.037349615,0.030271385,0.026832962,0.081071906,0.0779513,0.07214813,1.1441473e-11,1.10841015e-11,1.9008174e-11,5.385959e-07,9.0331207e-07,5.0000505e-08,4.4223816e-05,2.368787e-05,0.0006265434,0.00023220593,2.5871215e-05,0.0004265323,0.0,0.0,743,0.39877713,0.26860404,0.085846186,0.21657708,0.04937475,0.13356285,0.0,0.0,0.0,-0.004299,0,0,0,831,0,0,0,0
165443737,0.6620468,-0.21607424,-0.21473452,-0.68475926,10.48303,-7.467402,-2.8315055,82.91816,14.979691,-16.595327,-9.5019836e-08,3.6197218e-06,-1.718722e-06,0.0012910063,-0.0012597619,-0.00027369423,0.23380832,0.035409067,0.3986722,-0.0072589167,0.00994438,-0.009798904,0.0,0.0,0.0,1.2855118e-06,0.0010342096,0.034018267,2.2793974e-05,1.9056088e-05,1.8342767e-05,1.6148528e-05,0.0369921,0.030210666,0.025174746,0.081900135,0.078393474,0.07218403,1.1496128e-11,1.1162919e-11,1.897109e-11,5.3682356e-07,8.972312e-07,5.0000324e-08,3.809321e-05,2.1714062e-05,0.0006172387,0.00022145183,2.3177778e-05,0.00042308966,0.0,0.0,743,0.40036684,0.26867086,0.07823318,0.19614206,0.032807954,0.20043744,0.0,0.0,0.0,-0.004286,0,0,0,831,0,0,0,0
165643703,0.6697262,-0.2131895,-0.21676843,-0.6775165,9.786821,-8.248133,-2.719084,84.92812,13.333905,-16.867386,-2.766218e-07,3.7067311e-06,-1.4403118e-06,0.0012524717,-0.0012297219,-0.00027709123,0.23477697,0.035856884,0.3973107,-0.0068850317,0.010177633,-0.010150208,0.0,0.0,0.0,1.0366656e-06,0.001134855,0.035574764,2.2488852e-05,1.7592025e-05,1.6442653e-05,1.6319449e-05,0.03688345,0.030074948,0.023296053,0.08256075,0.07876332,0.070742466,1.1552231e-11,1.124186e-11,1.8938096e-11,5.3338994e-07,8.855517e-07,5.0000036e-08,3.398996e-05,2.0191925e-05,0.0006105169,0.00021428015,2.1368924e-05,0.00042043134,0.0,0.0,743,0.40165168,0.26597455,0.07226489,0.11205174,0.031191759,0.14998445,0.0,0.0,0.0,-0.004319,0,0,0,831,0,0,0,0
165851739,0.6790345,-0.21335413,-0.21444763,-0.66888297,9.069978,-8.890114,-2.4966369,86.84757,11.498059,-17.0572,-5.966471e-07,3.817356e-06,-9.1849785e-07,0.0012223192,-0.0011710975,-0.00028605285,0.23603207,0.036225062,0.39608902,-0.0066530337,0.010262025,-0.010647273,0.0,0.0,0.0,8.3690145e-07,0.0011315201,0.035290875,2.213851e-05,1.6320902e-05,1.4899212e-05,1.6698366e-05,0.03719541,0.03018447,0.021731904,0.083700836,0.07962861,0.069672756,1.1616333e-11,1.1326313e-11,1.8920109e-11,5.2812214e-07,8.678669e-07,5e-08,3.0634474e-05,1.8816414e-05,0.00060560345,0.0002087636,1.981404e-05,0.0004184861,0.0,0.0,743,0.40414038,0.26395598,0.082667515,0.118163936,0.020875081,0.217769,0.0,0.0,0.0,-0.004284,0,0,0,831,0,0,0,0
166052554,0.68740946,-0.21257816,-0.21348678,-0.6608345,8.502717,-9.458075,-2.3380313,88.60512,9.610249,-17.255053,-8.319973e-07,3.932553e-06,-5.7896966e-07,0.0011863122,-0.0011779894,-0.00029427826,0.23681092,0.03668178,0.39507893,-0.006508267,0.010386719,-0.010952288,0.0,0.0,0.0,6.69071e-07,0.0010716957,0.033185463,2.1825248e-05,1.5300238e-05,1.367116e-05,1.7080765e-05,0.037407227,0.030211167,0.020507624,0.084219284,0.08004881,0.06916848,1.1680762e-11,1.1408484e-11,1.8912368e-11,5.210403e-07,8.444652e-07,5.0000036e-08,2.8100636e-05,1.7665601e-05,0.0006025669,0.00020497688,1.8604811e-05,0.00041731805,0.0,0.0,743,0.4053,0.262999,0.111347236,0.052211862,0.028815616,0.15976502,0.0,0.0,0.0,-0.00429,0,0,0,831,0,0,0,0
166252522,0.69443715,-0.2093057,-0.21414489,-0.65428597,8.016347,-9.934347,-2.0878136,90.2574,7.625879,-17.417898,-1.0901637e-06,4.0500086e-06,-1.9872728e-07,0.0011647335,-0.0011912785,-0.00030544706,0.23753756,0.036999285,0.39434975,-0.006460398,0.010500939,-0.011302356,0.0,0.0,0.0,5.2165893e-07,0.0010571951,0.03284099,2.1566775e-05,1.4461659e-05,1.2732274e-05,1.7425193e-05,0.037465762,0.030081248,0.019312166,0.08477831,0.08053774,0.06755832,1.1750348e-11,1.1494389e-11,1.89203e-11,5.1226795e-07,8.16073e-07,5e-08,2.6268848e-05,1.6760278e-05,0.0006005755,0.00020238591,1.7732576e-05,0.00041656068,0.0,0.0,743,0.40659076,0.25991982,0.104745366,0.021168113,0.028823754,0.14420533,0.0,0.0,0.0,-0.004301,0,0,0,831,0,0,0,0
166460566,0.6964896,-0.21258439,-0.2068303,-0.65339994,7.5392118,-10.41276,-1.9310493,91.8495,5.483796,-17.598408,-1.3344943e-06,4.14852e-06,1.8125905e-07,0.0011516571,-0.0011654514,-0.0003173333,0.2381029,0.037139446,0.39366737,-0.006339163,0.010569741,-0.011670013,0.0,0.0,0.0,4.875785e-07,0.0011332607,0.034006197,2.1689923e-05,1.3542485e-05,1.199474e-05,1.7728458e-05,0.037833784,0.030281652,0.018629344,0.0858527,0.08152351,0.06743431,1.18258745e-11,1.15838875e-11,1.8945392e-11,5.020199e-07,7.8371266e-07,5.000007e-08,2.4653307e-05,1.5924872e-05,0.00059869076,0.00019989852,1.6918792e-05,0.00041591647,0.0,0.0,743,0.40911636,0.25968117,0.06475996,0.06962608,0.025980793,0.12556107,0.0,0.0,0.0,-0.004298,0,0,0,831,0,0,0,0
166660525,0.6918665,-0.23198426,-0.18731791,-0.65758353,7.0654554,-10.829261,-1.7704839,93.31745,3.3491306,-17.811806,-1.516832e-06,4.241003e-06,4.5408817e-07,0.0011470937,-0.0012053096,-0.00032905515,0.2383441,0.03725538,0.39324796,-0.0062745656,0.010584607,-0.011960437,0.0,0.0,0.0,6.383908e-07,0.0011216591,0.033893727,2.2315084e-05,1.2347062e-05,1.1303979e-05,1.8054146e-05,0.037709076,0.030154152,0.017950103,0.08636894,0.08203655,0.065861344,1.1899708e-11,1.1671009e-11,1.8977233e-11,4.905363e-07,7.485466e-07,5.000007e-08,2.335743e-05,1.5175099e-05,0.0005979812,0.00019877013,1.6221971e-05,0.0004152882,0.0,0.0,743,0.41037238,0.25663465,0.06628536,0.047069613,0.029127968,0.23189938,0.0,0.0,0.0,-0.0043,0,0,0,831,0,0,0,0
166865353,0.67055374,-0.25092915,-0.1586172,-0.6798771,6.441944,-11.195276,-1.5726479,94.71899,1.0615797,-18.025875,-1.6870549e-06,4.3250557e-06,7.2301384e-07,0.0011536155,-0.0012187808,-0.0003401291,0.23847121,0.037282165,0.3930448,-0.006264293,0.010616591,-0.012474046,0.0,0.0,0.0,9.4845456e-07,0.0010273712,0.031766385,2.3913195e-05,1.0922627e-05,1.0841664e-05,1.7714317e-05,0.03764068,0.030092694,0.017433807,0.08748968,0.08307693,0.0638287,1.1979504e-11,1.1764028e-11,1.902037e-11,4.7795925e-07,7.115636e-07,5e-08,2.2192233e-05,1.4426492e-05,0.00059283554,0.00019717625,1.5540036e-05,0.00041070013,0.0,0.0,743,0.41299713,0.25264344,0.09489169,0.056826953,0.029617308,0.06185478,0.0,0.0,0.0,-0.004271,0,0,0,831,0,0,0,0
167065371,0.637787,-0.25833756,-0.14500885,-0.71095854,5.7439995,-11.440277,-1.5182093,95.9209,-1.1460932,-18.291975,-1.7681648e-06,4.376738e-06,8.569649e-07,0.0011739346,-0.001229118,-0.0003429825,0.23836832,0.037288163,0.39318538,-0.006347762,0.010572064,-0.013023111,0.0,0.0,0.0,1.4410073e-06,0.0009975699,0.03161118,2.6061056e-05,9.909968e-06,1.0534457e-05,1.6510481e-05,0.037081234,0.029793177,0.017262517,0.0877209,0.083399154,0.063474596,1.2055981e-11,1.1851673e-11,1.9065216e-11,4.6461403e-07,6.7388766e-07,5e-08,2.120226e-05,1.3775651e-05,0.00058496423,0.0001948645,1.4952658e-05,0.00040419205,0.0,0.0,743,0.41366658,0.25194165,0.07092245,0.0587628,0.022461995,0.06515605,0.0,0.0,0.0,-0.004254,0,0,0,831,0,0,0,0
167265325,0.58379924,-0.2758226,-0.109658495,-0.7556953,4.876467,-11.676711,-1.568601,96.9635,-3.474276,-18.547556,-1.8153306e-06,4.3864798e-06,9.564789e-07,0.0011594888,-0.0011556513,-0.00034392407,0.23847362,0.03742746,0.39345056,-0.0065984563,0.010514601,-0.013600041,0.0,0.0,0.0,2.0167975e-06,0.0010173103,0.03313829,2.9216495e-05,8.616137e-06,1.0263746e-05,1.4758569e-05,0.036437776,0.029532164,0.017236816,0.08827224,0.084005535,0.06332527,1.2138333e-11,1.1944805e-11,1.911802e-11,4.509854e-07,6.375129e-07,5e-08,2.0223768e-05,1.3162049e-05,0.0005752295,0.00019187215,1.4375862e-05,0.00039646233,0.0,0.0,743,0.4150636,0.25164512,0.057761718,0.09250509,0.023482654,0.014545131,0.0,0.0,0.0,-0.004298,0,0,0,831,0,0,0,0
167473357,0.5163367,-0.29102647,-0.07226237,-0.80217105,3.7363596,-11.867485,-1.8236313,97.878395,-5.914631,-18.97315,-1.768389e-06,4.3913915e-06,8.9822e-07,0.001195493,-0.0011440839,-0.0003331901,0.2384841,0.03752141,0.394078,-0.0070956917,0.010315068,-0.014091102,0.0,0.0,0.0,2.3331372e-06,0.000999347,0.03320589,3.268688e-05,7.64511e-06,9.996484e-06,1.2549872e-05,0.035697285,0.02940539,0.017417442,0.08945878,0.08519922,0.06356797,1.2227421e-11,1.2043961e-11,1.9174294e-11,4.3728517e-07,6.031985e-07,5.000007e-08,1.9298646e-05,1.2612773e-05,0.0005594105,0.00018705649,1.3867559e-05,0.0003844519,0.0,0.0,743,0.41792104,0.2521269,0.06215752,0.0420371,0.024164326,0.09447483,0.0,0.0,0.0,-0.004268,0,0,0,831,0,0,0,0
167674947,0.44454145,-0.2972708,-0.043773487,-0.84385836,2.4169497,-11.872947,-2.2424254,98.49445,-8.295559,-19.49553,-1.6778788e-06,4.3738255e-06,7.721975e-07,0.0012204883,-0.0010768499,-0.00031346452,0.2384158,0.037741538,0.39545557,-0.007957715,0.010049125,-0.015246994,0.0,0.0,0.0,3.0103117e-06,0.0009752758,0.031504974,3.5902096e-05,7.154172e-06,9.74604e-06,1.0156362e-05,0.034430955,0.029048234,0.017498737,0.09006675,0.08591015,0.06259113,1.2313574e-11,1.2140432e-11,1.921917e-11,4.2380998e-07,5.7203437e-07,5.000007e-08,1.8235361e-05,1.2046183e-05,0.00054011744,0.00018095861,1.3317371e-05,0.00037006743,0.0,0.0,743,0.419496,0.25018218,0.06920887,0.03969147,0.0150098065,0.08894206,0.0,0.0,0.0,-0.004276,0,0,0,831,0,0,0,0
167874934,0.33226532,-0.29991338,-0.0014589287,-0.8942313,0.9194002,-11.628791,-2.8443978,98.830215,-10.660867,-20.221966,-1.530876e-06,4.3467476e-06,5.427751e-07,0.0012907237,-0.0009755735,-0.0002760624,0.23804522,0.037908744,0.39662173,-0.00859232,0.009850857,-0.0162723,0.0,0.0,0.0,3.3457784e-06,0.0011051178,0.037264057,3.9728668e-05,7.126461e-06,9.447963e-06,6.8225872e-06,0.03288713,0.02869233,0.01775749,0.09081191,0.086802654,0.06190025,1.2405484e-11,1.2241847e-11,1.9257458e-11,4.109463e-07,5.4471246e-07,5.0000036e-08,1.710757e-05,1.15190405e-05,0.00052004296,0.00017418491,1.2790688e-05,0.00035548667,0.0,0.0,743,0.42144343,0.24879761,0.08408861,0.04778094,0.015500842,0.21709701,0.0,0.0,0.0,-0.00429,0,0,0,831,0,0,0,0
168082948,0.27114692,-0.31675768,-0.022516677,-0.90864575,-0.31732744,-11.216754,-2.8019073,98.8448,-13.063984,-20.990664,-1.4095878e-06,4.322457e-06,2.491376e-07,0.0013149277,-0.00084356853,-0.00024154368,0.23829885,0.03834234,0.39841732,-0.00987956,0.009353726,-0.017670948,0.0,0.0,0.0,3.01181e-06,0.0011566362,0.039780967,4.215842e-05,7.05479e-06,9.038736e-06,5.0398653e-06,0.031063143,0.027722543,0.018196581,0.09206276,0.08820417,0.06166814,1.2499694e-11,1.2344381e-11,1.9281873e-11,3.9902233e-07,5.219955e-07,5.0000036e-08,1.6146269e-05,1.1073195e-05,0.0005102377,0.00017069581,1.2286608e-05,0.00034814997,0.0,0.0,743,0.42457852,0.2483307,0.08371913,0.117061295,0.036285598,0.06370302,0.0,0.0,0.0,-0.004275,0,0,0,831,0,0,0,0
168283732,0.27256426,-0.30476892,-0.09674208,-0.90745014,-0.94570637,-10.862945,-1.8977913,98.69614,-15.341835,-21.413788,-1.4216732e-06,4.3102036e-06,2.028122e-07,0.0012163953,-0.00083690195,-0.00023912358,0.23824446,0.03888733,0.39806527,-0.00961852,0.008944686,-0.017809272,0.0,0.0,0.0,2.1233093e-06,0.0010729764,0.035263218,4.3152457e-05,6.9805665e-06,8.949374e-06,4.366285e-06,0.029189873,0.026074382,0.018692054,0.09265458,0.08901637,0.0620822,1.2591208e-11,1.2443485e-11,1.9298134e-11,3.8753902e-07,5.0241886e-07,5.0000036e-08,1.54251e-05,1.0666113e-05,0.00050824636,0.0001699432,1.1656827e-05,0.0003463809,0.0,0.0,743,0.42622876,0.249163,0.081856124,0.1482014,0.03904792,0.06420466,0.0,0.0,0.0,-0.004292,0,0,0,831,0,0,0,0
168483753,0.28009376,-0.2896898,-0.116574265,-0.90776527,-1.3690838,-10.610294,-0.9100381,98.415276,-17.546652,-21.597746,-1.466255e-06,4.317686e-06,1.7187155e-07,0.0011077643,-0.00081284903,-0.0002467974,0.23833585,0.039244723,0.39614666,-0.008569001,0.008548075,-0.016581297,0.0,0.0,0.0,1.4925224e-06,0.0010541718,0.031026777,4.3260996e-05,7.0807655e-06,8.992955e-06,4.2816064e-06,0.02775531,0.024665296,0.019007836,0.0931738,0.08972824,0.06168701,1.2683766e-11,1.2544651e-11,1.9316606e-11,3.7541741e-07,4.839521e-07,5.0000036e-08,1.4711137e-05,1.027322e-05,0.00049731025,0.00016533169,1.0925855e-05,0.00033971656,0.0,0.0,743,0.42767048,0.2483687,0.04899469,0.1060985,0.018733403,0.02455331,0.0,0.0,0.0,-0.004271,0,0,0,831,0,0,0,0
168691741,0.29206735,-0.28727993,-0.113913745,-0.9050915,-1.8405504,-10.44195,-0.041641537,98.01699,-19.77427,-21.62707,-1.4984715e-06,4.3297578e-06,6.043861e-08,0.0010135691,-0.00075564085,-0.00024889462,0.2385116,0.039466087,0.39479825,-0.007943454,0.008246886,-0.015711518,0.0,0.0,0.0,1.1622019e-06,0.0010671627,0.03375935,4.3172393e-05,7.1110767e-06,8.997697e-06,4.5813545e-06,0.026759816,0.023802048,0.019385112,0.09415403,0.09084531,0.061793596,1.2778898e-11,1.2647998e-11,1.9344318e-11,3.6300165e-07,4.6612885e-07,5.0000036e-08,1.4094032e-05,9.943173e-06,0.00048719812,0.0001609571,1.0325555e-05,0.00033367134,0.0,0.0,743,0.4301155,0.24858318,0.047575507,0.14909633,0.022416024,0.05646387,0.0,0.0,0.0,-0.004287,0,0,0,831,0,0,0,0
168891840,0.30694848,-0.28323165,-0.11221647,-0.9016485,-2.3201396,-10.3006735,0.6075642,97.53466,-21.849318,-21.627752,-1.4646391e-06,4.3447653e-06,-1.1000036e-07,0.001008454,-0.000645676,-0.00022851415,0.23852755,0.03967626,0.3937427,-0.0074506723,0.007939014,-0.014966922,0.0,0.0,0.0,9.798836e-07,0.0011435932,0.036217786,4.2963915e-05,7.16503e-06,9.041357e-06,4.9540304e-06,0.025888085,0.023158504,0.019736873,0.09454557,0.09142113,0.06255074,1.2870336e-11,1.27469745e-11,1.9375317e-11,3.5067092e-07,4.4892099e-07,5e-08,1.3565925e-05,9.660464e-06,0.0004803762,0.00015775593,9.846009e-06,0.0003297516,0.0,0.0,743,0.43123856,0.25010145,0.044769496,0.16353048,0.030483624,0.09844144,0.0,0.0,0.0,-0.004183,0,0,0,831,0,0,0,0
169091741,0.31730974,-0.280433,-0.10864666,-0.8993708,-2.7720058,-10.211968,1.1013776,96.98155,-23.911224,-21.524492,-1.4212291e-06,4.346347e-06,-2.6279622e-07,0.0010108798,-0.0005784614,-0.00020722498,0.23851931,0.039870404,0.3930402,-0.0071308543,0.007699364,-0.01445351,0.0,0.0,0.0,8.276221e-07,0.0011935229,0.034644525,4.2867654e-05,7.21467e-06,9.0845315e-06,5.256668e-06,0.025193041,0.022718297,0.019973729,0.094972394,0.092020735,0.06330085,1.2962365e-11,1.2845615e-11,1.9412886e-11,3.3822357e-07,4.3243182e-07,5.0000036e-08,1.3154009e-05,9.434391e-06,0.0004761417,0.00015559392,9.493609e-06,0.00032742688,0.0,0.0,743,0.43242702,0.2515966,0.0351984,0.097728506,0.037953276,0.065893486,0.0,0.0,0.0,-0.004282,0,0,0,831,0,0,0,0
169300553,0.3245574,-0.27862766,-0.10818569,-0.897399,-3.0643854,-10.107621,1.8340605,96.31884,-26.039776,-21.302042,-1.3886231e-06,4.3564182e-06,-4.0733676e-07,0.0010119705,-0.00050625805,-0.00018587656,0.23839627,0.040000387,0.39242348,-0.0068156375,0.00754721,-0.014105473,0.0,0.0,0.0,8.41182e-07,0.0015104106,0.04598831,4.2912947e-05,7.278553e-06,9.114749e-06,5.4731663e-06,0.024668686,0.022359896,0.0200664,0.09597208,0.09313646,0.063590646,1.305899e-11,1.2949391e-11,1.9461167e-11,3.253108e-07,4.1640428e-07,5.000007e-08,1.2754915e-05,9.209291e-06,0.0004725009,0.00015368161,9.152743e-06,0.00032544933,0.0,0.0,743,0.43486613,0.25217184,0.05458964,0.102353826,0.04211062,0.1242516,0.0,0.0,0.0,-0.00428,0,0,0,831,0,0,0,0
169500525,0.3280767,-0.26659644,-0.10864265,-0.899716,-3.3300686,-9.923946,2.6086648,95.63755,-28.019207,-21.070131,-1.300309e-06,4.3560194e-06,-5.887879e-07,0.0011163894,-0.00038815077,-0.00013779338,0.23822713,0.04026998,0.3919158,-0.0065897973,0.0073190643,-0.013704264,0.0,0.0,0.0,1.9606275e-06,0.0023162542,0.06260085,4.298634e-05,7.3793103e-06,9.276406e-06,5.4955854e-06,0.024135819,0.021974536,0.020016259,0.096334934,0.09365637,0.063505866,1.3148976e-11,1.30463765e-11,1.9509155e-11,3.1231178e-07,4.006178e-07,5.000007e-08,1.2375893e-05,9.004558e-06,0.00046856492,0.00015147708,8.864438e-06,0.00032345852,0.0,0.0,743,0.43587992,0.2520037,0.055574078,0.096282445,0.04353969,0.21812892,0.0,0.0,0.0,-0.004299,0,0,0,831,0,0,0,0
169700549,0.32822868,-0.28523153,-0.118053384,-0.8927331,-3.543824,-9.789972,3.506282,94.90301,-29.982975,-20.64693,-1.2277192e-06,4.3671607e-06,-7.9726874e-07,0.0011948552,-0.0002851758,-9.006689e-05,0.23804918,0.04049357,0.39144567,-0.0063578244,0.0071746823,-0.013330227,0.0,0.0,0.0,1.4988674e-06,0.002088207,0.06089185,4.3470467e-05,7.4051054e-06,9.031053e-06,5.6261515e-06,0.023627799,0.021642562,0.02009842,0.096674144,0.094146654,0.064490445,1.3240492e-11,1.3143024e-11,1.9562128e-11,2.9984068e-07,3.850825e-07,5.000007e-08,1.212051e-05,8.853593e-06,0.00046545567,0.00014995445,8.65385e-06,0.00032172017,0.0,0.0,743,0.4368304,0.2539497,0.033692025,0.12135796,0.04998561,0.18608043,0.0,0.0,0.0,-0.004276,0,0,0,831,0,0,0,0
169908536,0.32984436,-0.27090505,-0.10449774,-0.8982725,-4.2093363,-9.952898,3.2928295,94.01461,-32.00587,-20.217873,-1.1224361e-06,4.4036265e-06,-1.1436948e-06,0.0013235783,-9.327918e-05,-1.2577231e-05,0.2378262,0.040836856,0.39109048,-0.006237873,0.006999204,-0.012975778,0.0,0.0,0.0,1.0838581e-06,0.0017434417,0.051425274,4.3540444e-05,7.4633635e-06,9.259191e-06,5.6998106e-06,0.02307469,0.021655738,0.019638164,0.09752673,0.095136315,0.06375886,1.3331841e-11,1.32416135e-11,1.9620968e-11,2.8614005e-07,3.6949163e-07,5e-08,1.1802589e-05,8.661061e-06,0.00046269957,0.00014846351,8.390231e-06,0.00032025535,0.0,0.0,743,0.438934,0.25250515,0.04895472,0.22859415,0.061153118,0.22380164,0.0,0.0,0.0,-0.004287,0,0,0,831,0,0,0,0
170113339,0.33185652,-0.26819605,-0.099597335,-0.89890075,-4.9107413,-10.188096,2.6820512,93.00647,-34.08173,-19.838724,-1.0466107e-06,4.4129324e-06,-1.3450804e-06,0.0014225855,2.3520422e-05,4.2720076e-05,0.23775123,0.0411119,0.39098328,-0.0062971516,0.006825289,-0.012870145,0.0,0.0,0.0,8.2607914e-07,0.0015923022,0.04801623,4.375732e-05,7.5215266e-06,9.339807e-06,5.8276087e-06,0.02258126,0.021763405,0.019411791,0.09832871,0.096138895,0.06510772,1.34222685e-11,1.3338965e-11,1.9684686e-11,2.7434268e-07,3.5557957e-07,5.0000036e-08,1.1520628e-05,8.4971425e-06,0.00046002635,0.00014687201,8.190202e-06,0.00031897542,0.0,0.0,743,0.44098482,0.25516215,0.06655774,0.20380947,0.057624027,0.19635867,0.0,0.0,0.0,-0.004285,0,0,0,831,0,0,0,0
170313342,0.33271918,-0.2660683,-0.10204019,-0.8989402,-5.501191,-10.324585,2.0963807,91.928535,-36.055862,-19.575052,-9.605767e-07,4.412257e-06,-1.4885856e-06,0.0015106449,0.00014054235,8.004359e-05,0.23760982,0.041321125,0.39077103,-0.0062412918,0.006684069,-0.0127298925,0.0,0.0,0.0,6.9348226e-07,0.001498164,0.047589157,4.406687e-05,7.596002e-06,9.3909075e-06,5.8610663e-06,0.022113523,0.021772841,0.019090572,0.098394565,0.09646496,0.065750994,1.350238e-11,1.3426481e-11,1.9743509e-11,2.6332563e-07,3.4336307e-07,5.0000036e-08,1.1262482e-05,8.34297e-06,0.00045739827,0.00014533079,8.011796e-06,0.00031770757,0.0,0.0,743,0.44142896,0.25641957,0.08666708,0.2492084,0.061679028,0.13872488,0.0,0.0,0.0,-0.004283,0,0,0,831,0,0,0,0
170513353,0.33569488,-0.26379544,-0.11719682,-0.89665264,-6.035503,-10.484877,1.7407784,90.69467,-38.114735,-19.297146,-8.745258e-07,4.442248e-06,-1.6699064e-06,0.0015115131,0.00023621124,0.00010079966,0.23756625,0.0414169,0.39059892,-0.006228549,0.006546466,-0.012623727,0.0,0.0,0.0,1.9994288e-06,0.001523607,0.04847416,4.441044e-05,7.725569e-06,9.421256e-06,5.8367827e-06,0.02167528,0.021765802,0.01856778,0.098719604,0.09704527,0.06541711,1.3583039e-11,1.3514913e-11,1.9805983e-11,2.5264757e-07,3.327129e-07,5.0000036e-08,1.1033213e-05,8.198417e-06,0.00045487226,0.00014392498,7.844641e-06,0.00031644184,0.0,0.0,743,0.44245324,0.2557677,0.042296275,0.27667668,0.07300286,0.07870302,0.0,0.0,0.0,-0.004271,0,0,0,831,0,0,0,0
170721357,0.4023926,-0.20238294,-0.21797605,-0.865799,-6.214493,-10.799342,1.5731672,89.31917,-40.291924,-18.944212,-8.1084636e-07,4.5137613e-06,-1.8455195e-06,0.0014379276,0.00032316492,9.470902e-05,0.23735598,0.041318987,0.3892696,-0.0054711993,0.006429249,-0.011727049,0.0,0.0,0.0,2.547627e-06,0.0014078813,0.044405192,4.2003845e-05,9.121006e-06,1.0244062e-05,6.5919135e-06,0.02127501,0.021829199,0.018055916,0.09951536,0.09809003,0.06551246,1.3663357e-11,1.3603657e-11,1.9873462e-11,2.4276594e-07,3.232556e-07,5.000007e-08,1.0803459e-05,8.081635e-06,0.00043435744,0.00013670248,7.657176e-06,0.0003030872,0.0,0.0,743,0.44452828,0.25595403,0.08418255,0.2943785,0.065068565,0.053945497,0.0,0.0,0.0,-0.004277,0,0,0,831,0,0,0,0
170922969,0.46253356,-0.1424799,-0.25788188,-0.8362172,-5.9040504,-11.424257,1.1677337,88.020874,-42.494347,-18.706831,-9.2114584e-07,4.6301107e-06,-1.9790643e-06,0.0013989627,0.0004046601,0.00010549192,0.23725617,0.041182358,0.38919258,-0.0054721115,0.0063888505,-0.012073406,0.0,0.0,0.0,2.69589e-06,0.0014245857,0.044281013,3.8796938e-05,1.0342155e-05,1.1393782e-05,7.917406e-06,0.020746037,0.022174764,0.017318767,0.09975307,0.09858502,0.06508723,1.3734295e-11,1.368409e-11,1.993484e-11,2.3345177e-07,3.147699e-07,5e-08,1.0553217e-05,7.986731e-06,0.00037906418,0.00011858176,7.4736336e-06,0.00026586957,0.0,0.0,743,0.44535166,0.25512198,0.22986916,0.29867482,0.06189853,0.14374629,0.0,0.0,0.0,-0.004255,0,0,0,831,0,0,0,0
171122935,0.5041782,-0.12296235,-0.2642835,-0.8129199,-5.3438687,-12.099729,0.6224808,86.78334,-44.838852,-18.537622,-1.0597674e-06,4.78558e-06,-2.1396081e-06,0.0013349646,0.00050447497,0.00010841331,0.23720114,0.040969122,0.38978744,-0.0058146156,0.006372151,-0.01300536,0.0,0.0,0.0,2.7879153e-06,0.0013846197,0.04591998,3.6736183e-05,1.0841648e-05,1.1889244e-05,9.361812e-06,0.020336248,0.02323193,0.016834624,0.10008179,0.0991734,0.065721184,1.3805709e-11,1.3765192e-11,1.9982026e-11,2.252136e-07,3.0767487e-07,5e-08,1.0371912e-05,7.904599e-06,0.0003306626,0.000102968814,7.348503e-06,0.0002330431,0.0,0.0,743,0.44638008,0.25636142,0.23255199,0.3096458,0.06471753,0.042942658,0.0,0.0,0.0,-0.004288,0,0,0,831,0,0,0,0
171330957,0.48349518,-0.21367043,-0.18700604,-0.8280135,-5.024971,-12.583292,0.1740812,85.60682,-47.36415,-18.426716,-1.1074069e-06,4.931339e-06,-2.352975e-06,0.0012485468,0.00060231955,9.5509495e-05,0.23709318,0.040710624,0.3904939,-0.0061829695,0.0064202286,-0.013895097,0.0,0.0,0.0,2.366684e-06,0.0013341539,0.0455102,3.926541e-05,9.10432e-06,1.0447721e-05,1.021473e-05,0.020117296,0.024403619,0.016401017,0.100730486,0.10009817,0.06545922,1.3874033e-11,1.3841757e-11,1.9985812e-11,2.1694758e-07,3.0187863e-07,5e-08,1.0253386e-05,7.822743e-06,0.00030961784,9.6030744e-05,7.2604935e-06,0.00021891942,0.0,0.0,743,0.4481391,0.25585,0.105860874,0.30924433,0.055018023,0.060189396,0.0,0.0,0.0,-0.004266,0,0,0,831,0,0,0,0
171531781,0.46618104,-0.24792105,-0.15488175,-0.8349983,-5.1960254,-12.752172,0.06252545,84.418625,-49.829327,-18.254545,-8.979984e-07,5.10835e-06,-2.7198996e-06,0.0010562249,0.0007119096,4.9203707e-05,0.23685263,0.04036151,0.39056483,-0.0061593587,0.0064083827,-0.014005781,0.0,0.0,0.0,2.4139788e-06,0.0012818101,0.0412948,3.948577e-05,8.389892e-06,9.945641e-06,1.011496e-05,0.017586982,0.021523481,0.015677104,0.088910736,0.088535026,0.06457599,1.3911116e-11,1.3882163e-11,1.9794432e-11,2.0621192e-07,2.9337338e-07,5e-08,1.0154177e-05,7.718977e-06,0.00030796684,9.5288895e-05,7.1841164e-06,0.00021798149,0.0,0.0,743,0.42124313,0.25411806,0.086886324,0.24281882,0.062548466,0.08117277,0.0,0.0,0.0,-0.004242,0,0,0,831,0,0,0,0
