timestamp,states[0],states[1],states[2],states[3],states[4],states[5],states[6],states[7],states[8],states[9],states[10],states[11],states[12],states[13],states[14],states[15],states[16],states[17],states[18],states[19],states[20],states[21],states[22],states[23],vibe[0],vibe[1],vibe[2],covariances[0],covariances[1],covariances[2],covariances[3],covariances[4],covariances[5],covariances[6],covariances[7],covariances[8],covariances[9],covariances[10],covariances[11],covariances[12],covariances[13],covariances[14],covariances[15],covariances[16],covariances[17],covariances[18],covariances[19],covariances[20],covariances[21],covariances[22],covariances[23],control_mode_flags,pos_horiz_accuracy,pos_vert_accuracy,mag_test_ratio,vel_test_ratio,pos_test_ratio,hgt_test_ratio,tas_test_ratio,hagl_test_ratio,beta_test_ratio,time_slip,gps_check_fail_flags,filter_fault_flags,innovation_check_flags,solution_status_flags,n_states,pre_flt_fail,health_flags,timeout_flags
751581662,0.9985624,-0.03113247,-0.030407805,0.03129413,0.016278604,0.04927126,-0.023563426,5.3127284,2.7019467,0.13642225,-2.1273761e-05,1.5340745e-05,2.0853329e-06,7.9011574e-05,0.00041419367,-0.00016634307,0.23695713,0.04332465,0.38152212,-0.00228556,-0.0066069425,0.007923385,0.0,0.0,3.0482084e-09,5.445941e-05,0.0014845792,1.10905816e-07,6.258967e-06,6.2450777e-06,3.40734e-05,0.011664078,0.011663849,0.010823366,0.045242548,0.045242026,0.05707392,1.12495785e-11,1.1259482e-11,1.790988e-11,5.0000146e-08,5.0000125e-08,5e-08,0.0,0.0,0.0,0.0,0.0,0.0,0.0,0.0,535,0.30080655,0.23890148,0.006322496,0.035200026,0.015717197,0.0016011168,0.0,0.0,0.0,-0.006737,0,0,0,831,24,0,0,0
751782452,0.99856025,-0.03148327,-0.030176343,0.031235266,0.013995293,0.05067072,-0.030188195,5.3109984,2.700592,0.12517104,-2.1214002e-05,1.532167e-05,2.1297478e-06,7.871027e-05,0.00041310702,-0.00016447555,0.23695713,0.04332465,0.38152212,-0.00228556,-0.0066069425,0.007923385,0.0,0.0,4.347105e-09,8.383093e-05,0.0022553816,1.1098681e-07,6.2444283e-06,6.2320555e-06,3.4104116e-05,0.011661796,0.011661509,0.010855304,0.045260232,0.045259733,0.05744112,1.12273645e-11,1.1237304e-11,1.7906105e-11,5.0000136e-08,5.000013e-08,5e-08,0.0,0.0,0.0,0.0,0.0,0.0,0.0,0.0,535,0.30086535,0.23966877,0.018650284,0.029364513,0.016254684,0.025122445,0.0,0.0,0.0,-0.006746,0,0,0,831,24,0,0,0
751990438,0.99855715,-0.031795356,-0.02999538,0.031191792,0.010252659,0.045943063,-0.03094905,5.304263,2.6911252,0.1113132,-2.1105321e-05,1.5263733e-05,2.1592825e-06,7.7661134e-05,0.00041108747,-0.00016055601,0.23695713,0.04332465,0.38152212,-0.00228556,-0.0066069425,0.007923385,0.0,0.0,2.3487768e-08,0.00018118897,0.0036144692,1.11089896e-07,6.237625e-06,6.2263007e-06,3.4153705e-05,0.011708715,0.011708418,0.0109193,0.04554943,0.045548953,0.05807276,1.12096625e-11,1.1219645e-11,1.7906418e-11,5.000017e-08,5.0000164e-08,5.0000036e-08,0.0,0.0,0.0,0.0,0.0,0.0,0.0,0.0,663,0.30182508,0.2409829,0.02361307,0.06254993,0.021565555,0.0027253528,0.0,0.0,0.0,-0.006761,0,0,0,831,24,0,0,0
752191259,0.9985406,-0.027307827,-0.034787327,0.030998053,0.018327514,0.033088595,-0.06337429,5.3062487,2.6903007,0.06559523,-2.1058811e-05,1.5261334e-05,2.253926e-06,7.775367e-05,0.00041016514,-0.00014551636,0.23695713,0.04332465,0.38152212,-0.00228556,-0.0066069425,0.007923385,0.0,0.0,2.0989015e-07,0.00032769758,0.0067029838,1.1153322e-07,6.2358067e-06,6.203785e-06,3.4179604e-05,0.011718359,0.011718311,0.010857911,0.045574974,0.04557455,0.057565328,1.1187594e-11,1.11976955e-11,1.7900795e-11,5.0000192e-08,5.0000168e-08,5.0000036e-08,0.0,0.0,0.0,0.0,0.0,0.0,0.0,0.0,663,0.3019098,0.23992775,0.02752283,0.01770586,0.018288014,0.061220113,0.0,0.0,0.0,-0.006739,0,0,0,831,24,0,0,0
752391266,0.99939823,0.0051609953,-0.021059155,0.027074993,-0.007857101,-0.052483488,-0.8537879,5.3019495,2.673146,-0.16709298,-2.0999569e-05,1.5213248e-05,2.3640068e-06,7.714556e-05,0.00040843993,-8.879635e-05,0.23695713,0.04332465,0.38152212,-0.00228556,-0.0066069425,0.007923385,0.0,0.0,2.3326197e-07,0.00047334918,0.009421325,9.5583246e-08,6.1879928e-06,6.16262e-06,3.426489e-05,0.012190202,0.012190236,0.010894447,0.045586515,0.045586284,0.057932977,1.1160839e-11,1.117098e-11,1.789744e-11,5.000017e-08,5.0000136e-08,5.0000036e-08,0.0,0.0,0.0,0.0,0.0,0.0,0.0,0.0,663,0.30194834,0.2406927,0.042624906,0.029219456,0.021012902,0.075674415,0.0,0.0,0.0,-0.006733,0,0,0,831,24,0,0,0
752596093,0.9996284,0.007818767,-0.015245049,0.021201713,-0.081766516,-0.03918729,-1.5528065,5.2879252,2.6507726,-0.4294288,-2.0931935e-05,1.5189091e-05,2.4277788e-06,7.6703735e-05,0.00040693852,-8.4514504e-05,0.23695713,0.04332465,0.38152212,-0.00228556,-0.0066069425,0.007923385,0.0,0.0,2.1718282e-07,0.0005348491,0.011093066,8.379713e-08,6.147124e-06,6.13165e-06,3.43262e-05,0.012642648,0.012643536,0.010874296,0.04583708,0.045837056,0.05763488,1.1127262e-11,1.1137237e-11,1.7892535e-11,5.0000168e-08,5.0000146e-08,5.000007e-08,0.0,0.0,0.0,0.0,0.0,0.0,0.0,0.0,663,0.30277738,0.24007265,0.017761104,0.029602056,0.019689232,0.0052612782,0.0,0.0,0.0,-0.006735,0,0,0,831,24,0,0,0
752796890,0.9995012,0.0070259613,-0.025192058,0.017705604,-0.12346032,-0.0037320587,-1.8283092,5.2556252,2.6428657,-0.7351549,-2.0925938e-05,1.5134957e-05,2.4963629e-06,7.546737e-05,0.0004070295,-0.000100151665,0.23695713,0.04332465,0.38152212,-0.00228556,-0.0066069425,0.007923385,0.0,0.0,1.5393591e-07,0.00048672163,0.010163257,8.086718e-08,6.118526e-06,6.0854572e-06,3.4290275e-05,0.012762776,0.012764585,0.010833413,0.04599814,0.045998223,0.057230182,1.1091822e-11,1.110163e-11,1.7875106e-11,5.0000196e-08,5.0000175e-08,5.0000068e-08,0.0,0.0,0.0,0.0,0.0,0.0,0.0,0.0,663,0.30330902,0.23922831,0.0011939892,0.025374504,0.016854389,0.016534392,0.0,0.0,0.0,-0.006748,0,0,0,831,24,0,0,0
753001643,0.9993826,0.0074235545,-0.029350199,0.017831983,-0.12438036,0.01807744,-1.8199998,5.2259846,2.6293588,-1.0798856,-2.0837853e-05,1.5131125e-05,2.5582945e-06,7.539132e-05,0.00040509217,-0.00011552744,0.23695713,0.04332465,0.38152212,-0.00228556,-0.0066069425,0.007923385,0.0,0.0,1.1173237e-07,0.00045962975,0.009980205,8.265092e-08,6.094405e-06,6.052322e-06,3.4327284e-05,0.01274787,0.012749578,0.010755104,0.046525735,0.0465259,0.056413107,1.1065227e-11,1.10749404e-11,1.7875463e-11,5.0000267e-08,5.0000246e-08,5e-08,0.0,0.0,0.0,0.0,0.0,0.0,0.0,0.0,663,0.30504367,0.23751444,0.027030943,0.04110695,0.018550565,0.037700135,0.0,0.0,0.0,-0.006754,0,0,0,831,24,0,0,0
753201630,0.99931055,0.0049354653,-0.031213086,0.019489443,-0.10425449,0.03306951,-1.8156068,5.2028656,2.6156979,-1.4051666,-2.0726362e-05,1.5140151e-05,2.5979693e-06,7.5561635e-05,0.00040267163,-0.00012597155,0.23695713,0.04332465,0.38152212,-0.00228556,-0.0066069425,0.007923385,0.0,0.0,8.6027185e-08,0.00040600722,0.008763647,8.567045e-08,6.0571597e-06,6.0098564e-06,3.4343037e-05,0.01263547,0.012636691,0.010726862,0.046611853,0.046612073,0.055997413,1.1030607e-11,1.1040341e-11,1.7866273e-11,5.000024e-08,5.0000207e-08,5e-08,0.0,0.0,0.0,0.0,0.0,0.0,0.0,0.0,663,0.30532593,0.23663773,0.027891701,0.056715302,0.020954264,0.053957902,0.0,0.0,0.0,-0.006767,0,0,0,831,24,0,0,0
753402465,0.99918574,0.0040257326,-0.033598583,0.021976382,-0.08523708,0.051001154,-1.8534229,5.1765313,2.6201406,-1.7409377,-2.0717856e-05,1.5102284e-05,2.6576283e-06,7.4736745e-05,0.0004026188,-0.00013665835,0.23695713,0.04332465,0.38152212,-0.00228556,-0.0066069425,0.007923385,0.0,0.0,6.664098e-08,0.00037914526,0.008551984,9.089224e-08,6.0246234e-06,5.9712124e-06,3.440955e-05,0.012577782,0.012578827,0.0107946,0.046794012,0.046794284,0.05651733,1.1001036e-11,1.10108945e-11,1.7872476e-11,5.0000242e-08,5.0000214e-08,5.000007e-08,0.0,0.0,0.0,0.0,0.0,0.0,0.0,0.0,663,0.30592203,0.23773374,0.040250942,0.031084381,0.014577804,0.059245463,0.0,0.0,0.0,-0.006733,0,0,0,831,24,0,0,0
753611227,0.9991201,0.0032034225,-0.03418071,0.02409244,-0.05826696,0.04623353,-1.9229418,5.1679707,2.6050186,-2.1044376,-2.0551504e-05,1.515177e-05,2.692384e-06,7.5702636e-05,0.0003988987,-0.00014811356,0.23695713,0.04332465,0.38152212,-0.00228556,-0.0066069425,0.007923385,0.0,0.0,4.832697e-08,0.00037393312,0.008550239,9.501756e-08,5.9976774e-06,5.9434724e-06,3.4395016e-05,0.012605412,0.012606762,0.010729989,0.04729226,0.047292612,0.055810507,1.0978992e-11,1.0989088e-11,1.786115e-11,5.0000274e-08,5.000022e-08,5e-08,0.0,0.0,0.0,0.0,0.0,0.0,0.0,0.0,663,0.30754653,0.23624247,0.03201847,0.09530031,0.019444454,0.0017521353,0.0,0.0,0.0,-0.006771,0,0,0,831,24,0,0,0
753811264,0.9991485,0.004928174,-0.03301246,0.024256036,-0.022826815,0.049183324,-2.0373178,5.1566334,2.606745,-2.4828448,-2.0517795e-05,1.513777e-05,2.736494e-06,7.539215e-05,0.0003982405,-0.00015465697,0.23695713,0.04332465,0.38152212,-0.00228556,-0.0066069425,0.007923385,0.0,0.0,4.3399208e-08,0.00037875873,0.009061658,9.513638e-08,5.9595673e-06,5.909386e-06,3.441958e-05,0.012601336,0.012603416,0.010804747,0.047504865,0.04750531,0.056401093,1.0953835e-11,1.09642035e-11,1.7857665e-11,5.0000292e-08,5.000023e-08,5.0000068e-08,0.0,0.0,0.0,0.0,0.0,0.0,0.0,0.0,663,0.3082372,0.23748915,0.014381715,0.034103572,0.0142897945,0.0080591515,0.0,0.0,0.0,-0.006733,0,0,0,831,24,0,0,0
754012055,0.9992042,0.004415034,-0.030799858,0.024956848,-0.010231164,0.069288634,-2.0164125,5.144908,2.6160967,-2.8665948,-2.0515005e-05,1.5084827e-05,2.7908982e-06,7.4289936e-05,0.00039829582,-0.00016035588,0.23695713,0.04332465,0.38152212,-0.00228556,-0.0066069425,0.007923385,0.0,0.0,3.9717257e-08,0.00035762452,0.008349675,9.581035e-08,5.9212953e-06,5.8772466e-06,3.444368e-05,0.012496569,0.012498922,0.010780783,0.04768231,0.047682885,0.05613823,1.09287e-11,1.0939425e-11,1.7852457e-11,5.0000274e-08,5.000017e-08,5e-08,0.0,0.0,0.0,0.0,0.0,0.0,0.0,0.0,663,0.30881256,0.23693508,0.031020783,0.043671615,0.009523958,3.7878337e-05,0.0,0.0,0.0,-0.006743,0,0,0,831,24,0,0,0
754220886,0.9991961,0.002992573,-0.02986781,0.026575467,-0.008139405,0.084969044,-1.9587415,5.129421,2.6268282,-3.2554405,-2.0492802e-05,1.5001124e-05,2.8263391e-06,7.257018e-05,0.00039799407,-0.00016674271,0.23695713,0.04332465,0.38152212,-0.00228556,-0.0066069425,0.007923385,0.0,0.0,3.481726e-08,0.00033866044,0.007852545,9.884797e-08,5.8977857e-06,5.8565647e-06,3.4483048e-05,0.012437071,0.01243962,0.010884233,0.048170302,0.048171043,0.056993153,1.0912029e-11,1.0923153e-11,1.7853368e-11,5.0000313e-08,5.000019e-08,5.0000068e-08,0.0,0.0,0.0,0.0,0.0,0.0,0.0,0.0,663,0.310389,0.23873238,0.0023853958,0.0635898,0.011949177,0.030296791,0.0,0.0,0.0,-0.006712,0,0,0,831,24,0,0,0
754420908,0.999161,0.0016512644,-0.03065768,0.027103657,-0.002874254,0.09583853,-1.8907124,5.119233,2.6419804,-3.628025,-2.0483118e-05,1.4963858e-05,2.872577e-06,7.182605e-05,0.00039801517,-0.000167922,0.23695713,0.04332465,0.38152212,-0.00228556,-0.0066069425,0.007923385,0.0,0.0,3.2121342e-08,0.000323186,0.0073059476,1.00340415e-07,5.8736823e-06,5.8316623e-06,3.450069e-05,0.012319343,0.012322146,0.010851422,0.0483526,0.048353534,0.056712493,1.0893761e-11,1.0905292e-11,1.7850395e-11,5.0000317e-08,5.0000153e-08,5.000004e-08,0.0,0.0,0.0,0.0,0.0,0.0,0.0,0.0,663,0.31097612,0.23814385,8.402191e-05,0.08023306,0.017162539,0.033069313,0.0,0.0,0.0,-0.00673,0,0,0,831,24,0,0,0
754625696,0.9991027,0.00037041592,-0.032575138,0.027066449,0.0014435821,0.10268119,-1.8356256,5.1112494,2.655493,-4.003572,-2.044021e-05,1.4932147e-05,2.896134e-06,7.117614e-05,0.0003974055,-0.00016845683,0.23695713,0.04332465,0.38152212,-0.00228556,-0.0066069425,0.007923385,0.0,0.0,4.010767e-08,0.00034801988,0.0078122374,1.01020234e-07,5.8627124e-06,5.817319e-06,3.45355e-05,0.0122709535,0.012273897,0.010856441,0.04880502,0.048806183,0.056705788,1.088011e-11,1.08920616e-11,1.7849512e-11,5.000036e-08,5.0000107e-08,5.0000036e-08,0.0,0.0,0.0,0.0,0.0,0.0,0.0,0.0,663,0.3124279,0.23812976,0.002895212,0.07006597,0.014208364,0.0041471603,0.0,0.0,0.0,-0.006701,0,0,0,831,24,0,0,0
754826455,0.999106,-0.0038293786,-0.03399741,0.024834797,0.029710291,0.119221844,-1.7524176,5.0974994,2.6710114,-4.3515706,-2.0408423e-05,1.4848346e-05,2.9070698e-06,6.964041e-05,0.00039720192,-0.00016501405,0.23695713,0.04332465,0.38152212,-0.00228556,-0.0066069425,0.007923385,0.0,0.0,4.4919357e-08,0.0003689692,0.008041562,9.6925326e-08,5.8456976e-06,5.799491e-06,3.4551515e-05,0.012134183,0.012137362,0.010825472,0.048833538,0.048834916,0.05632756,1.0861541e-11,1.0873951e-11,1.7841112e-11,5.0000356e-08,5.0000075e-08,5.0000036e-08,0.0,0.0,0.0,0.0,0.0,0.0,0.0,0.0,663,0.31251952,0.23733428,0.011802096,0.09290213,0.022113653,0.031012192,0.0,0.0,0.0,-0.006743,0,0,0,831,24,0,0,0
755026477,0.9991774,-0.0046385345,-0.03317737,0.022855897,0.061667863,0.12582386,-1.7304022,5.1016145,2.6900306,-4.700973,-2.0379182e-05,1.48425e-05,2.9174557e-06,6.9417496e-05,0.00039699546,-0.00016093487,0.23695713,0.04332465,0.38152212,-0.00228556,-0.0066069425,0.007923385,0.0,0.0,6.191443e-08,0.00037139913,0.008068951,9.2780574e-08,5.829903e-06,5.7878483e-06,3.4575365e-05,0.012083508,0.012087384,0.010802023,0.04903734,0.049038984,0.0561114,1.0850375e-11,1.0863274e-11,1.7838286e-11,5.0000367e-08,5.000001e-08,5e-08,0.0,0.0,0.0,0.0,0.0,0.0,0.0,0.0,663,0.31317142,0.23687845,0.006143552,0.08064995,0.022317408,0.034084942,0.0,0.0,0.0,-0.006722,0,0,0,831,24,0,0,0
755227252,0.9992522,-0.010074601,-0.028689902,0.023888066,0.1039885,0.13427877,-1.6385736,5.1113276,2.7102137,-5.044715,-2.0344463e-05,1.48184845e-05,2.9374487e-06,6.8901514e-05,0.00039689735,-0.00015251672,0.23695713,0.04332465,0.38152212,-0.00228556,-0.0066069425,0.007923385,0.0,0.0,6.966339e-08,0.00037493222,0.007877622,9.341029e-08,5.809309e-06,5.7840384e-06,3.4595272e-05,0.011988853,0.011993818,0.010859768,0.049215637,0.049217563,0.05662747,1.0839125e-11,1.08525775e-11,1.7833653e-11,5.000034e-08,5e-08,5e-08,0.0,0.0,0.0,0.0,0.0,0.0,0.0,0.0,663,0.31374064,0.23796527,1.4016346e-05,0.09971374,0.021501252,0.0068716514,0.0,0.0,0.0,-0.006745,0,0,0,831,24,0,0,0
755428054,0.9992886,-0.012734924,-0.024357375,0.025822777,0.11774239,0.13604844,-1.5717669,5.1209116,2.7356682,-5.3772593,-2.0338886e-05,1.4759867e-05,2.945222e-06,6.791612e-05,0.00039732974,-0.00014243099,0.23695713,0.04332465,0.38152212,-0.00228556,-0.0066069425,0.007923385,0.0,0.0,5.7256827e-08,0.00036330192,0.0075475457,9.618176e-08,5.7942093e-06,5.7823727e-06,3.461325e-05,0.011924762,0.011930103,0.010914804,0.049408138,0.04941038,0.05715657,1.0831392e-11,1.0845415e-11,1.7831077e-11,5.0000345e-08,5.0000065e-08,5.0000065e-08,0.0,0.0,0.0,0.0,0.0,0.0,0.0,0.0,663,0.31435412,0.23907441,0.0028647406,0.1000698,0.022213716,0.015566245,0.0,0.0,0.0,-0.006742,0,0,0,831,24,0,0,0
755636060,0.9992458,-0.0146460105,-0.023269258,0.027420016,0.11600585,0.10503099,-1.5363276,5.1305785,2.750752,-5.722093,-2.0277903e-05,1.4688255e-05,2.9590121e-06,6.671829e-05,0.0003972325,-0.00012723153,0.23695713,0.04332465,0.38152212,-0.00228556,-0.0066069425,0.007923385,0.0,0.0,4.8528772e-08,0.00035791518,0.0076698726,9.9581065e-08,5.7949837e-06,5.789021e-06,3.4645993e-05,0.01194105,0.01194645,0.010910137,0.049888395,0.04989107,0.05713457,1.0829109e-11,1.0843615e-11,1.7832773e-11,5.00004e-08,5e-08,5e-08,0.0,0.0,0.0,0.0,0.0,0.0,0.0,0.0,663,0.31587887,0.23902838,0.012076498,0.117613085,0.025166059,0.06426309,0.0,0.0,0.0,-0.006765,0,0,0,831,24,0,0,0
755840846,0.9992309,-0.015428736,-0.021541733,0.028905833,0.10462087,0.078339286,-1.4910625,5.131446,2.7661288,-6.055542,-2.0268517e-05,1.4576246e-05,2.96608e-06,6.509558e-05,0.0003977684,-0.000113815186,0.23695713,0.04332465,0.38152212,-0.00228556,-0.0066069425,0.007923385,0.0,0.0,4.384744e-08,0.0003507936,0.007832657,1.0253851e-07,5.7961656e-06,5.7955194e-06,3.462629e-05,0.011952241,0.01195704,0.0108969305,0.05033515,0.050338313,0.057042193,1.0825838e-11,1.0840711e-11,1.7821019e-11,5.000042e-08,5e-08,5e-08,0.0,0.0,0.0,0.0,0.0,0.0,0.0,0.0,663,0.3172908,0.23883508,0.0045405054,0.11566529,0.027482519,0.022160644,0.0,0.0,0.0,-0.006752,0,0,0,831,24,0,0,0
756041638,0.99922067,-0.013417026,-0.022202238,0.029752394,0.08350537,0.039303232,-1.4771383,5.133925,2.7731774,-6.357628,-2.024819e-05,1.450882e-05,2.9745443e-06,6.404508e-05,0.00039810437,-0.00010244944,0.23695713,0.04332465,0.38152212,-0.00228556,-0.0066069425,0.007923385,0.0,0.0,4.9690794e-08,0.00034365634,0.0075584324,1.0449288e-07,5.7942148e-06,5.790707e-06,3.469215e-05,0.011915318,0.011918598,0.011016938,0.05036176,0.05036528,0.058124218,1.08162455e-11,1.08313246e-11,1.7825054e-11,5.0000413e-08,5.0000036e-08,5.0000036e-08,0.0,0.0,0.0,0.0,0.0,0.0,0.0,0.0,663,0.31737524,0.24108964,0.0012667858,0.12602842,0.030150788,0.009958183,0.0,0.0,0.0,-0.00676,0,0,0,831,24,0,0,0
756241676,0.9991728,-0.010724348,-0.025850035,0.029503336,0.086448714,0.018184643,-1.394543,5.139167,2.7685962,-6.665267,-2.0193189e-05,1.4471162e-05,2.9800788e-06,6.331283e-05,0.0003982702,-8.618059e-05,0.23695713,0.04332465,0.38152212,-0.00228556,-0.0066069425,0.007923385,0.0,0.0,4.1899877e-08,0.0003448805,0.007427382,1.0471504e-07,5.801736e-06,5.7892066e-06,3.470559e-05,0.011871957,0.011874425,0.01095718,0.05053759,0.050541356,0.05769367,1.081305e-11,1.0828167e-11,1.7822877e-11,5.0000416e-08,5.0000036e-08,5.0000036e-08,0.0,0.0,0.0,0.0,0.0,0.0,0.0,0.0,663,0.31792915,0.24019507,0.0044874735,0.15461642,0.026945444,0.021359816,0.0,0.0,0.0,-0.006723,0,0,0,831,24,0,0,0
756450449,0.99921095,-0.009472995,-0.02502073,0.029354341,0.08777526,0.008894309,-1.3601348,5.1463666,2.7579646,-6.972728,-2.012272e-05,1.4432569e-05,2.9934022e-06,6.2604886e-05,0.00039819573,-7.150959e-05,0.23695713,0.04332465,0.38152212,-0.00228556,-0.0066069425,0.007923385,0.0,0.0,3.138172e-08,0.00034955287,0.0074751,1.0400454e-07,5.810459e-06,5.7990383e-06,3.468883e-05,0.011913948,0.011915801,0.010855563,0.050976694,0.050980672,0.056780882,1.0812736e-11,1.082782e-11,1.7811183e-11,5.0000427e-08,5e-08,5e-08,0.0,0.0,0.0,0.0,0.0,0.0,0.0,0.0,663,0.31930763,0.23828739,0.011833913,0.11349708,0.02859373,0.01566047,0.0,0.0,0.0,-0.006748,0,0,0,831,24,0,0,0
756651260,0.9992293,-0.008732171,-0.024601173,0.029313928,0.09537328,0.0032960803,-1.3328588,5.1479974,2.7577634,-7.2677555,-2.0124833e-05,1.4362083e-05,3.0081517e-06,6.161087e-05,0.00039898453,-5.4105716e-05,0.23695713,0.04332465,0.38152212,-0.00228556,-0.0066069425,0.007923385,0.0,0.0,2.8997041e-08,0.00036357637,0.007254068,1.0383417e-07,5.814363e-06,5.803737e-06,3.4758054e-05,0.011915898,0.011917403,0.010906883,0.05114862,0.051152643,0.05726147,1.0810655e-11,1.0825645e-11,1.7820924e-11,5.0000434e-08,5.0000036e-08,5.0000036e-08,0.0,0.0,0.0,0.0,0.0,0.0,0.0,0.0,663,0.31984568,0.2392937,0.00928688,0.14284024,0.030596787,0.014757576,0.0,0.0,0.0,-0.006737,0,0,0,831,24,0,0,0
756851237,0.99926287,-0.007867266,-0.023977606,0.028930647,0.10634344,-0.007990826,-1.3141503,5.162759,2.7420342,-7.5617924,-2.0034911e-05,1.4356799e-05,3.0321817e-06,6.118722e-05,0.00039900636,-3.4514775e-05,0.23695713,0.04332465,0.38152212,-0.00228556,-0.0066069425,0.007923385,0.0,0.0,3.3270513e-08,0.00036685463,0.0073718545,1.02777264e-07,5.8190108e-06,5.809455e-06,3.477437e-05,0.011927825,0.0119289635,0.010950704,0.05132528,0.051329266,0.057702895,1.08089735e-11,1.08238245e-11,1.7818948e-11,5.0000445e-08,5.000007e-08,5.000007e-08,0.0,0.0,0.0,0.0,0.0,0.0,0.0,0.0,663,0.3203975,0.24021427,0.0067780106,0.1513899,0.027868453,0.00979984,0.0,0.0,0.0,-0.00676,0,0,0,831,24,0,0,0
757052038,0.99927974,-0.0063464167,-0.024486274,0.028289713,0.098110996,-0.025071083,-1.3228605,5.164129,2.7307673,-7.8688846,-2.0001902e-05,1.4268469e-05,3.0417057e-06,6.0081264e-05,0.00039966474,-1.1751134e-05,0.23695713,0.04332465,0.38152212,-0.00228556,-0.0066069425,0.007923385,0.0,0.0,2.880489e-08,0.00034691035,0.0073164455,1.0142656e-07,5.826869e-06,5.8156256e-06,3.478852e-05,0.011963492,0.011963648,0.010909302,0.05152925,0.051533114,0.057327967,1.0806486e-11,1.0821114e-11,1.7815133e-11,5.0000445e-08,5.000007e-08,5.000007e-08,0.0,0.0,0.0,0.0,0.0,0.0,0.0,0.0,663,0.32103327,0.23943259,0.002575482,0.12529476,0.025521073,0.02182579,0.0,0.0,0.0,-0.006759,0,0,0,831,24,0,0,0
757260861,0.99932945,-0.004771978,-0.022619717,0.028394572,0.09955759,-0.016398512,-1.2885805,5.180712,2.7187142,-8.195133,-1.9963614e-05,1.4264855e-05,3.0569045e-06,5.9673403e-05,0.00040045346,1.5457652e-05,0.23695713,0.04332465,0.38152212,-0.00228556,-0.0066069425,0.007923385,0.0,0.0,2.6020368e-08,0.00034179603,0.007022989,1.0103429e-07,5.8398473e-06,5.8312917e-06,3.4770692e-05,0.012034418,0.012034563,0.0108277565,0.052076675,0.0520804,0.056532484,1.0810093e-11,1.0824447e-11,1.7805634e-11,5.000048e-08,5e-08,5e-08,0.0,0.0,0.0,0.0,0.0,0.0,0.0,0.0,663,0.32273376,0.23776561,0.0077859433,0.11228593,0.02263521,0.037131228,0.0,0.0,0.0,-0.006736,0,0,0,831,24,0,0,0
757460868,0.9992944,-0.00540094,-0.022838885,0.029327739,0.09886193,-0.021376422,-1.2776667,5.1962657,2.7004437,-8.491766,-1.9885838e-05,1.425354e-05,3.075399e-06,5.9239796e-05,0.00040075454,3.8026898e-05,0.23695713,0.04332465,0.38152212,-0.00228556,-0.0066069425,0.007923385,0.0,0.0,2.836034e-08,0.00033638426,0.007200525,1.03295605e-07,5.8487694e-06,5.840939e-06,3.4779914e-05,0.012069721,0.012069541,0.0108879125,0.052321505,0.052324988,0.057050645,1.0809633e-11,1.0823681e-11,1.7803859e-11,5.0000505e-08,5e-08,5e-08,0.0,0.0,0.0,0.0,0.0,0.0,0.0,0.0,663,0.3234911,0.23885277,0.012361437,0.12931457,0.020778906,0.028015178,0.0,0.0,0.0,-0.006731,0,0,0,831,24,0,0,0
757665707,0.9992632,-0.0032531584,-0.02266692,0.030799817,0.09588247,-0.040463082,-1.240512,5.205391,2.683031,-8.776057,-1.983439e-05,1.4209514e-05,3.0824233e-06,5.8636764e-05,0.00040093652,5.2844647e-05,0.23695713,0.04332465,0.38152212,-0.00228556,-0.0066069425,0.007923385,0.0,0.0,3.3555054e-08,0.00034224393,0.0067772246,1.06711624e-07,5.8621613e-06,5.8536184e-06,3.4808763e-05,0.012132414,0.012131414,0.010977354,0.052801374,0.05280456,0.05780374,1.08101835e-11,1.082387e-11,1.7804348e-11,5.0000487e-08,5.000007e-08,5.0000068e-08,0.0,0.0,0.0,0.0,0.0,0.0,0.0,0.0,663,0.32497066,0.24042408,0.0076516895,0.1166329,0.022090973,0.018421575,0.0,0.0,0.0,-0.006691,0,0,0,831,24,0,0,0
757866463,0.9992404,-0.00020978793,-0.022644741,0.03171585,0.08647335,-0.042807847,-1.2252452,5.21534,2.6668026,-9.058233,-1.9804018e-05,1.4178617e-05,3.096339e-06,5.8104826e-05,0.00040154986,7.423155e-05,0.23695713,0.04332465,0.38152212,-0.00228556,-0.0066069425,0.007923385,0.0,0.0,3.5360323e-08,0.00037929026,0.0076488587,1.08993326e-07,5.868924e-06,5.8593396e-06,3.4815785e-05,0.012139335,0.012137976,0.011012944,0.052889057,0.052891873,0.058076635,1.0804567e-11,1.0817828e-11,1.779701e-11,5.0000498e-08,5.0000068e-08,5.0000065e-08,0.0,0.0,0.0,0.0,0.0,0.0,0.0,0.0,663,0.3252398,0.24099094,0.013453144,0.10133813,0.017759383,0.06129508,0.0,0.0,0.0,-0.006734,0,0,0,831,24,0,0,0
758074488,0.9992379,0.0027474936,-0.021888345,0.0322037,0.07210121,-0.042370494,-1.2333684,5.223634,2.6410103,-9.365804,-1.9720706e-05,1.4138247e-05,3.1136067e-06,5.749695e-05,0.00040196299,9.9566336e-05,0.23695713,0.04332465,0.38152212,-0.00228556,-0.0066069425,0.007923385,0.0,0.0,3.6913793e-08,0.00038082854,0.008009661,1.10207424e-07,5.885089e-06,5.876185e-06,3.484633e-05,0.012247667,0.012246307,0.010913892,0.05344199,0.05344444,0.057175968,1.0808401e-11,1.08211886e-11,1.7799243e-11,5.0000516e-08,5e-08,5e-08,0.0,0.0,0.0,0.0,0.0,0.0,0.0,0.0,663,0.3269349,0.23911497,0.0011163385,0.09565668,0.017282546,0.015830496,0.0,0.0,0.0,-0.00671,0,0,0,831,24,0,0,0
758275277,0.9991819,0.005226407,-0.022961741,0.032877196,0.05883781,-0.031119948,-1.2143401,5.2203045,2.631768,-9.646646,-1.9731086e-05,1.4054548e-05,3.1240536e-06,5.6628418e-05,0.00040277193,0.000119819844,0.23695713,0.04332465,0.38152212,-0.00228556,-0.0066069425,0.007923385,0.0,0.0,3.9387302e-08,0.00037839168,0.007930918,1.1242347e-07,5.8948085e-06,5.884193e-06,3.485221e-05,0.012275301,0.01227411,0.010874442,0.05363905,0.05364114,0.0568092,1.0805738e-11,1.0818014e-11,1.7795468e-11,5.0000484e-08,5e-08,5e-08,0.0,0.0,0.0,0.0,0.0,0.0,0.0,0.0,663,0.32753655,0.23834682,0.006630566,0.110947594,0.01920604,0.020810105,0.0,0.0,0.0,-0.006721,0,0,0,831,24,0,0,0
758475258,0.9991073,0.0056392555,-0.024442112,0.033991627,0.053326968,-0.005754482,-1.2018301,5.2285643,2.6216753,-9.935336,-1.9708164e-05,1.4053171e-05,3.1378497e-06,5.630348e-05,0.00040350438,0.00014238212,0.23695713,0.04332465,0.38152212,-0.00228556,-0.0066069425,0.007923385,0.0,0.0,3.6124533e-08,0.00035823934,0.007663434,1.1581697e-07,5.903842e-06,5.8911387e-06,3.4856108e-05,0.012299016,0.012298438,0.01084399,0.05381263,0.053814422,0.056519378,1.0803637e-11,1.0815384e-11,1.779359e-11,5.000044e-08,5e-08,5e-08,0.0,0.0,0.0,0.0,0.0,0.0,0.0,0.0,663,0.3280656,0.23773804,0.0045457636,0.087768815,0.018157683,0.037772726,0.0,0.0,0.0,-0.006742,0,0,0,831,24,0,0,0
758676086,0.999064,0.0055785445,-0.023867186,0.035640933,0.047206234,0.0026734977,-1.2177705,5.2265296,2.615323,-10.211548,-1.9694939e-05,1.3995278e-05,3.1449604e-06,5.569512e-05,0.00040402287,0.00015891805,0.23695713,0.04332465,0.38152212,-0.00228556,-0.0066069425,0.007923385,0.0,0.0,3.337861e-08,0.00034042355,0.0075588925,1.2008245e-07,5.911887e-06,5.9004346e-06,3.4861e-05,0.012357244,0.012356768,0.010907592,0.054035243,0.054036774,0.057051186,1.0802569e-11,1.0813799e-11,1.7791803e-11,5.0000512e-08,5.0000036e-08,5.0000036e-08,0.0,0.0,0.0,0.0,0.0,0.0,0.0,0.0,663,0.32874307,0.2388539,0.00018417284,0.06842979,0.017070297,0.006944269,0.0,0.0,0.0,-0.006738,0,0,0,831,24,0,0,0
758884866,0.99902093,0.003956012,-0.024575597,0.036574624,0.059862275,0.0153795695,-1.3854364,5.23921,2.60917,-10.512726,-1.9659465e-05,1.4020484e-05,3.157455e-06,5.5650966e-05,0.0004044681,0.00017590221,0.23695713,0.04332465,0.38152212,-0.00228556,-0.0066069425,0.007923385,0.0,0.0,5.0169426e-08,0.00044213256,0.010025102,1.2279365e-07,5.9271006e-06,5.9149343e-06,3.4884844e-05,0.012560577,0.012560285,0.010913848,0.054537132,0.05453845,0.05702756,1.0803031e-11,1.0813743e-11,1.7792363e-11,5.000052e-08,5.000004e-08,5.000004e-08,0.0,0.0,0.0,0.0,0.0,0.0,0.0,0.0,663,0.33026594,0.23880444,0.009907193,0.06441573,0.013257647,0.06332563,0.0,0.0,0.0,-0.006732,0,0,0,831,24,0,0,0
759089646,0.9990918,0.00327438,-0.02155282,0.036611676,0.0449952,0.014428911,-1.9314504,5.247037,2.60034,-10.882578,-1.960437e-05,1.40096045e-05,3.175809e-06,5.5414795e-05,0.00040465183,0.00019201614,0.23695713,0.04332465,0.38152212,-0.00228556,-0.0066069425,0.007923385,0.0,0.0,5.2793776e-08,0.000521715,0.011570399,1.2192267e-07,5.9332588e-06,5.926352e-06,3.4862667e-05,0.013015993,0.01301568,0.011002608,0.055086743,0.055087887,0.057796586,1.0802891e-11,1.0813096e-11,1.7783084e-11,5.000057e-08,5.0000033e-08,5.000003e-08,0.0,0.0,0.0,0.0,0.0,0.0,0.0,0.0,663,0.33192563,0.24040921,0.005157916,0.10134469,0.012972566,0.009648614,0.0,0.0,0.0,-0.006751,0,0,0,831,24,0,0,0
759289642,0.9991112,0.003103133,-0.022732968,0.0353639,0.015016546,0.009983319,-2.4520533,5.2483835,2.5921006,-11.342084,-1.9559517e-05,1.3989447e-05,3.1958893e-06,5.51059e-05,0.00040476365,0.00020666425,0.23695713,0.04332465,0.38152212,-0.00228556,-0.0066069425,0.007923385,0.0,0.0,7.553181e-08,0.0005497978,0.0115017155,1.1880759e-07,5.9252916e-06,5.9167087e-06,3.4869314e-05,0.013347035,0.013346852,0.011121062,0.05519199,0.05519294,0.05885212,1.0788764e-11,1.07983926e-11,1.777598e-11,5.0000533e-08,5.0000068e-08,5.0000065e-08,0.0,0.0,0.0,0.0,0.0,0.0,0.0,0.0,663,0.33224228,0.24259456,0.008214853,0.085358046,0.01558332,0.013117964,0.0,0.0,0.0,-0.0067559998,0,0,0,831,24,0,0,0
759490476,0.9991198,0.006071268,-0.025464986,0.03277678,0.009033694,0.010076061,-2.726717,5.246115,2.5889542,-11.869641,-1.9548306e-05,1.3966048e-05,3.2149624e-06,5.47876e-05,0.00040487965,0.00021295724,0.23695713,0.04332465,0.38152212,-0.00228556,-0.0066069425,0.007923385,0.0,0.0,6.8688124e-08,0.0005040989,0.01046026,1.1310506e-07,5.913076e-06,5.899618e-06,3.4933517e-05,0.013508462,0.013508153,0.01104629,0.055416036,0.05541682,0.058287654,1.0774142e-11,1.0783104e-11,1.7784042e-11,5.0000512e-08,5e-08,5e-08,0.0,0.0,0.0,0.0,0.0,0.0,0.0,0.0,663,0.3329157,0.24142836,0.008557592,0.072566524,0.01331361,0.0018922646,0.0,0.0,0.0,-0.006721,0,0,0,831,24,0,0,0
759698449,0.9991304,0.009332663,-0.025398703,0.03172137,0.009004743,0.029027797,-2.7765117,5.239095,2.5963683,-12.456041,-1.9595022e-05,1.3916693e-05,3.2239457e-06,5.403982e-05,0.0004057571,0.00022137015,0.23695713,0.04332465,0.38152212,-0.00228556,-0.0066069425,0.007923385,0.0,0.0,5.4415224e-08,0.000441066,0.009712335,1.1075783e-07,5.904242e-06,5.8912724e-06,3.4962337e-05,0.013573653,0.013573396,0.011112772,0.056031745,0.05603241,0.058928266,1.0765841e-11,1.0774139e-11,1.7786321e-11,5.000058e-08,5.000007e-08,5.000007e-08,0.0,0.0,0.0,0.0,0.0,0.0,0.0,0.0,663,0.33475983,0.24275145,0.007173098,0.080400996,0.012370837,0.006183079,0.0,0.0,0.0,-0.006749,0,0,0,831,24,0,0,0
759899271,0.9990644,0.0075343205,-0.027691461,0.032354414,-0.011373945,0.03229246,-2.8280537,5.232219,2.5986266,-13.035284,-1.9582449e-05,1.388256e-05,3.2347289e-06,5.354178e-05,0.0004060059,0.00023265743,0.23695713,0.04332465,0.38152212,-0.00228556,-0.0066069425,0.007923385,0.0,0.0,4.915505e-08,0.00042492044,0.009248765,1.1287994e-07,5.8919486e-06,5.874327e-06,3.496328e-05,0.013568651,0.01356861,0.011135851,0.05627877,0.056279346,0.059233114,1.0753809e-11,1.0761442e-11,1.7784581e-11,5.0000597e-08,5.000007e-08,5.000007e-08,0.0,0.0,0.0,0.0,0.0,0.0,0.0,0.0,663,0.3354968,0.24337853,0.00017855073,0.0900454,0.009417719,0.0023640057,0.0,0.0,0.0,-0.006726,0,0,0,831,24,0,0,0
760100050,0.9989698,0.0060849655,-0.029722603,0.033749197,-0.015205352,0.04684334,-2.8378735,5.2278233,2.6042614,-13.62484,-1.9581033e-05,1.3876643e-05,3.241907e-06,5.336522e-05,0.00040654393,0.00024713282,0.23695713,0.04332465,0.38152212,-0.00228556,-0.0066069425,0.007923385,0.0,0.0,3.7763566e-08,0.00035520043,0.008038694,1.1701264e-07,5.878651e-06,5.856852e-06,3.4961315e-05,0.013518495,0.013518467,0.01106365,0.05646875,0.05646926,0.058647566,1.0740399e-11,1.0747346e-11,1.7780987e-11,5.0000562e-08,5.000007e-08,5.000007e-08,0.0,0.0,0.0,0.0,0.0,0.0,0.0,0.0,663,0.33606252,0.2421726,0.008265714,0.10506274,0.010084446,0.006076127,0.0,0.0,0.0,-0.006748,0,0,0,831,24,0,0,0
760300029,0.99890864,0.0058640917,-0.03135214,0.034122586,0.0041594766,0.046237946,-2.8180425,5.2481484,2.603762,-14.204712,-1.9525898e-05,1.4004761e-05,3.2446928e-06,5.4941807e-05,0.00040630475,0.00025362638,0.23695713,0.04332465,0.38152212,-0.00228556,-0.0066069425,0.007923385,0.0,0.0,4.6287415e-08,0.0003976429,0.008263726,1.18371815e-07,5.86624e-06,5.8413953e-06,3.490903e-05,0.013457428,0.013456986,0.01091486,0.056671903,0.05667232,0.057336647,1.0729903e-11,1.0736198e-11,1.7767711e-11,5.0000597e-08,5e-08,5e-08,0.0,0.0,0.0,0.0,0.0,0.0,0.0,0.0,663,0.33666635,0.23945072,0.0031248913,0.093742065,0.009165578,0.023375338,0.0,0.0,0.0,-0.006768,0,0,0,831,24,0,0,0
760508855,0.99896955,0.003967543,-0.029320706,0.034417897,0.01558207,0.047411993,-2.7917519,5.2548795,2.610679,-14.787152,-1.9516418e-05,1.4022386e-05,3.2534456e-06,5.515348e-05,0.00040628453,0.00025534283,0.23695713,0.04332465,0.38152212,-0.00228556,-0.0066069425,0.007923385,0.0,0.0,3.8425213e-08,0.0003545981,0.0077185854,1.1820056e-07,5.856775e-06,5.8364785e-06,3.4937082e-05,0.013454923,0.013453984,0.010915514,0.05718673,0.057187036,0.057257846,1.0724732e-11,1.073041e-11,1.7770344e-11,5.0000647e-08,5.0000036e-08,5.0000036e-08,0.0,0.0,0.0,0.0,0.0,0.0,0.0,0.0,663,0.3381919,0.23928612,0.0109954225,0.04487278,0.009028449,0.00021399053,0.0,0.0,0.0,-0.006743,0,0,0,831,24,0,0,0
760709647,0.9990675,0.005112835,-0.026084416,0.03402606,0.023404531,0.043309316,-2.799163,5.2692933,2.6102295,-15.346748,-1.9465242e-05,1.406762e-05,3.257185e-06,5.572741e-05,0.0004058054,0.00025612026,0.23695713,0.04332465,0.38152212,-0.00228556,-0.0066069425,0.007923385,0.0,0.0,3.1426524e-08,0.0003431888,0.007447627,1.1602225e-07,5.838748e-06,5.8247347e-06,3.494855e-05,0.013409208,0.01340797,0.01088418,0.057314023,0.057314187,0.05689661,1.0714637e-11,1.0719712e-11,1.7767128e-11,5.0000644e-08,5.0000036e-08,5.0000036e-08,0.0,0.0,0.0,0.0,0.0,0.0,0.0,0.0,663,0.33856788,0.2385301,0.0021018628,0.03254683,0.008207973,0.0020134964,0.0,0.0,0.0,-0.006752,0,0,0,831,24,0,0,0
760914449,0.99899465,0.0046534273,-0.028408607,0.03436623,-0.013567133,0.047274247,-2.8461323,5.255786,2.6322086,-15.9381275,-1.9555153e-05,1.3981909e-05,3.2543612e-06,5.463567e-05,0.00040678922,0.00025970774,0.23695713,0.04332465,0.38152212,-0.00228556,-0.0066069425,0.007923385,0.0,0.0,2.836564e-08,0.0003504215,0.008179024,1.1760801e-07,5.8392325e-06,5.820588e-06,3.496881e-05,0.013457817,0.013456627,0.010902714,0.05780641,0.057806447,0.056923702,1.0711448e-11,1.0715918e-11,1.7769985e-11,5.0000708e-08,5.000007e-08,5.000007e-08,0.0,0.0,0.0,0.0,0.0,0.0,0.0,0.0,663,0.3400189,0.23858689,0.0010017051,0.06912235,0.0054824343,0.013198597,0.0,0.0,0.0,-0.006748,0,0,0,831,24,0,0,0
761114476,0.99894637,0.005307048,-0.029907897,0.03440346,-0.019945791,0.033169895,-2.8672187,5.254646,2.6319506,-16.507204,-1.9512963e-05,1.3991301e-05,3.2441103e-06,5.4786455e-05,0.00040653322,0.00026526104,0.23695713,0.04332465,0.38152212,-0.00228556,-0.0066069425,0.007923385,0.0,0.0,2.353759e-08,0.00032675726,0.008125432,1.1813945e-07,5.8286523e-06,5.806827e-06,3.496797e-05,0.013393161,0.013391546,0.01087762,0.057778593,0.057778522,0.056520127,1.0699364e-11,1.0703179e-11,1.776321e-11,5.0000658e-08,5.0000036e-08,5.0000036e-08,0.0,0.0,0.0,0.0,0.0,0.0,0.0,0.0,663,0.33993694,0.23773962,0.0028032265,0.05330694,0.0062766033,0.009722892,0.0,0.0,0.0,-0.006722,0,0,0,831,24,0,0,0
761315254,0.9989184,0.0053718206,-0.03076441,0.034450028,-0.019464364,0.031497344,-2.8855412,5.2545667,2.6307344,-17.08808,-1.9475918e-05,1.4011389e-05,3.2359155e-06,5.504434e-05,0.00040629713,0.00026890618,0.23695713,0.04332465,0.38152212,-0.00228556,-0.0066069425,0.007923385,0.0,0.0,2.2389788e-08,0.00032406667,0.008017278,1.184347e-07,5.821355e-06,5.7976613e-06,3.49698e-05,0.013361015,0.013359054,0.010859197,0.057894833,0.057894614,0.05626097,1.0692127e-11,1.0695272e-11,1.775997e-11,5.000072e-08,5e-08,5e-08,0.0,0.0,0.0,0.0,0.0,0.0,0.0,0.0,663,0.34027848,0.23719394,0.0005066933,0.023247086,0.0061230375,0.025798155,0.0,0.0,0.0,-0.006744,0,0,0,831,24,0,0,0
761524069,0.9988615,0.006002902,-0.032586135,0.03432129,-0.016876178,0.024998033,-2.8978152,5.2591662,2.6283548,-17.69354,-1.9428915e-05,1.4058178e-05,3.2281391e-06,5.5595614e-05,0.0004058955,0.00026932624,0.23695713,0.04332465,0.38152212,-0.00228556,-0.0066069425,0.007923385,0.0,0.0,2.2912454e-08,0.00031441078,0.007810994,1.1872558e-07,5.8233945e-06,5.7956463e-06,3.4990535e-05,0.0133854225,0.013382958,0.010968036,0.058352035,0.05835162,0.057124957,1.0690705e-11,1.0693182e-11,1.7762755e-11,5.000075e-08,5.0000036e-08,5.0000036e-08,0.0,0.0,0.0,0.0,0.0,0.0,0.0,0.0,663,0.34161916,0.23900828,0.0019806633,0.035592217,0.0058324793,0.0049461056,0.0,0.0,0.0,-0.006729,0,0,0,831,24,0,0,0
761724040,0.99886596,0.005125656,-0.032325853,0.034576602,-0.0015297015,0.032229304,-2.889375,5.2684684,2.630145,-18.26903,-1.9409808e-05,1.4117165e-05,3.2276935e-06,5.6234618e-05,0.0004057194,0.0002675852,0.23695713,0.04332465,0.38152212,-0.00228556,-0.0066069425,0.007923385,0.0,0.0,2.4057385e-08,0.00029946325,0.0074877148,1.1908969e-07,5.815667e-06,5.788651e-06,3.4994056e-05,0.013340554,0.0133377,0.010942597,0.05846056,0.05845997,0.056869116,1.0686095e-11,1.0687909e-11,1.7761664e-11,5.0000754e-08,5.000004e-08,5.000004e-08,0.0,0.0,0.0,0.0,0.0,0.0,0.0,0.0,663,0.34193644,0.23847246,0.00092803926,0.04004848,0.007614336,0.0015391033,0.0,0.0,0.0,-0.006757,0,0,0,831,24,0,0,0
761924885,0.9989233,0.0055469996,-0.030530337,0.034489267,-0.0029836562,0.033491455,-2.8826134,5.2687755,2.632907,-18.838753,-1.9403264e-05,1.4107608e-05,3.2286212e-06,5.6162953e-05,0.00040553487,0.00026480554,0.23695713,0.04332465,0.38152212,-0.00228556,-0.0066069425,0.007923385,0.0,0.0,3.3287964e-08,0.00034753027,0.007410563,1.18104275e-07,5.807253e-06,5.784085e-06,3.500031e-05,0.01330305,0.013299861,0.010921406,0.058548506,0.058547676,0.056617267,1.0681234e-11,1.0682425e-11,1.775869e-11,5.0000807e-08,5.000004e-08,5.000004e-08,0.0,0.0,0.0,0.0,0.0,0.0,0.0,0.0,663,0.3421932,0.23794383,0.0010441868,0.012085462,0.008069138,0.0027008555,0.0,0.0,0.0,-0.006746,0,0,0,831,24,0,0,0
762132841,0.9989718,0.0072594592,-0.03050593,0.03274299,0.020114796,0.03740285,-2.9091415,5.2808485,2.6368423,-19.442467,-1.9394904e-05,1.4154286e-05,3.2244927e-06,5.6627767e-05,0.0004055667,0.00026655965,0.23695713,0.04332465,0.38152212,-0.00228556,-0.0066069425,0.007923385,0.0,0.0,3.7153136e-08,0.00033933946,0.007014716,1.13587554e-07,5.8094756e-06,5.786364e-06,3.5027973e-05,0.01334437,0.013340743,0.010944019,0.058963165,0.058962066,0.056721102,1.06820455e-11,1.0682615e-11,1.7761724e-11,5.000081e-08,5.000007e-08,5.000007e-08,0.0,0.0,0.0,0.0,0.0,0.0,0.0,0.0,663,0.34340242,0.23816192,0.0036302141,0.028574048,0.0095783705,0.0030668294,0.0,0.0,0.0,-0.006757,0,0,0,831,24,0,0,0
762337631,0.9990597,0.0051570907,-0.028121768,0.032594264,0.037715066,0.059614033,-2.9556825,5.2982645,2.6425302,-20.041557,-1.9377734e-05,1.4204282e-05,3.2217301e-06,5.7124133e-05,0.00040547783,0.0002667653,0.23695713,0.04332465,0.38152212,-0.00228556,-0.0066069425,0.007923385,0.0,0.0,5.0495274e-08,0.0004026326,0.007891889,1.11980306e-07,5.8071605e-06,5.7890343e-06,3.4997538e-05,0.013380391,0.0133769335,0.010876133,0.059252705,0.05925135,0.055921208,1.0678808e-11,1.067882e-11,1.7747824e-11,5.000084e-08,5e-08,5e-08,0.0,0.0,0.0,0.0,0.0,0.0,0.0,0.0,663,0.34424418,0.23647666,0.009323108,0.031813394,0.009255502,0.021869471,0.0,0.0,0.0,-0.006766,0,0,0,831,24,0,0,0
762538427,0.99910945,0.0026039125,-0.025558122,0.033471268,0.049361564,0.06952651,-2.9359164,5.318706,2.6487513,-20.635025,-1.9344327e-05,1.4251497e-05,3.2134906e-06,5.7596473e-05,0.00040523658,0.00026651024,0.23695713,0.04332465,0.38152212,-0.00228556,-0.0066069425,0.007923385,0.0,0.0,4.3240505e-08,0.00035174395,0.0072403364,1.1305752e-07,5.79934e-06,5.7865336e-06,3.5001118e-05,0.013332044,0.013328667,0.010954377,0.059292257,0.059290696,0.056542985,1.0674596e-11,1.06741005e-11,1.7745104e-11,5.0000853e-08,5.000007e-08,5.0000065e-08,0.0,0.0,0.0,0.0,0.0,0.0,0.0,0.0,663,0.34435874,0.2377877,0.008759357,0.030250384,0.013528693,0.017132433,0.0,0.0,0.0,-0.00677,0,0,0,831,24,0,0,0
762738461,0.99913925,0.0012255657,-0.024053978,0.03377697,0.045100138,0.067024104,-2.8309276,5.333495,2.6506655,-21.213213,-1.929343e-05,1.4262816e-05,3.2036094e-06,5.7765435e-05,0.00040469685,0.00026286332,0.23695713,0.04332465,0.38152212,-0.00228556,-0.0066069425,0.007923385,0.0,0.0,4.2920092e-08,0.00038014102,0.007631938,1.1326781e-07,5.795547e-06,5.7856614e-06,3.5058936e-05,0.013241092,0.013237729,0.011026062,0.05936184,0.059360083,0.0571655,1.0673035e-11,1.0672047e-11,1.7755759e-11,5.000087e-08,5.0000065e-08,5.000003e-08,0.0,0.0,0.0,0.0,0.0,0.0,0.0,0.0,663,0.34456047,0.23909308,0.001702455,0.03705348,0.01398031,0.0012453261,0.0,0.0,0.0,-0.006736,0,0,0,831,24,0,0,0
762939234,0.99918664,-0.00014767528,-0.022549327,0.033430114,0.036935963,0.047900353,-2.639829,5.343512,2.6529598,-21.749079,-1.925869e-05,1.4257428e-05,3.1966358e-06,5.777904e-05,0.00040419746,0.0002560813,0.23695713,0.04332465,0.38152212,-0.00228556,-0.0066069425,0.007923385,0.0,0.0,3.5707888e-08,0.00033677218,0.007184796,1.1184969e-07,5.7935927e-06,5.7865377e-06,3.51169e-05,0.013097528,0.013093893,0.011077804,0.059380203,0.059378263,0.05766822,1.0670818e-11,1.066934e-11,1.7764519e-11,5.0000857e-08,5.0000075e-08,5.0000075e-08,0.0,0.0,0.0,0.0,0.0,0.0,0.0,0.0,663,0.34461352,0.24014208,0.001700746,0.040464956,0.013578482,0.02209662,0.0,0.0,0.0,-0.006763,0,0,0,831,24,0,0,0
763144057,0.99923915,0.0014532004,-0.021911353,0.03223171,0.033337325,0.023664752,-2.4586115,5.3729815,2.6292574,-22.260391,-1.9115194e-05,1.4350273e-05,3.1737593e-06,5.861588e-05,0.0004029757,0.00024435882,0.23695713,0.04332465,0.38152212,-0.00228556,-0.0066069425,0.007923385,0.0,0.0,3.1119463e-08,0.00034352407,0.00756677,1.0833876e-07,5.6344957e-06,5.6275558e-06,3.5087385e-05,0.011670795,0.011667605,0.010855061,0.05204503,0.052043658,0.056973174,1.0576154e-11,1.0573531e-11,1.7755466e-11,5.0000036e-08,5.0000036e-08,5.0000036e-08,0.0,0.0,0.0,0.0,0.0,0.0,0.0,0.0,663,0.32262778,0.23869054,0.007533594,0.041655682,0.01916847,0.023986647,0.0,0.0,0.0,-0.006742,0,0,0,831,24,0,0,0
763352077,0.9992557,0.0029490981,-0.021919101,0.031604126,0.018595668,0.030273998,-2.3080132,5.383242,2.6294935,-22.730906,-1.9108817e-05,1.4365404e-05,3.1571258e-06,5.8735768e-05,0.00040264463,0.00023512928,0.23695713,0.04332465,0.38152212,-0.00228556,-0.0066069425,0.007923385,0.0,0.0,2.7838071e-08,0.00034576413,0.0074874493,1.06712726e-07,5.6493463e-06,5.641828e-06,3.510706e-05,0.011638644,0.011635825,0.010845286,0.052348416,0.052346908,0.056813736,1.0578996e-11,1.0575842e-11,1.775313e-11,5.0000036e-08,5.0000036e-08,5.0000036e-08,0.0,0.0,0.0,0.0,0.0,0.0,0.0,0.0,663,0.32356656,0.23835632,0.0135870455,0.042821255,0.01905183,0.03184314,0.0,0.0,0.0,-0.006722,0,0,0,831,24,0,0,0
763552862,0.9992655,0.003997376,-0.02136131,0.03156297,0.0063912114,0.041338984,-2.1800108,5.386528,2.634425,-23.173752,-1.9124755e-05,1.4353453e-05,3.1524062e-06,5.8713293e-05,0.00040251334,0.0002301903,0.23695713,0.04332465,0.38152212,-0.00228556,-0.0066069425,0.007923385,0.0,0.0,2.5851921e-08,0.00034530403,0.0073129754,1.0642995e-07,5.6603544e-06,5.6532917e-06,3.5108107e-05,0.011594308,0.011591862,0.010894491,0.052462745,0.052461166,0.057297237,1.05818965e-11,1.0578218e-11,1.775038e-11,5.0000036e-08,5.0000036e-08,5.0000036e-08,0.0,0.0,0.0,0.0,0.0,0.0,0.0,0.0,663,0.3239196,0.23936841,0.011189411,0.039419975,0.019424075,0.019990653,0.0,0.0,0.0,-0.006737,0,0,0,831,24,0,0,0
763753646,0.99926436,0.003703729,-0.021750452,0.03137028,-0.019851997,0.05559635,-2.059065,5.384485,2.6386812,-23.59859,-1.9119541e-05,1.4328401e-05,3.1343766e-06,5.8682595e-05,0.00040237798,0.00022919603,0.23695713,0.04332465,0.38152212,-0.00228556,-0.0066069425,0.007923385,0.0,0.0,2.5092875e-08,0.00034897198,0.007380255,1.05886585e-07,5.6747376e-06,5.666783e-06,3.510856e-05,0.011563755,0.011562009,0.010932498,0.0525915,0.052589912,0.05774309,1.0587102e-11,1.0582878e-11,1.7749597e-11,5.0000036e-08,5.0000036e-08,5.0000036e-08,0.0,0.0,0.0,0.0,0.0,0.0,0.0,0.0,663,0.32431683,0.24029793,0.0048388382,0.030090718,0.018955989,0.015023566,0.0,0.0,0.0,-0.006751,0,0,0,831,24,0,0,0
763961640,0.99926454,0.0030775527,-0.02236839,0.030993087,-0.026844256,0.053602565,-1.9388951,5.38237,2.6424596,-24.01092,-1.909772e-05,1.4325943e-05,3.1260774e-06,5.8745492e-05,0.00040218295,0.00022719183,0.23695713,0.04332465,0.38152212,-0.00228556,-0.0066069425,0.007923385,0.0,0.0,2.482601e-08,0.00033623885,0.0071774046,1.0496002e-07,5.6973813e-06,5.6882473e-06,3.5073885e-05,0.011591181,0.011589506,0.010827034,0.052985437,0.052983854,0.056845587,1.05964916e-11,1.0591745e-11,1.774137e-11,5.000007e-08,5e-08,5e-08,0.0,0.0,0.0,0.0,0.0,0.0,0.0,0.0,663,0.32552925,0.23842312,0.001901879,0.010334721,0.017905802,0.016489046,0.0,0.0,0.0,-0.006757,0,0,0,831,24,0,0,0
764162444,0.999191,0.002929458,-0.02358869,0.03244212,-0.028210774,0.054393042,-1.8304904,5.3898697,2.6405852,-24.387676,-1.903928e-05,1.4387188e-05,3.1202057e-06,5.90198e-05,0.0004019676,0.00022575214,0.23695713,0.04332465,0.38152212,-0.00228556,-0.0066069425,0.007923385,0.0,0.0,3.4341305e-08,0.00035173536,0.007258178,1.08783674e-07,5.715798e-06,5.704499e-06,3.512377e-05,0.011585582,0.011584067,0.010870739,0.05311426,0.053112723,0.057301216,1.0602824e-11,1.0597524e-11,1.7752291e-11,5.0000107e-08,5.000007e-08,5.000007e-08,0.0,0.0,0.0,0.0,0.0,0.0,0.0,0.0,663,0.3259248,0.23937672,0.0037563299,0.04138768,0.018736424,0.006519919,0.0,0.0,0.0,-0.006755,0,0,0,831,24,0,0,0
764363262,0.9990573,0.0007774509,-0.026112221,0.03466981,-0.025412347,0.058014065,-1.7257593,5.393849,2.640576,-24.73135,-1.8995968e-05,1.4430448e-05,3.1037055e-06,5.919853e-05,0.0004016761,0.00021838665,0.23695713,0.04332465,0.38152212,-0.00228556,-0.0066069425,0.007923385,0.0,0.0,3.249634e-08,0.00031358856,0.006781623,1.14986626e-07,5.736014e-06,5.7206007e-06,3.5112986e-05,0.011580961,0.0115794,0.010824472,0.05319453,0.053193063,0.056921847,1.0607081e-11,1.06012595e-11,1.7749682e-11,5.0000107e-08,5.0000036e-08,5e-08,0.0,0.0,0.0,0.0,0.0,0.0,0.0,0.0,663,0.3261711,0.238583,0.00091882655,0.045657694,0.02077151,0.0058614695,0.0,0.0,0.0,-0.006736,0,0,0,831,24,0,0,0
764563243,0.9990145,0.0023665444,-0.024973398,0.03661695,-0.026712075,0.05858992,-1.5983835,5.3922734,2.6466045,-25.061506,-1.898959e-05,1.4436537e-05,3.1005388e-06,5.925076e-05,0.00040155358,0.00021503243,0.23695713,0.04332465,0.38152212,-0.00228556,-0.0066069425,0.007923385,0.0,0.0,2.7380029e-08,0.00029230365,0.0062645585,1.1988496e-07,5.7505245e-06,5.7365864e-06,3.5109962e-05,0.011562298,0.011560512,0.010952031,0.05326607,0.05326463,0.058157403,1.06123365e-11,1.0606011e-11,1.7749056e-11,5.000007e-08,5.000007e-08,5.000007e-08,0.0,0.0,0.0,0.0,0.0,0.0,0.0,0.0,663,0.32639042,0.24115846,0.0028829165,0.031341944,0.0182809,0.013200689,0.0,0.0,0.0,-0.006755,0,0,0,831,24,0,0,0
764772075,0.9989761,0.001655279,-0.025123999,0.03758744,-0.037517123,0.06879518,-1.4840981,5.3886657,2.6483712,-25.385355,-1.8946806e-05,1.4437872e-05,3.0907213e-06,5.9317663e-05,0.00040142488,0.00021312706,0.23695713,0.04332465,0.38152212,-0.00228556,-0.0066069425,0.007923385,0.0,0.0,3.0193554e-08,0.00032854738,0.0067072837,1.2244007e-07,5.7740676e-06,5.75975e-06,3.5070807e-05,0.011601671,0.011600106,0.010920635,0.05358768,0.053586263,0.05793749,1.0619771e-11,1.0612966e-11,1.773913e-11,5.0000107e-08,5.0000047e-08,5e-08,0.0,0.0,0.0,0.0,0.0,0.0,0.0,0.0,663,0.3273743,0.24070208,0.005733543,0.055731777,0.02029161,0.00032018826,0.0,0.0,0.0,-0.006722,0,0,0,831,24,0,0,0
764972862,0.99895847,0.00014836661,-0.025714424,0.03769304,-0.046243027,0.06419564,-1.3928651,5.386221,2.6501849,-25.659876,-1.890294e-05,1.4459011e-05,3.0745196e-06,5.940439e-05,0.00040117296,0.0002040964,0.23695713,0.04332465,0.38152212,-0.00228556,-0.0066069425,0.007923385,0.0,0.0,2.91309e-08,0.00036165616,0.00735905,1.2269574e-07,5.7920515e-06,5.7768034e-06,3.5068922e-05,0.011614978,0.01161333,0.010855603,0.053648118,0.053646747,0.057453353,1.0624837e-11,1.0617532e-11,1.773869e-11,5.0000107e-08,5.0000057e-08,5e-08,0.0,0.0,0.0,0.0,0.0,0.0,0.0,0.0,663,0.32755893,0.2396943,0.0031864238,0.05759239,0.020796016,0.057248108,0.0,0.0,0.0,-0.006735,0,0,0,831,24,0,0,0
765172894,0.99891406,-0.0009394982,-0.02696629,0.037982445,-0.04348683,0.06484506,-1.3001623,5.3770833,2.6532922,-25.925186,-1.8871735e-05,1.4444757e-05,3.0625574e-06,5.941581e-05,0.00040100748,0.00019969426,0.23695713,0.04332465,0.38152212,-0.00228556,-0.0066069425,0.007923385,0.0,0.0,2.8141423e-08,0.0003751536,0.007516136,1.2376249e-07,5.812413e-06,5.794812e-06,3.5065383e-05,0.011636199,0.011634206,0.010805029,0.053732887,0.053731535,0.057037663,1.0630534e-11,1.0622748e-11,1.7738432e-11,5.0000146e-08,5.0000065e-08,5e-08,0.0,0.0,0.0,0.0,0.0,0.0,0.0,0.0,663,0.32781765,0.23882559,0.0025812031,0.0420367,0.0210469,0.008517678,0.0,0.0,0.0,-0.006741,0,0,0,831,24,0,0,0
765373660,0.9988982,-9.221701e-05,-0.026569977,0.038685393,-0.0418072,0.060214132,-1.2217827,5.3717012,2.6541874,-26.159595,-1.8831632e-05,1.4455416e-05,3.0437652e-06,5.946489e-05,0.00040076883,0.00018854333,0.23695713,0.04332465,0.38152212,-0.00228556,-0.0066069425,0.007923385,0.0,0.0,3.0316205e-08,0.00038214028,0.0074769245,1.2548875e-07,5.828613e-06,5.8111837e-06,3.5063473e-05,0.011663008,0.011660654,0.010763791,0.053777345,0.05377598,0.056647055,1.0633662e-11,1.0625422e-11,1.773625e-11,5.0000143e-08,5.0000068e-08,5e-08,0.0,0.0,0.0,0.0,0.0,0.0,0.0,0.0,663,0.32795325,0.23800641,0.0027783187,0.07554184,0.02171621,0.0069774976,0.0,0.0,0.0,-0.006738,0,0,0,831,24,0,0,0
765574435,0.99883103,-0.0006085599,-0.027261475,0.03991184,-0.046292342,0.061386388,-1.1483469,5.3699727,2.662877,-26.371159,-1.8841507e-05,1.4485278e-05,3.0484778e-06,5.9515376e-05,0.00040059353,0.00017448941,0.23695713,0.04332465,0.38152212,-0.00228556,-0.0066069425,0.007923385,0.0,0.0,2.995321e-08,0.00038217602,0.007657058,1.2925352e-07,5.8465944e-06,5.8278147e-06,3.5058067e-05,0.011701835,0.011699299,0.010821125,0.05385895,0.05385754,0.057133913,1.0638119e-11,1.0629431e-11,1.7736073e-11,5.0000143e-08,5.000011e-08,5.0000065e-08,0.0,0.0,0.0,0.0,0.0,0.0,0.0,0.0,663,0.3282019,0.23902701,0.010255271,0.068991125,0.021758333,0.001148225,0.0,0.0,0.0,-0.006763,0,0,0,831,24,0,0,0
765782475,0.9987794,0.00024395235,-0.02746551,0.041052707,-0.042508557,0.050797846,-1.0947024,5.3618736,2.6683083,-26.600143,-1.8832521e-05,1.448152e-05,3.0389585e-06,5.9514987e-05,0.00040051423,0.00016944262,0.23695713,0.04332465,0.38152212,-0.00228556,-0.0066069425,0.007923385,0.0,0.0,2.8639123e-08,0.00036313932,0.0075218445,1.3269663e-07,5.871076e-06,5.8513124e-06,3.5073434e-05,0.011809127,0.011805979,0.010823009,0.05424814,0.05424662,0.057085123,1.0646766e-11,1.0637642e-11,1.773999e-11,5.0000217e-08,5.000016e-08,5e-08,0.0,0.0,0.0,0.0,0.0,0.0,0.0,0.0,663,0.32938543,0.23892494,0.009281797,0.05431642,0.01881892,0.024232788,0.0,0.0,0.0,-0.0067269998,0,0,0,831,24,0,0,0
765983241,0.99875295,0.0005999417,-0.02679376,0.04212322,-0.036116537,0.046083864,-1.0502026,5.364917,2.6688268,-26.79264,-1.8798937e-05,1.4537851e-05,3.0298604e-06,5.9665268e-05,0.00040035424,0.00015816872,0.23695713,0.04332465,0.38152212,-0.00228556,-0.0066069425,0.007923385,0.0,0.0,3.374616e-08,0.00037097462,0.007560978,1.3564295e-07,5.8831843e-06,5.8645314e-06,3.5069595e-05,0.011852243,0.011848785,0.010777752,0.05427211,0.054270465,0.056673624,1.0647612e-11,1.06380495e-11,1.7737908e-11,5.0000178e-08,5.000013e-08,5e-08,0.0,0.0,0.0,0.0,0.0,0.0,0.0,0.0,663,0.329458,0.23806223,0.008724863,0.05437123,0.017436638,0.007796916,0.0,0.0,0.0,-0.006755,0,0,0,831,24,0,0,0
766183230,0.99861836,-0.00056185335,-0.028593991,0.0440842,-0.02676914,0.02749453,-1.0064337,5.3712792,2.6636267,-26.982763,-1.8744196e-05,1.4601955e-05,3.019937e-06,5.988125e-05,0.0004001797,0.0001494327,0.23695713,0.04332465,0.38152212,-0.00228556,-0.0066069425,0.007923385,0.0,0.0,3.236959e-08,0.00033776474,0.0069700847,1.4233376e-07,5.8988035e-06,5.876824e-06,3.5058627e-05,0.011898975,0.0118948845,0.010743819,0.05432295,0.05432116,0.056345686,1.0649573e-11,1.06395795e-11,1.7737778e-11,5.0000178e-08,5.0000136e-08,5e-08,0.0,0.0,0.0,0.0,0.0,0.0,0.0,0.0,663,0.32961208,0.23737246,0.0023693799,0.04286326,0.019728433,0.0024612697,0.0,0.0,0.0,-0.006768,0,0,0,831,24,0,0,0
766392047,0.9985145,0.00061411277,-0.03042816,0.045195065,-0.016616475,0.0062441826,-0.9451898,5.3861527,2.6492412,-27.172085,-1.8657522e-05,1.4700203e-05,3.0158023e-06,6.0239283e-05,0.00039997292,0.00013940241,0.23695713,0.04332465,0.38152212,-0.00228556,-0.0066069425,0.007923385,0.0,0.0,3.044145e-08,0.00031448388,0.006467248,1.4661184e-07,5.9191034e-06,5.8927963e-06,3.507049e-05,0.011978634,0.011973867,0.010833997,0.054623608,0.05462159,0.057102513,1.0654106e-11,1.0643673e-11,1.7741808e-11,5.0000196e-08,5.000016e-08,5.0000036e-08,0.0,0.0,0.0,0.0,0.0,0.0,0.0,0.0,663,0.3305226,0.23896132,0.0002003785,0.076033264,0.022588361,0.01584659,0.0,0.0,0.0,-0.006751,0,0,0,831,24,0,0,0
766592869,0.99854565,0.0025102329,-0.02873249,0.04554999,-0.002008405,-0.0045968834,-0.89966005,5.3986154,2.6493,-27.343735,-1.868481e-05,1.4765577e-05,3.0074902e-06,6.039694e-05,0.00040007322,0.0001326521,0.23695713,0.04332465,0.38152212,-0.00228556,-0.0066069425,0.007923385,0.0,0.0,3.5239662e-08,0.00030806503,0.0062913047,1.4708559e-07,5.925651e-06,5.9026092e-06,3.5070876e-05,0.012013779,0.012008337,0.010879441,0.054631118,0.05462885,0.05750667,1.0653171e-11,1.0642329e-11,1.7739995e-11,5.0000217e-08,5.000019e-08,5.0000036e-08,0.0,0.0,0.0,0.0,0.0,0.0,0.0,0.0,663,0.33054495,0.23980547,0.0062902765,0.038087253,0.02037101,0.02465661,0.0,0.0,0.0,-0.006729,0,0,0,831,24,0,0,0
766793649,0.9986862,0.0059133116,-0.024820525,0.04443866,0.0035547994,-0.016333744,-0.85266954,5.408291,2.6357543,-27.492893,-1.8646953e-05,1.4794702e-05,3.0029285e-06,6.052124e-05,0.000399869,0.00012302352,0.23695713,0.04332465,0.38152212,-0.00228556,-0.0066069425,0.007923385,0.0,0.0,3.953989e-08,0.00030257108,0.0059959204,1.4236498e-07,5.928131e-06,5.9125077e-06,3.5134606e-05,0.0120518785,0.01204612,0.010926104,0.054651886,0.05464935,0.057939462,1.06534555e-11,1.0642187e-11,1.7751611e-11,5.0000217e-08,5.0000207e-08,5.00001e-08,0.0,0.0,0.0,0.0,0.0,0.0,0.0,0.0,663,0.33060738,0.24070618,0.008147631,0.011632283,0.022434302,0.010399091,0.0,0.0,0.0,-0.00675,0,0,0,831,24,0,0,0
767001655,0.99886745,0.007567323,-0.023249418,0.040818106,-0.0066241245,-0.027707018,-0.81907237,5.4167056,2.6186337,-27.648111,-1.8599223e-05,1.4816445e-05,2.987853e-06,6.0639886e-05,0.0003996549,0.000114766466,0.23695713,0.04332465,0.38152212,-0.00228556,-0.0066069425,0.007923385,0.0,0.0,5.853581e-08,0.00036952985,0.007204658,1.3038186e-07,5.9407926e-06,5.927955e-06,3.5110592e-05,0.012151009,0.012145183,0.010825016,0.05497745,0.0549746,0.05700314,1.0657213e-11,1.0645568e-11,1.7744107e-11,5.000025e-08,5.0000217e-08,5e-08,0.0,0.0,0.0,0.0,0.0,0.0,0.0,0.0,663,0.33159018,0.2387533,0.008780368,0.024372973,0.020893773,0.027796244,0.0,0.0,0.0,-0.006743,0,0,0,831,24,0,0,0
767198445,0.99902815,0.010257668,-0.022014491,0.03678336,-0.009329375,-0.023327207,-0.78072715,5.4227676,2.596516,-27.790804,-1.8527222e-05,1.4832692e-05,2.9768278e-06,6.076731e-05,0.00039933305,0.0001058255,0.23695713,0.04332465,0.38152212,-0.00228556,-0.0066069425,0.007923385,0.0,0.0,6.078265e-08,0.00035179968,0.007242126,1.18712606e-07,5.9447784e-06,5.9346025e-06,3.517465e-05,0.012181593,0.012176398,0.010871323,0.05497597,0.0549729,0.057403557,1.0654588e-11,1.0642509e-11,1.7753674e-11,5.0000242e-08,5.000023e-08,5.000007e-08,0.0,0.0,0.0,0.0,0.0,0.0,0.0,0.0,663,0.3315854,0.23959039,0.002032884,0.037163977,0.023720667,0.006335383,0.0,0.0,0.0,-0.006752,0,0,0,831,24,0,0,0
767406482,0.9991842,0.01116083,-0.022015152,0.03196695,-0.015018338,-0.0099194,-0.742653,5.434834,2.577115,-27.937815,-1.845562e-05,1.4896486e-05,2.9620905e-06,6.1100494e-05,0.0003990892,9.947992e-05,0.23695713,0.04332465,0.38152212,-0.00228556,-0.0066069425,0.007923385,0.0,0.0,6.586607e-08,0.0003819261,0.00759843,1.0632334e-07,5.9535514e-06,5.9435624e-06,3.5199944e-05,0.012232759,0.012228422,0.01086722,0.0551247,0.05512148,0.057205983,1.0651457e-11,1.06389775e-11,1.775222e-11,5.0000246e-08,5.000024e-08,5.000007e-08,0.0,0.0,0.0,0.0,0.0,0.0,0.0,0.0,663,0.3320334,0.23917772,0.00033053718,0.04235182,0.020559346,0.008698062,0.0,0.0,0.0,-0.00672,0,0,0,831,24,0,0,0
767607244,0.9992742,0.013369981,-0.021359071,0.028570317,-0.013296268,0.0013579148,-0.7170033,5.453629,2.5565782,-28.07026,-1.8358043e-05,1.4992841e-05,2.9364057e-06,6.161467e-05,0.00039872562,9.317699e-05,0.23695713,0.04332465,0.38152212,-0.00228556,-0.0066069425,0.007923385,0.0,0.0,5.8168244e-08,0.0003926493,0.0077658873,9.8654645e-08,5.9560175e-06,5.948289e-06,3.5258618e-05,0.01226445,0.012260847,0.010913233,0.055112295,0.055109065,0.05763529,1.0649427e-11,1.0636544e-11,1.7763438e-11,5.000026e-08,5.0000253e-08,5.000009e-08,0.0,0.0,0.0,0.0,0.0,0.0,0.0,0.0,663,0.33199602,0.2400735,0.016929414,0.05836091,0.02510188,0.030275907,0.0,0.0,0.0,-0.006753,0,0,0,831,24,0,0,0
767808057,0.9993318,0.0130334245,-0.021205852,0.026768709,-0.0011999202,0.017611131,-0.66349274,5.4772177,2.5286014,-28.187483,-1.8203962e-05,1.5107555e-05,2.9187847e-06,6.225976e-05,0.00039806293,8.477657e-05,0.23695713,0.04332465,0.38152212,-0.00228556,-0.0066069425,0.007923385,0.0,0.0,5.254315e-08,0.00040234532,0.0079618255,9.466164e-08,5.957907e-06,5.950227e-06,3.5257617e-05,0.012271238,0.012268313,0.010870805,0.055074655,0.05507153,0.05723486,1.0645261e-11,1.0632035e-11,1.776127e-11,5.0000242e-08,5.0000235e-08,5.000007e-08,0.0,0.0,0.0,0.0,0.0,0.0,0.0,0.0,663,0.33188277,0.23923808,0.005416171,0.08806078,0.031232692,0.058986366,0.0,0.0,0.0,-0.00674,0,0,0,831,24,0,0,0
768016071,0.9993982,0.012682106,-0.019245543,0.025925724,-0.012678263,0.053072993,-0.6287797,5.4761705,2.5191398,-28.340984,-1.815323e-05,1.5074376e-05,2.9019752e-06,6.213929e-05,0.00039788408,9.243261e-05,0.23695713,0.04332465,0.38152212,-0.00228556,-0.0066069425,0.007923385,0.0,0.0,4.3367226e-08,0.00039389628,0.007920184,9.241112e-08,5.9655235e-06,5.960174e-06,3.533185e-05,0.012342157,0.012339724,0.010880846,0.055315785,0.0553128,0.05722918,1.0647418e-11,1.063385e-11,1.7776482e-11,5.0000313e-08,5.0000313e-08,5.00001e-08,0.0,0.0,0.0,0.0,0.0,0.0,0.0,0.0,663,0.33260876,0.2392262,0.00680599,0.03536948,0.034673713,0.0069363113,0.0,0.0,0.0,-0.006753,0,0,0,831,24,0,0,0
768216844,0.9994255,0.013679626,-0.017118424,0.02585843,-0.034441467,0.07936456,-0.59104925,5.4595895,2.5202558,-28.465586,-1.8133238e-05,1.4979112e-05,2.8968338e-06,6.165509e-05,0.0003977976,9.277228e-05,0.23695713,0.04332465,0.38152212,-0.00228556,-0.0066069425,0.007923385,0.0,0.0,4.2767372e-08,0.00039160493,0.008034945,9.1973035e-08,5.9644112e-06,5.9621916e-06,3.5327175e-05,0.012351908,0.012349727,0.010843237,0.0552363,0.055233587,0.056859165,1.0643463e-11,1.0629602e-11,1.7773961e-11,5.0000313e-08,5.0000313e-08,5.0000036e-08,0.0,0.0,0.0,0.0,0.0,0.0,0.0,0.0,663,0.3323701,0.2384516,0.011541484,0.078435205,0.033114605,0.012145614,0.0,0.0,0.0,-0.006753,0,0,0,831,24,0,0,0
768417663,0.9993964,0.011668711,-0.01758393,0.027596135,-0.049144037,0.11487366,-0.5166397,5.4615293,2.5234406,-28.569527,-1.8074119e-05,1.5033037e-05,2.8900042e-06,6.19799e-05,0.00039751246,8.656735e-05,0.23695713,0.04332465,0.38152212,-0.00228556,-0.0066069425,0.007923385,0.0,0.0,5.0198352e-08,0.0003994726,0.008139467,9.515605e-08,5.967033e-06,5.9627087e-06,3.5318084e-05,0.012347819,0.012345663,0.0108140865,0.055198036,0.05519563,0.056559436,1.06414495e-11,1.06273185e-11,1.7773344e-11,5.0000313e-08,5.0000313e-08,5.0000036e-08,0.0,0.0,0.0,0.0,0.0,0.0,0.0,0.0,663,0.33225542,0.23782228,0.0008035818,0.058058545,0.034637515,0.02775531,0.0,0.0,0.0,-0.006735,0,0,0,831,24,0,0,0
768625715,0.9992912,0.008590876,-0.021754036,0.029499358,-0.070869796,0.13827167,-0.45999315,5.443617,2.5399296,-28.652163,-1.806005e-05,1.4988607e-05,2.8816303e-06,6.175547e-05,0.00039743725,7.807442e-05,0.23695713,0.04332465,0.38152212,-0.00228556,-0.0066069425,0.007923385,0.0,0.0,6.0428135e-08,0.00043660626,0.008735906,9.972624e-08,5.982399e-06,5.9699937e-06,3.5323385e-05,0.012423346,0.012421143,0.010830212,0.05555819,0.05555606,0.056597874,1.0644023e-11,1.0629645e-11,1.7776891e-11,5.0000356e-08,5.0000345e-08,5.0000036e-08,0.0,0.0,0.0,0.0,0.0,0.0,0.0,0.0,663,0.33333805,0.23790307,0.0033199268,0.036837254,0.031202624,0.035167065,0.0,0.0,0.0,-0.006684,0,0,0,831,24,0,0,0
768822445,0.99924463,0.005695395,-0.022484753,0.031179998,-0.064321,0.14590013,-0.409871,5.422449,2.5595896,-28.69402,-1.8041263e-05,1.4951835e-05,2.882793e-06,6.1561426e-05,0.00039726993,5.9669917e-05,0.23695713,0.04332465,0.38152212,-0.00228556,-0.0066069425,0.007923385,0.0,0.0,5.8723128e-08,0.0004453825,0.008884456,1.03379016e-07,5.982877e-06,5.968238e-06,3.5309764e-05,0.012423826,0.012421349,0.010799079,0.055520713,0.055518802,0.05618529,1.0637151e-11,1.0622557e-11,1.7770872e-11,5.0000324e-08,5.000031e-08,5e-08,0.0,0.0,0.0,0.0,0.0,0.0,0.0,0.0,663,0.33322594,0.23703437,0.0035974043,0.026379868,0.023345856,0.0440102,0.0,0.0,0.0,-0.006754,0,0,0,831,24,0,0,0
769027244,0.9992034,0.0034345575,-0.022884147,0.03251234,-0.074962705,0.15017666,-0.3730734,5.38647,2.58419,-28.766699,-1.8027382e-05,1.4856336e-05,2.888432e-06,6.105031e-05,0.00039719953,5.556968e-05,0.23695713,0.04332465,0.38152212,-0.00228556,-0.0066069425,0.007923385,0.0,0.0,5.388696e-08,0.00046764145,0.008868056,1.0650289e-07,5.989348e-06,5.9734803e-06,3.531844e-05,0.012482366,0.012479859,0.010816379,0.05575683,0.055755053,0.056227107,1.0636402e-11,1.0621617e-11,1.7772539e-11,5.000036e-08,5.0000345e-08,5.0000036e-08,0.0,0.0,0.0,0.0,0.0,0.0,0.0,0.0,663,0.33393395,0.23712255,0.0174924,0.052169938,0.026494963,0.013243381,0.0,0.0,0.0,-0.006753,0,0,0,831,24,0,0,0
